[{"reasons": {"count": 0, "items": [{"summary": "This spot is popular", "type": "general", "reasonName": "globalInteractionReason"}]}, "venue": {"id": "4b255c80f964a520a27024e3", "name": "Krasselt's Imbiss", "location": {"address": "Steglitzer Damm 22", "lat": 52.451033897672175, "lng": 13.339657404425962, "labeledLatLngs": [{"label": "display", "lat": 52.451033897672175, "lng": 13.339657404425962}], "distance": 226, "postalCode": "12169", "cc": "DE", "neighborhood": "Steglitz", "city": "Berlin", "state": "Berlin", "country": "Deutschland", "formattedAddress": ["Steglitzer Damm 22", "12169 Berlin", "Deutschland"]}, "categories": [{"id": "56aa371ce4b08b9a8d57358b", "name": "Currywurst Joint", "pluralName": "Currywurst Joints", "shortName": "Currywurst", "icon": {"prefix": "https://ss3.4sqi.net/img/categories_v2/food/bbqalt_", "suffix": ".png"}, "primary": true}], "photos": {"count": 0, "groups": []}}, "referralId": "e-0-4b255c80f964a520a27024e3-0"}, {"reasons": {"count": 0, "items": [{"summary": "This spot is popular", "type": "general", "reasonName": "globalInteractionReason"}]}, "venue": {"id": "4adcda7df964a520874721e3", "name": "Stadtpark Steglitz", "location": {"address": "Sedanstr.", "crossStreet": "Albrechtstr.", "lat": 52.44886949826595, "lng": 13.335664272308348, "labeledLatLngs": [{"label": "display", "lat": 52.44886949826595, "lng": 13.335664272308348}], "distance": 513, "postalCode": "12167", "cc": "DE", "city": "Berlin", "state": "Berlin", "country": "Deutschland", "formattedAddress": ["Sedanstr. (Albrechtstr.)", "12167 Berlin", "Deutschland"]}, "categories": [{"id": "4bf58dd8d48988d163941735", "name": "Park", "pluralName": "Parks", "shortName": "Park", "icon": {"prefix": "https://ss3.4sqi.net/img/categories_v2/parks_outdoors/park_", "suffix": ".png"}, "primary": true}], "photos": {"count": 0, "groups": []}}, "referralId": "e-0-4adcda7df964a520874721e3-1"}, {"reasons": {"count": 0, "items": [{"summary": "This spot is popular", "type": "general", "reasonName": "globalInteractionReason"}]}, "venue": {"id": "4bb71442f562ef3b56023197", "name": "Konditorei Rabien", "location": {"address": "Klingsorstr. 13", "lat": 52.45192829091471, "lng": 13.330256851434882, "labeledLatLngs": [{"label": "display", "lat": 52.45192829091471, "lng": 13.330256851434882}], "distance": 603, "postalCode": "12167", "cc": "DE", "city": "Berlin", "state": "Berlin", "country": "Deutschland", "formattedAddress": ["Klingsorstr. 13", "12167 Berlin", "Deutschland"]}, "categories": [{"id": "5744ccdfe4b0c0459246b4e2", "name": "Pastry Shop", "pluralName": "Pastry Shops", "shortName": "Pastry", "icon": {"prefix": "https://ss3.4sqi.net/img/categories_v2/food/dessert_", "suffix": ".png"}, "primary": true}], "photos": {"count": 0, "groups": []}}, "referralId": "e-0-4bb71442f562ef3b56023197-2"}, {"reasons": {"count": 0, "items": [{"summary": "This spot is popular", "type": "general", "reasonName": "globalInteractionReason"}]}, "venue": {"id": "564f68b5498ec41abf2d1f1b", "name": "Fulilai", "location": {"address": "Albrechtstr. 74", "lat": 52.447555363996194, "lng": 13.340753884380351, "labeledLatLngs": [{"label": "display", "lat": 52.447555363996194, "lng": 13.340753884380351}], "distance": 620, "postalCode": "12167", "cc": "DE", "city": "Berlin", "state": "Berlin", "country": "Deutschland", "formattedAddress": ["Albrechtstr. 74", "12167 Berlin", "Deutschland"]}, "categories": [{"id": "4bf58dd8d48988d145941735", "name": "Chinese Restaurant", "pluralName": "Chinese Restaurants", "shortName": "Chinese", "icon": {"prefix": "https://ss3.4sqi.net/img/categories_v2/food/asian_", "suffix": ".png"}, "primary": true}], "photos": {"count": 0, "groups": []}}, "referralId": "e-0-564f68b5498ec41abf2d1f1b-3"}, {"reasons": {"count": 0, "items": [{"summary": "This spot is popular", "type": "general", "reasonName": "globalInteractionReason"}]}, "venue": {"id": "4b9cd902f964a520867e36e3", "name": "Planetarium am Insulaner", "location": {"address": "Munsterdamm 90", "lat": 52.45751360989254, "lng": 13.349226512135662, "labeledLatLngs": [{"label": "display", "lat": 52.45751360989254, "lng": 13.349226512135662}], "distance": 856, "postalCode": "12169", "cc": "DE", "city": "Berlin", "state": "Berlin", "country": "Deutschland", "formattedAddress": ["Munsterdamm 90", "12169 Berlin", "Deutschland"]}, "categories": [{"id": "4bf58dd8d48988d192941735", "name": "Planetarium", "pluralName": "Planetariums", "shortName": "Planetarium", "icon": {"prefix": "https://ss3.4sqi.net/img/categories_v2/arts_entertainment/museum_planetarium_", "suffix": ".png"}, "primary": true}], "photos": {"count": 0, "groups": []}}, "referralId": "e-0-4b9cd902f964a520867e36e3-4"}, {"reasons": {"count": 0, "items": [{"summary": "This spot is popular", "type": "general", "reasonName": "globalInteractionReason"}]}, "venue": {"id": "5269552811d26b0a59e35f6b", "name": "LPG BioMarkt", "location": {"address": "Albrechtstr. 33", "lat": 52.45241025408888, "lng": 13.332194525655748, "labeledLatLngs": [{"label": "display", "lat": 52.45241025408888, "lng": 13.332194525655748}], "distance": 464, "postalCode": "12167", "cc": "DE", "city": "Berlin", "state": "Berlin", "country": "Deutschland", "formattedAddress": ["Albrechtstr. 33", "12167 Berlin", "Deutschland"]}, "categories": [{"id": "52f2ab2ebcbc57f1066b8b45", "name": "Organic Grocery", "pluralName": "Organic Groceries", "shortName": "Organic Grocery", "icon": {"prefix": "https://ss3.4sqi.net/img/categories_v2/shops/food_grocery_", "suffix": ".png"}, "primary": true}], "photos": {"count": 0, "groups": []}}, "referralId": "e-0-5269552811d26b0a59e35f6b-5"}, {"reasons": {"count": 0, "items": [{"summary": "This spot is popular", "type": "general", "reasonName": "globalInteractionReason"}]}, "venue": {"id": "54634daf498e94400cee4e51", "name": "Die Kaffeenauten", "location": {"address": "Sch\u00fctzenstr. 4", "lat": 52.45493895284516, "lng": 13.324619657945872, "labeledLatLngs": [{"label": "display", "lat": 52.45493895284516, "lng": 13.324619657945872}], "distance": 996, "postalCode": "12165", "cc": "DE", "city": "Berlin", "state": "Berlin", "country": "Deutschland", "formattedAddress": ["Sch\u00fctzenstr. 4", "12165 Berlin", "Deutschland"]}, "categories": [{"id": "4bf58dd8d48988d16d941735", "name": "Caf\u00e9", "pluralName": "Caf\u00e9s", "shortName": "Caf\u00e9", "icon": {"prefix": "https://ss3.4sqi.net/img/categories_v2/food/cafe_", "suffix": ".png"}, "primary": true}], "photos": {"count": 0, "groups": []}}, "referralId": "e-0-54634daf498e94400cee4e51-6"}, {"reasons": {"count": 0, "items": [{"summary": "This spot is popular", "type": "general", "reasonName": "globalInteractionReason"}]}, "venue": {"id": "4e6a35dd483bf2d9e61e56f7", "name": "Chopsticks - Die Vielfalt Asiens", "location": {"address": "Bismarckstr. 16F", "lat": 52.45663058827576, "lng": 13.338907775762403, "labeledLatLngs": [{"label": "display", "lat": 52.45663058827576, "lng": 13.338907775762403}], "distance": 401, "postalCode": "12169", "cc": "DE", "city": "Berlin", "state": "Berlin", "country": "Deutschland", "formattedAddress": ["Bismarckstr. 16F", "12169 Berlin", "Deutschland"]}, "categories": [{"id": "4bf58dd8d48988d149941735", "name": "Thai Restaurant", "pluralName": "Thai Restaurants", "shortName": "Thai", "icon": {"prefix": "https://ss3.4sqi.net/img/categories_v2/food/thai_", "suffix": ".png"}, "primary": true}], "photos": {"count": 0, "groups": []}}, "referralId": "e-0-4e6a35dd483bf2d9e61e56f7-7"}, {"reasons": {"count": 0, "items": [{"summary": "This spot is popular", "type": "general", "reasonName": "globalInteractionReason"}]}, "venue": {"id": "4b6c6681f964a520f5362ce3", "name": "Osteria Maria", "location": {"address": "Leydenallee 79", "lat": 52.453131742789154, "lng": 13.324577387204311, "labeledLatLngs": [{"label": "display", "lat": 52.453131742789154, "lng": 13.324577387204311}], "distance": 976, "postalCode": "12165", "cc": "DE", "city": "Berlin", "state": "Berlin", "country": "Deutschland", "formattedAddress": ["Leydenallee 79", "12165 Berlin", "Deutschland"]}, "categories": [{"id": "55a5a1ebe4b013909087cb7f", "name": "Trattoria/Osteria", "pluralName": "Trattorias/Osterias", "shortName": "Trattoria/Osteria", "icon": {"prefix": "https://ss3.4sqi.net/img/categories_v2/food/italian_", "suffix": ".png"}, "primary": true}], "photos": {"count": 0, "groups": []}}, "referralId": "e-0-4b6c6681f964a520f5362ce3-8"}, {"reasons": {"count": 0, "items": [{"summary": "This spot is popular", "type": "general", "reasonName": "globalInteractionReason"}]}, "venue": {"id": "4b40d806f964a52005bc25e3", "name": "Video World", "location": {"address": "Steglitzer Damm 76", "crossStreet": "Liebenowzeile", "lat": 52.44969407215345, "lng": 13.349213604026994, "labeledLatLngs": [{"label": "display", "lat": 52.44969407215345, "lng": 13.349213604026994}], "distance": 787, "postalCode": "12169", "cc": "DE", "city": "Berlin", "state": "Berlin", "country": "Deutschland", "formattedAddress": ["Steglitzer Damm 76 (Liebenowzeile)", "12169 Berlin", "Deutschland"]}, "categories": [{"id": "4bf58dd8d48988d126951735", "name": "Video Store", "pluralName": "Video Stores", "shortName": "Video Store", "icon": {"prefix": "https://ss3.4sqi.net/img/categories_v2/shops/video_", "suffix": ".png"}, "primary": true}], "photos": {"count": 0, "groups": []}}, "referralId": "e-0-4b40d806f964a52005bc25e3-9"}, {"reasons": {"count": 0, "items": [{"summary": "This spot is popular", "type": "general", "reasonName": "globalInteractionReason"}]}, "venue": {"id": "4d7b94ae73ca54818fce4d7c", "name": "eurogida", "location": {"address": "Albrechtstr. 19", "lat": 52.454568276555534, "lng": 13.327419772101436, "labeledLatLngs": [{"label": "display", "lat": 52.454568276555534, "lng": 13.327419772101436}], "distance": 802, "postalCode": "12167", "cc": "DE", "city": "Berlin", "state": "Berlin", "country": "Deutschland", "formattedAddress": ["Albrechtstr. 19", "12167 Berlin", "Deutschland"]}, "categories": [{"id": "4bf58dd8d48988d118951735", "name": "Grocery Store", "pluralName": "Grocery Stores", "shortName": "Grocery Store", "icon": {"prefix": "https://ss3.4sqi.net/img/categories_v2/shops/food_grocery_", "suffix": ".png"}, "primary": true}], "photos": {"count": 0, "groups": []}}, "referralId": "e-0-4d7b94ae73ca54818fce4d7c-10"}, {"reasons": {"count": 0, "items": [{"summary": "This spot is popular", "type": "general", "reasonName": "globalInteractionReason"}]}, "venue": {"id": "4bd9d58d3f01c9b6c15053a5", "name": "Finnegan's Irish Pub", "location": {"address": "Bergstr. 8", "lat": 52.45811897118354, "lng": 13.32949372692403, "labeledLatLngs": [{"label": "display", "lat": 52.45811897118354, "lng": 13.32949372692403}], "distance": 857, "postalCode": "12169", "cc": "DE", "city": "Berlin", "state": "Berlin", "country": "Deutschland", "formattedAddress": ["Bergstr. 8", "12169 Berlin", "Deutschland"]}, "categories": [{"id": "52e81612bcbc57f1066b7a06", "name": "Irish Pub", "pluralName": "Irish Pubs", "shortName": "Irish", "icon": {"prefix": "https://ss3.4sqi.net/img/categories_v2/nightlife/pub_", "suffix": ".png"}, "primary": true}], "photos": {"count": 0, "groups": []}}, "referralId": "e-0-4bd9d58d3f01c9b6c15053a5-11"}, {"reasons": {"count": 0, "items": [{"summary": "This spot is popular", "type": "general", "reasonName": "globalInteractionReason"}]}, "venue": {"id": "5040fc36e4b09fb67a704f4c", "name": "Trattoria Siciliana", "location": {"address": "Bergstr. 7", "lat": 52.45791548, "lng": 13.32898434, "labeledLatLngs": [{"label": "display", "lat": 52.45791548, "lng": 13.32898434}], "distance": 869, "postalCode": "12169", "cc": "DE", "city": "Berlin", "state": "Berlin", "country": "Deutschland", "formattedAddress": ["Bergstr. 7", "12169 Berlin", "Deutschland"]}, "categories": [{"id": "55a5a1ebe4b013909087cb7f", "name": "Trattoria/Osteria", "pluralName": "Trattorias/Osterias", "shortName": "Trattoria/Osteria", "icon": {"prefix": "https://ss3.4sqi.net/img/categories_v2/food/italian_", "suffix": ".png"}, "primary": true}], "photos": {"count": 0, "groups": []}, "venuePage": {"id": "558623067"}}, "referralId": "e-0-5040fc36e4b09fb67a704f4c-12"}, {"reasons": {"count": 0, "items": [{"summary": "This spot is popular", "type": "general", "reasonName": "globalInteractionReason"}]}, "venue": {"id": "4b517380f964a5208c4d27e3", "name": "Kebap House", "location": {"address": "Steglitzer Damm 14", "lat": 52.45097690112631, "lng": 13.338461488671657, "labeledLatLngs": [{"label": "display", "lat": 52.45097690112631, "lng": 13.338461488671657}], "distance": 230, "postalCode": "12169", "cc": "DE", "city": "Berlin", "state": "Berlin", "country": "Deutschland", "formattedAddress": ["Steglitzer Damm 14", "12169 Berlin", "Deutschland"]}, "categories": [{"id": "4f04af1f2fb6e1c99f3db0bb", "name": "Turkish Restaurant", "pluralName": "Turkish Restaurants", "shortName": "Turkish", "icon": {"prefix": "https://ss3.4sqi.net/img/categories_v2/food/turkish_", "suffix": ".png"}, "primary": true}], "photos": {"count": 0, "groups": []}}, "referralId": "e-0-4b517380f964a5208c4d27e3-13"}, {"reasons": {"count": 0, "items": [{"summary": "This spot is popular", "type": "general", "reasonName": "globalInteractionReason"}]}, "venue": {"id": "4ba38818f964a520e44438e3", "name": "ALDI NORD", "location": {"address": "Bismarkstr. 16f", "lat": 52.456156922251935, "lng": 13.338062822701914, "labeledLatLngs": [{"label": "display", "lat": 52.456156922251935, "lng": 13.338062822701914}], "distance": 354, "postalCode": "12169", "cc": "DE", "city": "Berlin", "state": "Berlin", "country": "Deutschland", "formattedAddress": ["Bismarkstr. 16f", "12169 Berlin", "Deutschland"]}, "categories": [{"id": "52f2ab2ebcbc57f1066b8b46", "name": "Supermarket", "pluralName": "Supermarkets", "shortName": "Supermarket", "icon": {"prefix": "https://ss3.4sqi.net/img/categories_v2/shops/food_grocery_", "suffix": ".png"}, "primary": true}], "photos": {"count": 0, "groups": []}}, "referralId": "e-0-4ba38818f964a520e44438e3-14"}, {"reasons": {"count": 0, "items": [{"summary": "This spot is popular", "type": "general", "reasonName": "globalInteractionReason"}]}, "venue": {"id": "4c3026e4a0ced13a9dd9116e", "name": "Sommerbad am Insulaner", "location": {"address": "Munsterdam 80", "lat": 52.4561992874853, "lng": 13.351579292380762, "labeledLatLngs": [{"label": "display", "lat": 52.4561992874853, "lng": 13.351579292380762}], "distance": 925, "postalCode": "12169", "cc": "DE", "city": "Berlin", "state": "Berlin", "country": "Deutschland", "formattedAddress": ["Munsterdam 80", "12169 Berlin", "Deutschland"]}, "categories": [{"id": "4bf58dd8d48988d15e941735", "name": "Pool", "pluralName": "Pools", "shortName": "Pool", "icon": {"prefix": "https://ss3.4sqi.net/img/categories_v2/parks_outdoors/pool_", "suffix": ".png"}, "primary": true}], "photos": {"count": 0, "groups": []}}, "referralId": "e-0-4c3026e4a0ced13a9dd9116e-15"}, {"reasons": {"count": 0, "items": [{"summary": "This spot is popular", "type": "general", "reasonName": "globalInteractionReason"}]}, "venue": {"id": "4c1f5cad8b3aa593c84e9d5f", "name": "La Casserole", "location": {"address": "Sch\u00fctzenstr. 54", "lat": 52.455121, "lng": 13.324812, "labeledLatLngs": [{"label": "display", "lat": 52.455121, "lng": 13.324812}], "distance": 988, "postalCode": "12165", "cc": "DE", "city": "Berlin", "state": "Berlin", "country": "Deutschland", "formattedAddress": ["Sch\u00fctzenstr. 54", "12165 Berlin", "Deutschland"]}, "categories": [{"id": "4bf58dd8d48988d1c0941735", "name": "Mediterranean Restaurant", "pluralName": "Mediterranean Restaurants", "shortName": "Mediterranean", "icon": {"prefix": "https://ss3.4sqi.net/img/categories_v2/food/mediterranean_", "suffix": ".png"}, "primary": true}], "photos": {"count": 0, "groups": []}}, "referralId": "e-0-4c1f5cad8b3aa593c84e9d5f-16"}, {"reasons": {"count": 0, "items": [{"summary": "This spot is popular", "type": "general", "reasonName": "globalInteractionReason"}]}, "venue": {"id": "505ca6e7e4b0d44483ea99e8", "name": "Sichuan", "location": {"address": "Albrechtstr. 92", "lat": 52.45208774083443, "lng": 13.333673086790037, "labeledLatLngs": [{"label": "display", "lat": 52.45208774083443, "lng": 13.333673086790037}], "distance": 374, "postalCode": "12167", "cc": "DE", "city": "Berlin", "state": "Berlin", "country": "Deutschland", "formattedAddress": ["Albrechtstr. 92", "12167 Berlin", "Deutschland"]}, "categories": [{"id": "4bf58dd8d48988d145941735", "name": "Chinese Restaurant", "pluralName": "Chinese Restaurants", "shortName": "Chinese", "icon": {"prefix": "https://ss3.4sqi.net/img/categories_v2/food/asian_", "suffix": ".png"}, "primary": true}], "photos": {"count": 0, "groups": []}}, "referralId": "e-0-505ca6e7e4b0d44483ea99e8-17"}, {"reasons": {"count": 0, "items": [{"summary": "This spot is popular", "type": "general", "reasonName": "globalInteractionReason"}]}, "venue": {"id": "4e4fa1ffd4c0b6da5d801c8b", "name": "Lidl", "location": {"address": "Bergstr. 86", "lat": 52.4584343, "lng": 13.3300178, "labeledLatLngs": [{"label": "display", "lat": 52.4584343, "lng": 13.3300178}], "distance": 855, "postalCode": "12169", "cc": "DE", "city": "Berlin", "state": "Berlin", "country": "Deutschland", "formattedAddress": ["Bergstr. 86", "12169 Berlin", "Deutschland"]}, "categories": [{"id": "52f2ab2ebcbc57f1066b8b46", "name": "Supermarket", "pluralName": "Supermarkets", "shortName": "Supermarket", "icon": {"prefix": "https://ss3.4sqi.net/img/categories_v2/shops/food_grocery_", "suffix": ".png"}, "primary": true}], "photos": {"count": 0, "groups": []}, "venuePage": {"id": "578267925"}}, "referralId": "e-0-4e4fa1ffd4c0b6da5d801c8b-18"}, {"reasons": {"count": 0, "items": [{"summary": "This spot is popular", "type": "general", "reasonName": "globalInteractionReason"}]}, "venue": {"id": "599a96baa8eb6018cf068394", "name": "EDEKA Albrechtstra\u00dfe", "location": {"address": "Albrechtstr. 23", "lat": 52.45382096, "lng": 13.32897067, "labeledLatLngs": [{"label": "display", "lat": 52.45382096, "lng": 13.32897067}], "distance": 684, "postalCode": "12167", "cc": "DE", "city": "Berlin", "state": "Berlin", "country": "Deutschland", "formattedAddress": ["Albrechtstr. 23", "12167 Berlin", "Deutschland"]}, "categories": [{"id": "52f2ab2ebcbc57f1066b8b46", "name": "Supermarket", "pluralName": "Supermarkets", "shortName": "Supermarket", "icon": {"prefix": "https://ss3.4sqi.net/img/categories_v2/shops/food_grocery_", "suffix": ".png"}, "primary": true}], "photos": {"count": 0, "groups": []}, "venuePage": {"id": "553194555"}}, "referralId": "e-0-599a96baa8eb6018cf068394-19"}, {"reasons": {"count": 0, "items": [{"summary": "This spot is popular", "type": "general", "reasonName": "globalInteractionReason"}]}, "venue": {"id": "4b2392c8f964a520e35624e3", "name": "EDEKA G\u00e4th", "location": {"address": "Steglitzer Damm 22", "lat": 52.450927898029214, "lng": 13.339836302460732, "labeledLatLngs": [{"label": "display", "lat": 52.450927898029214, "lng": 13.339836302460732}], "distance": 240, "postalCode": "12169", "cc": "DE", "city": "Berlin", "state": "Berlin", "country": "Deutschland", "formattedAddress": ["Steglitzer Damm 22", "12169 Berlin", "Deutschland"]}, "categories": [{"id": "52f2ab2ebcbc57f1066b8b46", "name": "Supermarket", "pluralName": "Supermarkets", "shortName": "Supermarket", "icon": {"prefix": "https://ss3.4sqi.net/img/categories_v2/shops/food_grocery_", "suffix": ".png"}, "primary": true}], "photos": {"count": 0, "groups": []}, "venuePage": {"id": "553201848"}}, "referralId": "e-0-4b2392c8f964a520e35624e3-20"}, {"reasons": {"count": 0, "items": [{"summary": "This spot is popular", "type": "general", "reasonName": "globalInteractionReason"}]}, "venue": {"id": "4f72fbd4e4b02c6aeedc29a8", "name": "Post", "location": {"address": "Steglitzer Damm 22", "crossStreet": "E Reichelt-Filiale", "lat": 52.450958093656986, "lng": 13.339434659135645, "labeledLatLngs": [{"label": "display", "lat": 52.450958093656986, "lng": 13.339434659135645}], "distance": 231, "postalCode": "12169", "cc": "DE", "city": "Berlin", "state": "Berlin", "country": "Deutschland", "formattedAddress": ["Steglitzer Damm 22 (E Reichelt-Filiale)", "12169 Berlin", "Deutschland"]}, "categories": [{"id": "4bf58dd8d48988d172941735", "name": "Post Office", "pluralName": "Post Offices", "shortName": "Post Office", "icon": {"prefix": "https://ss3.4sqi.net/img/categories_v2/building/postoffice_", "suffix": ".png"}, "primary": true}], "photos": {"count": 0, "groups": []}}, "referralId": "e-0-4f72fbd4e4b02c6aeedc29a8-21"}, {"reasons": {"count": 0, "items": [{"summary": "This spot is popular", "type": "general", "reasonName": "globalInteractionReason"}]}, "venue": {"id": "4c5fc43d891bef3b3289224b", "name": "Kiwi Pub", "location": {"address": "Albrechtstra\u00dfe 115", "lat": 52.45488711774992, "lng": 13.32717369435509, "labeledLatLngs": [{"label": "display", "lat": 52.45488711774992, "lng": 13.32717369435509}], "distance": 826, "postalCode": "12167", "cc": "DE", "city": "Berlin", "state": "Berlin", "country": "Deutschland", "formattedAddress": ["Albrechtstra\u00dfe 115", "12167 Berlin", "Deutschland"]}, "categories": [{"id": "4bf58dd8d48988d11b941735", "name": "Pub", "pluralName": "Pubs", "shortName": "Pub", "icon": {"prefix": "https://ss3.4sqi.net/img/categories_v2/nightlife/pub_", "suffix": ".png"}, "primary": true}], "photos": {"count": 0, "groups": []}}, "referralId": "e-0-4c5fc43d891bef3b3289224b-22"}, {"reasons": {"count": 0, "items": [{"summary": "This spot is popular", "type": "general", "reasonName": "globalInteractionReason"}]}, "venue": {"id": "53a33805498e5cd1fc46c174", "name": "Sandwiches & Coffee", "location": {"address": "Albrechtstr. 93", "lat": 52.452313917712125, "lng": 13.333067254892184, "labeledLatLngs": [{"label": "display", "lat": 52.452313917712125, "lng": 13.333067254892184}], "distance": 408, "postalCode": "12167", "cc": "DE", "city": "Berlin", "state": "Berlin", "country": "Deutschland", "formattedAddress": ["Albrechtstr. 93", "12167 Berlin", "Deutschland"]}, "categories": [{"id": "4bf58dd8d48988d1c5941735", "name": "Sandwich Place", "pluralName": "Sandwich Places", "shortName": "Sandwiches", "icon": {"prefix": "https://ss3.4sqi.net/img/categories_v2/food/deli_", "suffix": ".png"}, "primary": true}], "photos": {"count": 0, "groups": []}}, "referralId": "e-0-53a33805498e5cd1fc46c174-23"}, {"reasons": {"count": 0, "items": [{"summary": "This spot is popular", "type": "general", "reasonName": "globalInteractionReason"}]}, "venue": {"id": "518fae53498ea90dbd6f441c", "name": "Caf\u00e9 Le Paris", "location": {"address": "Albrechtstr. 11", "lat": 52.4554569421338, "lng": 13.325048089027405, "labeledLatLngs": [{"label": "display", "lat": 52.4554569421338, "lng": 13.325048089027405}], "distance": 982, "postalCode": "12165", "cc": "DE", "city": "Berlin", "state": "Berlin", "country": "Deutschland", "formattedAddress": ["Albrechtstr. 11", "12165 Berlin", "Deutschland"]}, "categories": [{"id": "4bf58dd8d48988d16d941735", "name": "Caf\u00e9", "pluralName": "Caf\u00e9s", "shortName": "Caf\u00e9", "icon": {"prefix": "https://ss3.4sqi.net/img/categories_v2/food/cafe_", "suffix": ".png"}, "primary": true}], "photos": {"count": 0, "groups": []}}, "referralId": "e-0-518fae53498ea90dbd6f441c-24"}, {"reasons": {"count": 0, "items": [{"summary": "This spot is popular", "type": "general", "reasonName": "globalInteractionReason"}]}, "venue": {"id": "4f096611e4b0e624d81f6c45", "name": "Sporthalle Wilhelm-Ostwald-Schule", "location": {"address": "Immenweg 6, 12169 Berlin", "lat": 52.452324684164495, "lng": 13.345753846424177, "labeledLatLngs": [{"label": "display", "lat": 52.452324684164495, "lng": 13.345753846424177}], "distance": 466, "postalCode": "12169", "cc": "DE", "city": "Berlin", "state": "Berlin", "country": "Deutschland", "formattedAddress": ["Immenweg 6, 12169 Berlin", "12169 Berlin", "Deutschland"]}, "categories": [{"id": "4bf58dd8d48988d176941735", "name": "Gym", "pluralName": "Gyms", "shortName": "Gym", "icon": {"prefix": "https://ss3.4sqi.net/img/categories_v2/building/gym_", "suffix": ".png"}, "primary": true}], "photos": {"count": 0, "groups": []}}, "referralId": "e-0-4f096611e4b0e624d81f6c45-25"}, {"reasons": {"count": 0, "items": [{"summary": "This spot is popular", "type": "general", "reasonName": "globalInteractionReason"}]}, "venue": {"id": "52936cd111d264c5900ad913", "name": "B\u00e4ckerei bei Mutti", "location": {"lat": 52.4490259023824, "lng": 13.343223809756802, "labeledLatLngs": [{"label": "display", "lat": 52.4490259023824, "lng": 13.343223809756802}], "distance": 530, "cc": "DE", "city": "Berlin", "state": "Berlin", "country": "Deutschland", "formattedAddress": ["Berlin", "Deutschland"]}, "categories": [{"id": "4bf58dd8d48988d16a941735", "name": "Bakery", "pluralName": "Bakeries", "shortName": "Bakery", "icon": {"prefix": "https://ss3.4sqi.net/img/categories_v2/food/bakery_", "suffix": ".png"}, "primary": true}], "photos": {"count": 0, "groups": []}}, "referralId": "e-0-52936cd111d264c5900ad913-26"}, {"reasons": {"count": 0, "items": [{"summary": "This spot is popular", "type": "general", "reasonName": "globalInteractionReason"}]}, "venue": {"id": "4da1ce1db3e7236aa2081179", "name": "Gartenkolonie Rauhe Berge", "location": {"address": "Munsterdamm 83", "crossStreet": "Steglitzer Damm", "lat": 52.45580730521998, "lng": 13.347661169604178, "labeledLatLngs": [{"label": "display", "lat": 52.45580730521998, "lng": 13.347661169604178}], "distance": 666, "postalCode": "12169", "cc": "DE", "city": "Berlin", "state": "Berlin", "country": "Deutschland", "formattedAddress": ["Munsterdamm 83 (Steglitzer Damm)", "12169 Berlin", "Deutschland"]}, "categories": [{"id": "4bf58dd8d48988d15a941735", "name": "Garden", "pluralName": "Gardens", "shortName": "Garden", "icon": {"prefix": "https://ss3.4sqi.net/img/categories_v2/parks_outdoors/garden_", "suffix": ".png"}, "primary": true}], "photos": {"count": 0, "groups": []}}, "referralId": "e-0-4da1ce1db3e7236aa2081179-27"}, {"reasons": {"count": 0, "items": [{"summary": "This spot is popular", "type": "general", "reasonName": "globalInteractionReason"}]}, "venue": {"id": "5035cde9e4b0101af27721b8", "name": "Lauenburger Platz", "location": {"address": "Bismarckstr.", "crossStreet": "Lauenburger Str.", "lat": 52.4617040914129, "lng": 13.338614702224731, "labeledLatLngs": [{"label": "display", "lat": 52.4617040914129, "lng": 13.338614702224731}], "distance": 966, "postalCode": "12157", "cc": "DE", "city": "Berlin", "state": "Berlin", "country": "Deutschland", "formattedAddress": ["Bismarckstr. (Lauenburger Str.)", "12157 Berlin", "Deutschland"]}, "categories": [{"id": "4bf58dd8d48988d163941735", "name": "Park", "pluralName": "Parks", "shortName": "Park", "icon": {"prefix": "https://ss3.4sqi.net/img/categories_v2/parks_outdoors/park_", "suffix": ".png"}, "primary": true}], "photos": {"count": 0, "groups": []}}, "referralId": "e-0-5035cde9e4b0101af27721b8-28"}, {"reasons": {"count": 0, "items": [{"summary": "This spot is popular", "type": "general", "reasonName": "globalInteractionReason"}]}, "venue": {"id": "5076eacb498e7be11ed28ee4", "name": "H Lauenburger Platz", "location": {"address": "Bismarckstr.", "crossStreet": "Lauenburger Platz", "lat": 52.46177354174777, "lng": 13.33932551050057, "labeledLatLngs": [{"label": "display", "lat": 52.46177354174777, "lng": 13.33932551050057}], "distance": 974, "postalCode": "12157", "cc": "DE", "city": "Berlin", "state": "Berlin", "country": "Deutschland", "formattedAddress": ["Bismarckstr. (Lauenburger Platz)", "12157 Berlin", "Deutschland"]}, "categories": [{"id": "52f2ab2ebcbc57f1066b8b4f", "name": "Bus Stop", "pluralName": "Bus Stops", "shortName": "Bus Stop", "icon": {"prefix": "https://ss3.4sqi.net/img/categories_v2/travel/busstation_", "suffix": ".png"}, "primary": true}], "photos": {"count": 0, "groups": []}}, "referralId": "e-0-5076eacb498e7be11ed28ee4-29"}, {"reasons": {"count": 0, "items": [{"summary": "This spot is popular", "type": "general", "reasonName": "globalInteractionReason"}]}, "venue": {"id": "4ece4d9702d5feaa19dbf077", "name": "Imbiss am Lauenburger Platz", "location": {"lat": 52.46192829661709, "lng": 13.339076460516594, "labeledLatLngs": [{"label": "display", "lat": 52.46192829661709, "lng": 13.339076460516594}], "distance": 991, "cc": "DE", "city": "Berlin", "state": "Berlin", "country": "Deutschland", "formattedAddress": ["Berlin", "Deutschland"]}, "categories": [{"id": "4bf58dd8d48988d147941735", "name": "Diner", "pluralName": "Diners", "shortName": "Diner", "icon": {"prefix": "https://ss3.4sqi.net/img/categories_v2/food/diner_", "suffix": ".png"}, "primary": true}], "photos": {"count": 0, "groups": []}}, "referralId": "e-0-4ece4d9702d5feaa19dbf077-30"}]