[{"reasons": {"count": 0, "items": [{"summary": "This spot is popular", "type": "general", "reasonName": "globalInteractionReason"}]}, "venue": {"id": "4c3caf727c1ee21e63ea8c71", "name": "Buchhandlung Walther K\u00f6nig", "location": {"address": "Burgstr. 27", "lat": 52.52130069676686, "lng": 13.40075831891714, "labeledLatLngs": [{"label": "display", "lat": 52.52130069676686, "lng": 13.40075831891714}], "distance": 111, "postalCode": "10178", "cc": "DE", "city": "Berlin", "state": "Berlin", "country": "Deutschland", "formattedAddress": ["Burgstr. 27", "10178 Berlin", "Deutschland"]}, "categories": [{"id": "4bf58dd8d48988d114951735", "name": "Bookstore", "pluralName": "Bookstores", "shortName": "Bookstore", "icon": {"prefix": "https://ss3.4sqi.net/img/categories_v2/shops/bookstore_", "suffix": ".png"}, "primary": true}], "photos": {"count": 0, "groups": []}}, "referralId": "e-0-4c3caf727c1ee21e63ea8c71-0"}, {"reasons": {"count": 0, "items": [{"summary": "This spot is popular", "type": "general", "reasonName": "globalInteractionReason"}]}, "venue": {"id": "4c35ba013896e21e6292ed90", "name": "James-Simon-Park", "location": {"address": "Burgstr.", "crossStreet": "Spreepromenade", "lat": 52.52190716050168, "lng": 13.399361371994019, "labeledLatLngs": [{"label": "display", "lat": 52.52190716050168, "lng": 13.399361371994019}], "distance": 226, "postalCode": "10178", "cc": "DE", "city": "Berlin", "state": "Berlin", "country": "Deutschland", "formattedAddress": ["Burgstr. (Spreepromenade)", "10178 Berlin", "Deutschland"]}, "categories": [{"id": "4bf58dd8d48988d163941735", "name": "Park", "pluralName": "Parks", "shortName": "Park", "icon": {"prefix": "https://ss3.4sqi.net/img/categories_v2/parks_outdoors/park_", "suffix": ".png"}, "primary": true}], "photos": {"count": 0, "groups": []}}, "referralId": "e-0-4c35ba013896e21e6292ed90-1"}, {"reasons": {"count": 0, "items": [{"summary": "This spot is popular", "type": "general", "reasonName": "globalInteractionReason"}]}, "venue": {"id": "4adcda7cf964a520594721e3", "name": "Alte Nationalgalerie", "location": {"address": "Bodestr. 1-3", "lat": 52.520796016677, "lng": 13.398673088379343, "labeledLatLngs": [{"label": "display", "lat": 52.520796016677, "lng": 13.398673088379343}], "distance": 240, "postalCode": "10178", "cc": "DE", "neighborhood": "Museumsinsel", "city": "Berlin", "state": "Berlin", "country": "Deutschland", "formattedAddress": ["Bodestr. 1-3", "10178 Berlin", "Deutschland"]}, "categories": [{"id": "4bf58dd8d48988d18f941735", "name": "Art Museum", "pluralName": "Art Museums", "shortName": "Art Museum", "icon": {"prefix": "https://ss3.4sqi.net/img/categories_v2/arts_entertainment/museum_art_", "suffix": ".png"}, "primary": true}], "photos": {"count": 0, "groups": []}}, "referralId": "e-0-4adcda7cf964a520594721e3-2"}, {"reasons": {"count": 0, "items": [{"summary": "This spot is popular", "type": "general", "reasonName": "globalInteractionReason"}]}, "venue": {"id": "4c3d48afa9509c74b273395b", "name": "Adina Apartment Hotel Berlin Hackescher Markt", "location": {"address": "An der Spandauer Br\u00fccke 11", "crossStreet": "Hackescher Markt", "lat": 52.52229341049498, "lng": 13.404273310410682, "labeledLatLngs": [{"label": "display", "lat": 52.52229341049498, "lng": 13.404273310410682}], "distance": 211, "postalCode": "10178", "cc": "DE", "city": "Berlin", "state": "Berlin", "country": "Deutschland", "formattedAddress": ["An der Spandauer Br\u00fccke 11 (Hackescher Markt)", "10178 Berlin", "Deutschland"]}, "categories": [{"id": "4bf58dd8d48988d1fa931735", "name": "Hotel", "pluralName": "Hotels", "shortName": "Hotel", "icon": {"prefix": "https://ss3.4sqi.net/img/categories_v2/travel/hotel_", "suffix": ".png"}, "primary": true}], "photos": {"count": 0, "groups": []}}, "referralId": "e-0-4c3d48afa9509c74b273395b-3"}, {"reasons": {"count": 0, "items": [{"summary": "This spot is popular", "type": "general", "reasonName": "globalInteractionReason"}]}, "venue": {"id": "4b24db17f964a5202f6a24e3", "name": "Radisson Blu", "location": {"address": "Karl-Liebknecht-Str. 3", "lat": 52.5195608, "lng": 13.402857, "labeledLatLngs": [{"label": "display", "lat": 52.5195608, "lng": 13.402857}], "distance": 150, "postalCode": "10178", "cc": "DE", "city": "Berlin", "state": "Berlin", "country": "Deutschland", "formattedAddress": ["Karl-Liebknecht-Str. 3", "10178 Berlin", "Deutschland"]}, "categories": [{"id": "4bf58dd8d48988d1fa931735", "name": "Hotel", "pluralName": "Hotels", "shortName": "Hotel", "icon": {"prefix": "https://ss3.4sqi.net/img/categories_v2/travel/hotel_", "suffix": ".png"}, "primary": true}], "photos": {"count": 0, "groups": []}}, "referralId": "e-0-4b24db17f964a5202f6a24e3-4"}, {"reasons": {"count": 0, "items": [{"summary": "This spot is popular", "type": "general", "reasonName": "globalInteractionReason"}]}, "venue": {"id": "51838de5498e3fca634679a8", "name": "Kuppelumgang Berliner Dom", "location": {"address": "Am Lustgarten 1", "lat": 52.51896599010725, "lng": 13.400980681715229, "labeledLatLngs": [{"label": "display", "lat": 52.51896599010725, "lng": 13.400980681715229}], "distance": 226, "postalCode": "10178", "cc": "DE", "city": "Berlin", "state": "Berlin", "country": "Deutschland", "formattedAddress": ["Am Lustgarten 1", "10178 Berlin", "Deutschland"]}, "categories": [{"id": "4bf58dd8d48988d165941735", "name": "Scenic Lookout", "pluralName": "Scenic Lookouts", "shortName": "Scenic Lookout", "icon": {"prefix": "https://ss3.4sqi.net/img/categories_v2/parks_outdoors/sceniclookout_", "suffix": ".png"}, "primary": true}], "photos": {"count": 0, "groups": []}}, "referralId": "e-0-51838de5498e3fca634679a8-5"}, {"reasons": {"count": 0, "items": [{"summary": "This spot is popular", "type": "general", "reasonName": "globalInteractionReason"}]}, "venue": {"id": "4adcda7cf964a5205f4721e3", "name": "Lustgarten", "location": {"address": "Am Lustgarten", "crossStreet": "Schlo\u00dfplatz", "lat": 52.518469490131785, "lng": 13.399454063404399, "labeledLatLngs": [{"label": "display", "lat": 52.518469490131785, "lng": 13.399454063404399}], "distance": 325, "postalCode": "10178", "cc": "DE", "neighborhood": "Museumsinsel", "city": "Berlin", "state": "Berlin", "country": "Deutschland", "formattedAddress": ["Am Lustgarten (Schlo\u00dfplatz)", "10178 Berlin", "Deutschland"]}, "categories": [{"id": "4bf58dd8d48988d15a941735", "name": "Garden", "pluralName": "Gardens", "shortName": "Garden", "icon": {"prefix": "https://ss3.4sqi.net/img/categories_v2/parks_outdoors/garden_", "suffix": ".png"}, "primary": true}], "photos": {"count": 0, "groups": []}}, "referralId": "e-0-4adcda7cf964a5205f4721e3-6"}, {"reasons": {"count": 0, "items": [{"summary": "This spot is popular", "type": "general", "reasonName": "globalInteractionReason"}]}, "venue": {"id": "4adcda83f964a520b24821e3", "name": "Neues Museum", "location": {"address": "Bodestr. 1-3", "crossStreet": "Museumsinsel", "lat": 52.5201576091737, "lng": 13.39783787727356, "labeledLatLngs": [{"label": "display", "lat": 52.5201576091737, "lng": 13.39783787727356}], "distance": 307, "postalCode": "10178", "cc": "DE", "neighborhood": "Museumsinsel", "city": "Berlin", "state": "Berlin", "country": "Deutschland", "formattedAddress": ["Bodestr. 1-3 (Museumsinsel)", "10178 Berlin", "Deutschland"]}, "categories": [{"id": "4bf58dd8d48988d190941735", "name": "History Museum", "pluralName": "History Museums", "shortName": "History Museum", "icon": {"prefix": "https://ss3.4sqi.net/img/categories_v2/arts_entertainment/museum_history_", "suffix": ".png"}, "primary": true}], "photos": {"count": 0, "groups": []}}, "referralId": "e-0-4adcda83f964a520b24821e3-7"}, {"reasons": {"count": 0, "items": [{"summary": "This spot is popular", "type": "general", "reasonName": "globalInteractionReason"}]}, "venue": {"id": "55031515498ecb9c699ed0a0", "name": "Caf\u00e9 93", "location": {"address": "Monbijouplatz 2", "lat": 52.52299702982836, "lng": 13.399751875666775, "labeledLatLngs": [{"label": "display", "lat": 52.52299702982836, "lng": 13.399751875666775}], "distance": 291, "postalCode": "10178", "cc": "DE", "city": "Berlin", "state": "Berlin", "country": "Deutschland", "formattedAddress": ["Monbijouplatz 2", "10178 Berlin", "Deutschland"]}, "categories": [{"id": "4bf58dd8d48988d16d941735", "name": "Caf\u00e9", "pluralName": "Caf\u00e9s", "shortName": "Caf\u00e9", "icon": {"prefix": "https://ss3.4sqi.net/img/categories_v2/food/cafe_", "suffix": ".png"}, "primary": true}], "photos": {"count": 0, "groups": []}}, "referralId": "e-0-55031515498ecb9c699ed0a0-8"}, {"reasons": {"count": 0, "items": [{"summary": "This spot is popular", "type": "general", "reasonName": "globalInteractionReason"}]}, "venue": {"id": "528c91cc11d2f34bf9689cb5", "name": "Ischtar-Tor", "location": {"address": "Am Kupfergraben 5", "lat": 52.520741776446705, "lng": 13.397204678584995, "labeledLatLngs": [{"label": "display", "lat": 52.520741776446705, "lng": 13.397204678584995}], "distance": 340, "postalCode": "10117", "cc": "DE", "city": "Berlin", "state": "Berlin", "country": "Deutschland", "formattedAddress": ["Am Kupfergraben 5", "10117 Berlin", "Deutschland"]}, "categories": [{"id": "4deefb944765f83613cdba6e", "name": "Historic Site", "pluralName": "Historic Sites", "shortName": "Historic Site", "icon": {"prefix": "https://ss3.4sqi.net/img/categories_v2/arts_entertainment/historicsite_", "suffix": ".png"}, "primary": true}], "photos": {"count": 0, "groups": []}}, "referralId": "e-0-528c91cc11d2f34bf9689cb5-9"}, {"reasons": {"count": 0, "items": [{"summary": "This spot is popular", "type": "general", "reasonName": "globalInteractionReason"}]}, "venue": {"id": "4adcda81f964a520574821e3", "name": "Altes Museum", "location": {"address": "Am Lustgarten 1", "lat": 52.51953741567019, "lng": 13.398803472518921, "labeledLatLngs": [{"label": "display", "lat": 52.51953741567019, "lng": 13.398803472518921}], "distance": 274, "postalCode": "10178", "cc": "DE", "neighborhood": "Museumsinsel", "city": "Berlin", "state": "Berlin", "country": "Deutschland", "formattedAddress": ["Am Lustgarten 1", "10178 Berlin", "Deutschland"]}, "categories": [{"id": "4bf58dd8d48988d190941735", "name": "History Museum", "pluralName": "History Museums", "shortName": "History Museum", "icon": {"prefix": "https://ss3.4sqi.net/img/categories_v2/arts_entertainment/museum_history_", "suffix": ".png"}, "primary": true}], "photos": {"count": 0, "groups": []}}, "referralId": "e-0-4adcda81f964a520574821e3-10"}, {"reasons": {"count": 0, "items": [{"summary": "This spot is popular", "type": "general", "reasonName": "globalInteractionReason"}]}, "venue": {"id": "59148ac8f2905e48f712375f", "name": "MA'LOA Pok\u00e9 Bowl", "location": {"address": "Oranienburger Str. 7", "lat": 52.52365268563865, "lng": 13.400398860752764, "labeledLatLngs": [{"label": "display", "lat": 52.52365268563865, "lng": 13.400398860752764}], "distance": 335, "postalCode": "10178", "cc": "DE", "neighborhood": "Mitte", "city": "Berlin", "state": "Berlin", "country": "Deutschland", "formattedAddress": ["Oranienburger Str. 7", "10178 Berlin", "Deutschland"]}, "categories": [{"id": "5bae9231bedf3950379f89d4", "name": "Poke Place", "pluralName": "Poke Places", "shortName": "Poke Place", "icon": {"prefix": "https://ss3.4sqi.net/img/categories_v2/food/default_", "suffix": ".png"}, "primary": true}], "photos": {"count": 0, "groups": []}}, "referralId": "e-0-59148ac8f2905e48f712375f-11"}, {"reasons": {"count": 0, "items": [{"summary": "This spot is popular", "type": "general", "reasonName": "globalInteractionReason"}]}, "venue": {"id": "54305817498ee31baa2d3f51", "name": "TheCoven Bar", "location": {"address": "Kleine Pr\u00e4sidentenstr. 3", "lat": 52.522664, "lng": 13.400289, "labeledLatLngs": [{"label": "display", "lat": 52.522664, "lng": 13.400289}], "distance": 240, "postalCode": "10178", "cc": "DE", "city": "Berlin", "state": "Berlin", "country": "Deutschland", "formattedAddress": ["Kleine Pr\u00e4sidentenstr. 3", "10178 Berlin", "Deutschland"]}, "categories": [{"id": "4bf58dd8d48988d116941735", "name": "Bar", "pluralName": "Bars", "shortName": "Bar", "icon": {"prefix": "https://ss3.4sqi.net/img/categories_v2/nightlife/pub_", "suffix": ".png"}, "primary": true}], "photos": {"count": 0, "groups": []}}, "referralId": "e-0-54305817498ee31baa2d3f51-12"}, {"reasons": {"count": 0, "items": [{"summary": "This spot is popular", "type": "general", "reasonName": "globalInteractionReason"}]}, "venue": {"id": "4b5e904cf964a520a89229e3", "name": "Die Hackeschen H\u00f6fe", "location": {"address": "Rosenthaler Str. 40/41", "lat": 52.52409392075061, "lng": 13.402157365180152, "labeledLatLngs": [{"label": "display", "lat": 52.52409392075061, "lng": 13.402157365180152}], "distance": 360, "postalCode": "10178", "cc": "DE", "city": "Berlin", "state": "Berlin", "country": "Deutschland", "formattedAddress": ["Rosenthaler Str. 40/41", "10178 Berlin", "Deutschland"]}, "categories": [{"id": "4bf58dd8d48988d12d941735", "name": "Monument / Landmark", "pluralName": "Monuments / Landmarks", "shortName": "Landmark", "icon": {"prefix": "https://ss3.4sqi.net/img/categories_v2/building/government_monument_", "suffix": ".png"}, "primary": true}], "photos": {"count": 0, "groups": []}}, "referralId": "e-0-4b5e904cf964a520a89229e3-13"}, {"reasons": {"count": 0, "items": [{"summary": "This spot is popular", "type": "general", "reasonName": "globalInteractionReason"}]}, "venue": {"id": "55509010498e1ed2ce2d90f0", "name": "Waffel oder Becher", "location": {"address": "Spandauer Str. 2", "lat": 52.521006850678695, "lng": 13.403814748185349, "labeledLatLngs": [{"label": "display", "lat": 52.521006850678695, "lng": 13.403814748185349}], "distance": 108, "postalCode": "10178", "cc": "DE", "city": "Berlin", "state": "Berlin", "country": "Deutschland", "formattedAddress": ["Spandauer Str. 2", "10178 Berlin", "Deutschland"]}, "categories": [{"id": "4bf58dd8d48988d1c9941735", "name": "Ice Cream Shop", "pluralName": "Ice Cream Shops", "shortName": "Ice Cream", "icon": {"prefix": "https://ss3.4sqi.net/img/categories_v2/food/icecream_", "suffix": ".png"}, "primary": true}], "photos": {"count": 0, "groups": []}}, "referralId": "e-0-55509010498e1ed2ce2d90f0-14"}, {"reasons": {"count": 0, "items": [{"summary": "This spot is popular", "type": "general", "reasonName": "globalInteractionReason"}]}, "venue": {"id": "4adcda7df964a520664721e3", "name": "Hackescher Markt", "location": {"address": "Neue Promenade", "crossStreet": "An der Spandauer Br\u00fccke", "lat": 52.52299349801406, "lng": 13.40237760464655, "labeledLatLngs": [{"label": "display", "lat": 52.52299349801406, "lng": 13.40237760464655}], "distance": 238, "postalCode": "10178", "cc": "DE", "city": "Berlin", "state": "Berlin", "country": "Deutschland", "formattedAddress": ["Neue Promenade (An der Spandauer Br\u00fccke)", "10178 Berlin", "Deutschland"]}, "categories": [{"id": "4bf58dd8d48988d164941735", "name": "Plaza", "pluralName": "Plazas", "shortName": "Plaza", "icon": {"prefix": "https://ss3.4sqi.net/img/categories_v2/parks_outdoors/plaza_", "suffix": ".png"}, "primary": true}], "photos": {"count": 0, "groups": []}}, "referralId": "e-0-4adcda7df964a520664721e3-15"}, {"reasons": {"count": 0, "items": [{"summary": "This spot is popular", "type": "general", "reasonName": "globalInteractionReason"}]}, "venue": {"id": "4c30d02e7cc0c9b651e1ed9a", "name": "Neurotitan", "location": {"address": "Rosenthaler Str. 39", "lat": 52.524487579714304, "lng": 13.401809464072441, "labeledLatLngs": [{"label": "display", "lat": 52.524487579714304, "lng": 13.401809464072441}], "distance": 405, "postalCode": "10178", "cc": "DE", "neighborhood": "Mitte", "city": "Berlin", "state": "Berlin", "country": "Deutschland", "formattedAddress": ["Rosenthaler Str. 39", "10178 Berlin", "Deutschland"]}, "categories": [{"id": "4bf58dd8d48988d1e2931735", "name": "Art Gallery", "pluralName": "Art Galleries", "shortName": "Art Gallery", "icon": {"prefix": "https://ss3.4sqi.net/img/categories_v2/arts_entertainment/artgallery_", "suffix": ".png"}, "primary": true}], "photos": {"count": 0, "groups": []}}, "referralId": "e-0-4c30d02e7cc0c9b651e1ed9a-16"}, {"reasons": {"count": 0, "items": [{"summary": "This spot is popular", "type": "general", "reasonName": "globalInteractionReason"}]}, "venue": {"id": "5b55e0a9acb00b0039fb45e3", "name": "19grams", "location": {"address": "Karl-Liebknecht-Str. 13", "crossStreet": "Rochstr.", "lat": 52.52269704703948, "lng": 13.407440185546875, "labeledLatLngs": [{"label": "display", "lat": 52.52269704703948, "lng": 13.407440185546875}], "distance": 408, "postalCode": "10178", "cc": "DE", "neighborhood": "Mitte", "city": "Berlin", "state": "Berlin", "country": "Deutschland", "formattedAddress": ["Karl-Liebknecht-Str. 13 (Rochstr.)", "10178 Berlin", "Deutschland"]}, "categories": [{"id": "4bf58dd8d48988d1e0931735", "name": "Coffee Shop", "pluralName": "Coffee Shops", "shortName": "Coffee Shop", "icon": {"prefix": "https://ss3.4sqi.net/img/categories_v2/food/coffeeshop_", "suffix": ".png"}, "primary": true}], "photos": {"count": 0, "groups": []}}, "referralId": "e-0-5b55e0a9acb00b0039fb45e3-17"}, {"reasons": {"count": 0, "items": [{"summary": "This spot is popular", "type": "general", "reasonName": "globalInteractionReason"}]}, "venue": {"id": "4ae44d24f964a520eb9921e3", "name": "Pergamonmuseum", "location": {"address": "Am Kupfergraben 5", "lat": 52.520843, "lng": 13.396395, "labeledLatLngs": [{"label": "display", "lat": 52.520843, "lng": 13.396395}], "distance": 395, "postalCode": "10117", "cc": "DE", "neighborhood": "Museumsinsel", "city": "Berlin", "state": "Berlin", "country": "Deutschland", "formattedAddress": ["Am Kupfergraben 5", "10117 Berlin", "Deutschland"]}, "categories": [{"id": "4bf58dd8d48988d190941735", "name": "History Museum", "pluralName": "History Museums", "shortName": "History Museum", "icon": {"prefix": "https://ss3.4sqi.net/img/categories_v2/arts_entertainment/museum_history_", "suffix": ".png"}, "primary": true}], "photos": {"count": 0, "groups": []}}, "referralId": "e-0-4ae44d24f964a520eb9921e3-18"}, {"reasons": {"count": 0, "items": [{"summary": "This spot is popular", "type": "general", "reasonName": "globalInteractionReason"}]}, "venue": {"id": "536c994a498e95f70dfa6a39", "name": "Weber Original Store", "location": {"address": "Litfa\u00df-Platz 2", "lat": 52.521866906250104, "lng": 13.402909586324379, "labeledLatLngs": [{"label": "display", "lat": 52.521866906250104, "lng": 13.402909586324379}], "distance": 121, "postalCode": "10178", "cc": "DE", "city": "Berlin", "state": "Berlin", "country": "Deutschland", "formattedAddress": ["Litfa\u00df-Platz 2", "10178 Berlin", "Deutschland"]}, "categories": [{"id": "52f2ab2ebcbc57f1066b8b22", "name": "Outdoor Supply Store", "pluralName": "Outdoor Supply Stores", "shortName": "Outdoor Supplies", "icon": {"prefix": "https://ss3.4sqi.net/img/categories_v2/shops/default_", "suffix": ".png"}, "primary": true}], "photos": {"count": 0, "groups": []}, "venuePage": {"id": "585762982"}}, "referralId": "e-0-536c994a498e95f70dfa6a39-19"}, {"reasons": {"count": 0, "items": [{"summary": "This spot is popular", "type": "general", "reasonName": "globalInteractionReason"}]}, "venue": {"id": "4adcda8df964a520444a21e3", "name": "Monbijoupark", "location": {"address": "Oranienburger Str.", "crossStreet": "Monbijoustr.", "lat": 52.52313441612033, "lng": 13.396893739700317, "labeledLatLngs": [{"label": "display", "lat": 52.52313441612033, "lng": 13.396893739700317}], "distance": 441, "postalCode": "10178", "cc": "DE", "city": "Berlin", "state": "Berlin", "country": "Deutschland", "formattedAddress": ["Oranienburger Str. (Monbijoustr.)", "10178 Berlin", "Deutschland"]}, "categories": [{"id": "4bf58dd8d48988d163941735", "name": "Park", "pluralName": "Parks", "shortName": "Park", "icon": {"prefix": "https://ss3.4sqi.net/img/categories_v2/parks_outdoors/park_", "suffix": ".png"}, "primary": true}], "photos": {"count": 0, "groups": []}}, "referralId": "e-0-4adcda8df964a520444a21e3-20"}, {"reasons": {"count": 0, "items": [{"summary": "This spot is popular", "type": "general", "reasonName": "globalInteractionReason"}]}, "venue": {"id": "4bb8541f1261d13a118fe898", "name": "Fat Tire Bike Tours", "location": {"address": "Panoramastr. 1a", "lat": 52.521232885960515, "lng": 13.409109598118372, "labeledLatLngs": [{"label": "display", "lat": 52.521232885960515, "lng": 13.409109598118372}], "distance": 468, "postalCode": "10178", "cc": "DE", "city": "Berlin", "state": "Berlin", "country": "Deutschland", "formattedAddress": ["Panoramastr. 1a", "10178 Berlin", "Deutschland"]}, "categories": [{"id": "4e4c9077bd41f78e849722f9", "name": "Bike Rental / Bike Share", "pluralName": "Bike Rentals / Bike Shares", "shortName": "Bike", "icon": {"prefix": "https://ss3.4sqi.net/img/categories_v2/shops/bikeshop_", "suffix": ".png"}, "primary": true}], "photos": {"count": 0, "groups": []}}, "referralId": "e-0-4bb8541f1261d13a118fe898-21"}, {"reasons": {"count": 0, "items": [{"summary": "This spot is popular", "type": "general", "reasonName": "globalInteractionReason"}]}, "venue": {"id": "4adcda81f964a5205d4821e3", "name": "Museum f\u00fcr Islamische Kunst", "location": {"address": "Am Kupfergraben 5", "lat": 52.520708902848284, "lng": 13.396697345529542, "labeledLatLngs": [{"label": "display", "lat": 52.520708902848284, "lng": 13.396697345529542}], "distance": 374, "postalCode": "10117", "cc": "DE", "city": "Berlin", "state": "Berlin", "country": "Deutschland", "formattedAddress": ["Am Kupfergraben 5", "10117 Berlin", "Deutschland"]}, "categories": [{"id": "4bf58dd8d48988d18f941735", "name": "Art Museum", "pluralName": "Art Museums", "shortName": "Art Museum", "icon": {"prefix": "https://ss3.4sqi.net/img/categories_v2/arts_entertainment/museum_art_", "suffix": ".png"}, "primary": true}], "photos": {"count": 0, "groups": []}}, "referralId": "e-0-4adcda81f964a5205d4821e3-22"}, {"reasons": {"count": 0, "items": [{"summary": "This spot is popular", "type": "general", "reasonName": "globalInteractionReason"}]}, "venue": {"id": "5513bfb5498ea118a7b91102", "name": "BEN RAHIM", "location": {"address": "Sophienstr. 7", "lat": 52.52516811272114, "lng": 13.40192843798598, "labeledLatLngs": [{"label": "display", "lat": 52.52516811272114, "lng": 13.40192843798598}], "distance": 480, "postalCode": "10178", "cc": "DE", "city": "Berlin", "state": "Berlin", "country": "Deutschland", "formattedAddress": ["Sophienstr. 7", "10178 Berlin", "Deutschland"]}, "categories": [{"id": "4bf58dd8d48988d1e0931735", "name": "Coffee Shop", "pluralName": "Coffee Shops", "shortName": "Coffee Shop", "icon": {"prefix": "https://ss3.4sqi.net/img/categories_v2/food/coffeeshop_", "suffix": ".png"}, "primary": true}], "photos": {"count": 0, "groups": []}}, "referralId": "e-0-5513bfb5498ea118a7b91102-23"}, {"reasons": {"count": 0, "items": [{"summary": "This spot is popular", "type": "general", "reasonName": "globalInteractionReason"}]}, "venue": {"id": "4be4528bbcef2d7f556202e5", "name": "Brillenwerkstatt", "location": {"address": "Dircksenstr. 48", "lat": 52.523325706217506, "lng": 13.404721222965055, "labeledLatLngs": [{"label": "display", "lat": 52.523325706217506, "lng": 13.404721222965055}], "distance": 322, "postalCode": "10178", "cc": "DE", "city": "Berlin", "state": "Berlin", "country": "Deutschland", "formattedAddress": ["Dircksenstr. 48", "10178 Berlin", "Deutschland"]}, "categories": [{"id": "4d954afda243a5684865b473", "name": "Optical Shop", "pluralName": "Optical Shops", "shortName": "Optical", "icon": {"prefix": "https://ss3.4sqi.net/img/categories_v2/building/medical_opticalshop_", "suffix": ".png"}, "primary": true}], "photos": {"count": 0, "groups": []}, "venuePage": {"id": "563613165"}}, "referralId": "e-0-4be4528bbcef2d7f556202e5-24"}, {"reasons": {"count": 0, "items": [{"summary": "This spot is popular", "type": "general", "reasonName": "globalInteractionReason"}]}, "venue": {"id": "5c8e62048d0a53002cdea98c", "name": "CANAL", "location": {"address": "Rosenthaler Str. 40", "crossStreet": "Hof I", "lat": 52.524041, "lng": 13.402131, "labeledLatLngs": [{"label": "display", "lat": 52.524041, "lng": 13.402131}], "distance": 354, "postalCode": "10178", "cc": "DE", "neighborhood": "Mitte", "city": "Berlin", "state": "Berlin", "country": "Deutschland", "formattedAddress": ["Rosenthaler Str. 40 (Hof I)", "10178 Berlin", "Deutschland"]}, "categories": [{"id": "4bf58dd8d48988d1c9941735", "name": "Ice Cream Shop", "pluralName": "Ice Cream Shops", "shortName": "Ice Cream", "icon": {"prefix": "https://ss3.4sqi.net/img/categories_v2/food/icecream_", "suffix": ".png"}, "primary": true}], "photos": {"count": 0, "groups": []}}, "referralId": "e-0-5c8e62048d0a53002cdea98c-25"}, {"reasons": {"count": 0, "items": [{"summary": "This spot is popular", "type": "general", "reasonName": "globalInteractionReason"}]}, "venue": {"id": "5707bacb498e89088ae7b830", "name": "UNIQLO", "location": {"address": "Rosenthaler Str. 42", "lat": 52.52367052971461, "lng": 13.402583637447577, "labeledLatLngs": [{"label": "display", "lat": 52.52367052971461, "lng": 13.402583637447577}], "distance": 314, "cc": "DE", "city": "Berlin", "state": "Berlin", "country": "Deutschland", "formattedAddress": ["Rosenthaler Str. 42", "Berlin", "Deutschland"]}, "categories": [{"id": "4bf58dd8d48988d103951735", "name": "Clothing Store", "pluralName": "Clothing Stores", "shortName": "Apparel", "icon": {"prefix": "https://ss3.4sqi.net/img/categories_v2/shops/apparel_", "suffix": ".png"}, "primary": true}], "photos": {"count": 0, "groups": []}}, "referralId": "e-0-5707bacb498e89088ae7b830-26"}, {"reasons": {"count": 0, "items": [{"summary": "This spot is popular", "type": "general", "reasonName": "globalInteractionReason"}]}, "venue": {"id": "4ae9c897f964a52062b621e3", "name": "DDR Museum", "location": {"address": "Karl-Liebknecht-Str. 1", "lat": 52.51940384308041, "lng": 13.40223855826597, "labeledLatLngs": [{"label": "display", "lat": 52.51940384308041, "lng": 13.40223855826597}], "distance": 161, "postalCode": "10178", "cc": "DE", "city": "Berlin", "state": "Berlin", "country": "Deutschland", "formattedAddress": ["Karl-Liebknecht-Str. 1", "10178 Berlin", "Deutschland"]}, "categories": [{"id": "4bf58dd8d48988d190941735", "name": "History Museum", "pluralName": "History Museums", "shortName": "History Museum", "icon": {"prefix": "https://ss3.4sqi.net/img/categories_v2/arts_entertainment/museum_history_", "suffix": ".png"}, "primary": true}], "photos": {"count": 0, "groups": []}, "venuePage": {"id": "48098990"}}, "referralId": "e-0-4ae9c897f964a52062b621e3-27"}, {"reasons": {"count": 0, "items": [{"summary": "This spot is popular", "type": "general", "reasonName": "globalInteractionReason"}]}, "venue": {"id": "4bf556ef6a31d13ae6bc962e", "name": "Curry 61", "location": {"address": "Oranienburger Str. 6", "lat": 52.52363731185383, "lng": 13.400619701670522, "labeledLatLngs": [{"label": "display", "lat": 52.52363731185383, "lng": 13.400619701670522}], "distance": 328, "postalCode": "10178", "cc": "DE", "neighborhood": "Mitte", "city": "Berlin", "state": "Berlin", "country": "Deutschland", "formattedAddress": ["Oranienburger Str. 6", "10178 Berlin", "Deutschland"]}, "categories": [{"id": "56aa371ce4b08b9a8d57358b", "name": "Currywurst Joint", "pluralName": "Currywurst Joints", "shortName": "Currywurst", "icon": {"prefix": "https://ss3.4sqi.net/img/categories_v2/food/bbqalt_", "suffix": ".png"}, "primary": true}], "photos": {"count": 0, "groups": []}}, "referralId": "e-0-4bf556ef6a31d13ae6bc962e-28"}, {"reasons": {"count": 0, "items": [{"summary": "This spot is popular", "type": "general", "reasonName": "globalInteractionReason"}]}, "venue": {"id": "4be53d3e2468c92885cfff42", "name": "Titus", "location": {"address": "Karl-Liebknecht-Stra\u00dfe 9", "lat": 52.52094968439927, "lng": 13.405920731515282, "labeledLatLngs": [{"label": "display", "lat": 52.52094968439927, "lng": 13.405920731515282}], "distance": 250, "postalCode": "10178", "cc": "DE", "city": "Berlin", "state": "Berlin", "country": "Deutschland", "formattedAddress": ["Karl-Liebknecht-Stra\u00dfe 9", "10178 Berlin", "Deutschland"]}, "categories": [{"id": "4bf58dd8d48988d1f1941735", "name": "Board Shop", "pluralName": "Board Shops", "shortName": "Board Shop", "icon": {"prefix": "https://ss3.4sqi.net/img/categories_v2/parks_outdoors/surfspot_", "suffix": ".png"}, "primary": true}], "photos": {"count": 0, "groups": []}}, "referralId": "e-0-4be53d3e2468c92885cfff42-29"}, {"reasons": {"count": 0, "items": [{"summary": "This spot is popular", "type": "general", "reasonName": "globalInteractionReason"}]}, "venue": {"id": "4dc92c2c1838e695fbe262aa", "name": "Amorino", "location": {"address": "Oranienburger Str. 1", "crossStreet": "Gro\u00dfe Pr\u00e4sidentenstr.", "lat": 52.52357551978076, "lng": 13.401552886189101, "labeledLatLngs": [{"label": "display", "lat": 52.52357551978076, "lng": 13.401552886189101}], "distance": 306, "postalCode": "10178", "cc": "DE", "city": "Berlin", "state": "Berlin", "country": "Deutschland", "formattedAddress": ["Oranienburger Str. 1 (Gro\u00dfe Pr\u00e4sidentenstr.)", "10178 Berlin", "Deutschland"]}, "categories": [{"id": "4bf58dd8d48988d1c9941735", "name": "Ice Cream Shop", "pluralName": "Ice Cream Shops", "shortName": "Ice Cream", "icon": {"prefix": "https://ss3.4sqi.net/img/categories_v2/food/icecream_", "suffix": ".png"}, "primary": true}], "photos": {"count": 0, "groups": []}}, "referralId": "e-0-4dc92c2c1838e695fbe262aa-30"}, {"reasons": {"count": 0, "items": [{"summary": "This spot is popular", "type": "general", "reasonName": "globalInteractionReason"}]}, "venue": {"id": "54bd1e28498eec46cfc17c24", "name": "Father Carpenter", "location": {"address": "M\u00fcnzstr. 21", "crossStreet": "1. Hof", "lat": 52.52446934407154, "lng": 13.406614065170288, "labeledLatLngs": [{"label": "display", "lat": 52.52446934407154, "lng": 13.406614065170288}], "distance": 500, "postalCode": "10178", "cc": "DE", "city": "Berlin", "state": "Berlin", "country": "Deutschland", "formattedAddress": ["M\u00fcnzstr. 21 (1. Hof)", "10178 Berlin", "Deutschland"]}, "categories": [{"id": "4bf58dd8d48988d1e0931735", "name": "Coffee Shop", "pluralName": "Coffee Shops", "shortName": "Coffee Shop", "icon": {"prefix": "https://ss3.4sqi.net/img/categories_v2/food/coffeeshop_", "suffix": ".png"}, "primary": true}], "photos": {"count": 0, "groups": []}}, "referralId": "e-0-54bd1e28498eec46cfc17c24-31"}, {"reasons": {"count": 0, "items": [{"summary": "This spot is popular", "type": "general", "reasonName": "globalInteractionReason"}]}, "venue": {"id": "597b119e01559a6259cb0587", "name": "Kaufland", "location": {"address": "Karl-Liebknecht-Str. 13", "lat": 52.522326797615655, "lng": 13.408080040504412, "labeledLatLngs": [{"label": "display", "lat": 52.522326797615655, "lng": 13.408080040504412}], "distance": 429, "postalCode": "10178", "cc": "DE", "neighborhood": "Mitte", "city": "Berlin", "state": "Berlin", "country": "Deutschland", "formattedAddress": ["Karl-Liebknecht-Str. 13", "10178 Berlin-Mitte", "Deutschland"]}, "categories": [{"id": "52f2ab2ebcbc57f1066b8b42", "name": "Big Box Store", "pluralName": "Big Box Stores", "shortName": "Big Box Store", "icon": {"prefix": "https://ss3.4sqi.net/img/categories_v2/shops/default_", "suffix": ".png"}, "primary": true}], "photos": {"count": 0, "groups": []}}, "referralId": "e-0-597b119e01559a6259cb0587-32"}, {"reasons": {"count": 0, "items": [{"summary": "This spot is popular", "type": "general", "reasonName": "globalInteractionReason"}]}, "venue": {"id": "59afdac08134880efbedf20e", "name": "Eden Restaurant", "location": {"address": "Rosenstr. 19", "crossStreet": "Rochstr.", "lat": 52.52204609875019, "lng": 13.404751386925534, "labeledLatLngs": [{"label": "display", "lat": 52.52204609875019, "lng": 13.404751386925534}], "distance": 216, "postalCode": "10178", "cc": "DE", "city": "Berlin", "state": "Berlin", "country": "Deutschland", "formattedAddress": ["Rosenstr. 19 (Rochstr.)", "10178 Berlin", "Deutschland"]}, "categories": [{"id": "4bf58dd8d48988d14a941735", "name": "Vietnamese Restaurant", "pluralName": "Vietnamese Restaurants", "shortName": "Vietnamese", "icon": {"prefix": "https://ss3.4sqi.net/img/categories_v2/food/vietnamese_", "suffix": ".png"}, "primary": true}], "photos": {"count": 0, "groups": []}}, "referralId": "e-0-59afdac08134880efbedf20e-33"}, {"reasons": {"count": 0, "items": [{"summary": "This spot is popular", "type": "general", "reasonName": "globalInteractionReason"}]}, "venue": {"id": "5a6f557389e4906a1487e680", "name": "THE REED", "location": {"address": "Karl-Liebknecht-Str. 13", "lat": 52.522172, "lng": 13.4084076, "labeledLatLngs": [{"label": "display", "lat": 52.522172, "lng": 13.4084076}], "distance": 443, "postalCode": "10178", "cc": "DE", "neighborhood": "Mitte", "city": "Berlin", "state": "Berlin", "country": "Deutschland", "formattedAddress": ["Karl-Liebknecht-Str. 13", "10178 Berlin", "Deutschland"]}, "categories": [{"id": "4bf58dd8d48988d1c4941735", "name": "Restaurant", "pluralName": "Restaurants", "shortName": "Restaurant", "icon": {"prefix": "https://ss3.4sqi.net/img/categories_v2/food/default_", "suffix": ".png"}, "primary": true}], "photos": {"count": 0, "groups": []}}, "referralId": "e-0-5a6f557389e4906a1487e680-34"}, {"reasons": {"count": 0, "items": [{"summary": "This spot is popular", "type": "general", "reasonName": "globalInteractionReason"}]}, "venue": {"id": "4b4dd801f964a52026d926e3", "name": "BIO COMPANY", "location": {"address": "Dircksenstr. 145-147", "crossStreet": "An der Spandauer Br\u00fccke", "lat": 52.52302495100017, "lng": 13.403617698870725, "labeledLatLngs": [{"label": "display", "lat": 52.52302495100017, "lng": 13.403617698870725}], "distance": 259, "postalCode": "10178", "cc": "DE", "city": "Berlin", "state": "Berlin", "country": "Deutschland", "formattedAddress": ["Dircksenstr. 145-147 (An der Spandauer Br\u00fccke)", "10178 Berlin", "Deutschland"]}, "categories": [{"id": "52f2ab2ebcbc57f1066b8b45", "name": "Organic Grocery", "pluralName": "Organic Groceries", "shortName": "Organic Grocery", "icon": {"prefix": "https://ss3.4sqi.net/img/categories_v2/shops/food_grocery_", "suffix": ".png"}, "primary": true}], "photos": {"count": 0, "groups": []}, "venuePage": {"id": "458175572"}}, "referralId": "e-0-4b4dd801f964a52026d926e3-35"}, {"reasons": {"count": 0, "items": [{"summary": "This spot is popular", "type": "general", "reasonName": "globalInteractionReason"}]}, "venue": {"id": "4adcda83f964a520aa4821e3", "name": "Deutsches Historisches Museum", "location": {"address": "Unter den Linden 2", "lat": 52.5177881130353, "lng": 13.39694770969441, "labeledLatLngs": [{"label": "display", "lat": 52.5177881130353, "lng": 13.39694770969441}], "distance": 494, "postalCode": "10117", "cc": "DE", "city": "Berlin", "state": "Berlin", "country": "Deutschland", "formattedAddress": ["Unter den Linden 2", "10117 Berlin", "Deutschland"]}, "categories": [{"id": "4bf58dd8d48988d190941735", "name": "History Museum", "pluralName": "History Museums", "shortName": "History Museum", "icon": {"prefix": "https://ss3.4sqi.net/img/categories_v2/arts_entertainment/museum_history_", "suffix": ".png"}, "primary": true}], "photos": {"count": 0, "groups": []}}, "referralId": "e-0-4adcda83f964a520aa4821e3-36"}, {"reasons": {"count": 0, "items": [{"summary": "This spot is popular", "type": "general", "reasonName": "globalInteractionReason"}]}, "venue": {"id": "4adcda7cf964a520424721e3", "name": "Eschschloraque R\u00fcmschr\u00fcmp", "location": {"address": "Rosenthaler Str. 39", "lat": 52.524519135794925, "lng": 13.401835512385563, "labeledLatLngs": [{"label": "display", "lat": 52.524519135794925, "lng": 13.401835512385563}], "distance": 408, "postalCode": "10178", "cc": "DE", "city": "Berlin", "state": "Berlin", "country": "Deutschland", "formattedAddress": ["Rosenthaler Str. 39", "10178 Berlin", "Deutschland"]}, "categories": [{"id": "4bf58dd8d48988d1d4941735", "name": "Speakeasy", "pluralName": "Speakeasies", "shortName": "Speakeasy", "icon": {"prefix": "https://ss3.4sqi.net/img/categories_v2/nightlife/secretbar_", "suffix": ".png"}, "primary": true}], "photos": {"count": 0, "groups": []}}, "referralId": "e-0-4adcda7cf964a520424721e3-37"}, {"reasons": {"count": 0, "items": [{"summary": "This spot is popular", "type": "general", "reasonName": "globalInteractionReason"}]}, "venue": {"id": "5cbd9ae2ccad6b002c966ece", "name": "James-Simon-Galerie", "location": {"address": "Bodestr. 1-3", "lat": 52.519736335537694, "lng": 13.397366236749804, "labeledLatLngs": [{"label": "display", "lat": 52.519736335537694, "lng": 13.397366236749804}], "distance": 351, "postalCode": "10178", "cc": "DE", "neighborhood": "Museumsinsel", "city": "Berlin", "state": "Berlin", "country": "Deutschland", "formattedAddress": ["Bodestr. 1-3", "10178 Berlin", "Deutschland"]}, "categories": [{"id": "4bf58dd8d48988d1e2931735", "name": "Art Gallery", "pluralName": "Art Galleries", "shortName": "Art Gallery", "icon": {"prefix": "https://ss3.4sqi.net/img/categories_v2/arts_entertainment/artgallery_", "suffix": ".png"}, "primary": true}], "photos": {"count": 0, "groups": []}}, "referralId": "e-0-5cbd9ae2ccad6b002c966ece-38"}, {"reasons": {"count": 0, "items": [{"summary": "This spot is popular", "type": "general", "reasonName": "globalInteractionReason"}]}, "venue": {"id": "4d434fb27e2e54818c60548f", "name": "Barrio Weine Berlin", "location": {"address": "Dircksenstr 42-44", "lat": 52.52353112944333, "lng": 13.405946320013436, "labeledLatLngs": [{"label": "display", "lat": 52.52353112944333, "lng": 13.405946320013436}], "distance": 390, "postalCode": "10115", "cc": "DE", "city": "Berlin", "state": "Berlin", "country": "Deutschland", "formattedAddress": ["Dircksenstr 42-44", "10115 Berlin", "Deutschland"]}, "categories": [{"id": "4bf58dd8d48988d119951735", "name": "Wine Shop", "pluralName": "Wine Shops", "shortName": "Wine Shop", "icon": {"prefix": "https://ss3.4sqi.net/img/categories_v2/shops/food_wineshop_", "suffix": ".png"}, "primary": true}], "photos": {"count": 0, "groups": []}}, "referralId": "e-0-4d434fb27e2e54818c60548f-39"}, {"reasons": {"count": 0, "items": [{"summary": "This spot is popular", "type": "general", "reasonName": "globalInteractionReason"}]}, "venue": {"id": "526bce2411d24ce2d9b12ac3", "name": "& other stories", "location": {"address": "Neue Sch\u00f6nhauser Str. 15", "lat": 52.52470468888106, "lng": 13.404871653596311, "labeledLatLngs": [{"label": "display", "lat": 52.52470468888106, "lng": 13.404871653596311}], "distance": 464, "postalCode": "10178", "cc": "DE", "city": "Berlin", "state": "Berlin", "country": "Deutschland", "formattedAddress": ["Neue Sch\u00f6nhauser Str. 15", "10178 Berlin", "Deutschland"]}, "categories": [{"id": "4bf58dd8d48988d103951735", "name": "Clothing Store", "pluralName": "Clothing Stores", "shortName": "Apparel", "icon": {"prefix": "https://ss3.4sqi.net/img/categories_v2/shops/apparel_", "suffix": ".png"}, "primary": true}], "photos": {"count": 0, "groups": []}}, "referralId": "e-0-526bce2411d24ce2d9b12ac3-40"}, {"reasons": {"count": 0, "items": [{"summary": "This spot is popular", "type": "general", "reasonName": "globalInteractionReason"}]}, "venue": {"id": "5caccae306fb60002cc1ce63", "name": "The Barn", "location": {"address": "Neue Sch\u00f6nhauser Str. 12", "lat": 52.524669052134364, "lng": 13.404090960774697, "labeledLatLngs": [{"label": "display", "lat": 52.524669052134364, "lng": 13.404090960774697}], "distance": 443, "postalCode": "10178", "cc": "DE", "city": "Berlin", "state": "Berlin", "country": "Deutschland", "formattedAddress": ["Neue Sch\u00f6nhauser Str. 12", "10178 Berlin", "Deutschland"]}, "categories": [{"id": "4bf58dd8d48988d1e0931735", "name": "Coffee Shop", "pluralName": "Coffee Shops", "shortName": "Coffee Shop", "icon": {"prefix": "https://ss3.4sqi.net/img/categories_v2/food/coffeeshop_", "suffix": ".png"}, "primary": true}], "photos": {"count": 0, "groups": []}}, "referralId": "e-0-5caccae306fb60002cc1ce63-41"}, {"reasons": {"count": 0, "items": [{"summary": "This spot is popular", "type": "general", "reasonName": "globalInteractionReason"}]}, "venue": {"id": "4adcda79f964a5208b4621e3", "name": "Caf\u00e9 Cinema", "location": {"address": "Rosenthaler Str. 39", "lat": 52.52431594365613, "lng": 13.402400314807892, "labeledLatLngs": [{"label": "display", "lat": 52.52431594365613, "lng": 13.402400314807892}], "distance": 385, "postalCode": "10178", "cc": "DE", "city": "Berlin", "state": "Berlin", "country": "Deutschland", "formattedAddress": ["Rosenthaler Str. 39", "10178 Berlin", "Deutschland"]}, "categories": [{"id": "4bf58dd8d48988d16d941735", "name": "Caf\u00e9", "pluralName": "Caf\u00e9s", "shortName": "Caf\u00e9", "icon": {"prefix": "https://ss3.4sqi.net/img/categories_v2/food/cafe_", "suffix": ".png"}, "primary": true}], "photos": {"count": 0, "groups": []}}, "referralId": "e-0-4adcda79f964a5208b4621e3-42"}, {"reasons": {"count": 0, "items": [{"summary": "This spot is popular", "type": "general", "reasonName": "globalInteractionReason"}]}, "venue": {"id": "5ae19855d552c7002cec2065", "name": "Pergamonmuseum. Das Panorama", "location": {"address": "Am Kupfergraben 3-5", "lat": 52.52103886374081, "lng": 13.394454418375725, "labeledLatLngs": [{"label": "display", "lat": 52.52103886374081, "lng": 13.394454418375725}], "distance": 526, "postalCode": "10117", "cc": "DE", "city": "Berlin", "state": "Berlin", "country": "Deutschland", "formattedAddress": ["Am Kupfergraben 3-5", "10117 Berlin", "Deutschland"]}, "categories": [{"id": "4bf58dd8d48988d181941735", "name": "Museum", "pluralName": "Museums", "shortName": "Museum", "icon": {"prefix": "https://ss3.4sqi.net/img/categories_v2/arts_entertainment/museum_", "suffix": ".png"}, "primary": true}], "photos": {"count": 0, "groups": []}}, "referralId": "e-0-5ae19855d552c7002cec2065-43"}, {"reasons": {"count": 0, "items": [{"summary": "This spot is popular", "type": "general", "reasonName": "globalInteractionReason"}]}, "venue": {"id": "4b0d8651f964a520304a23e3", "name": "Lebensmittel in Mitte", "location": {"address": "Rochstr. 2", "lat": 52.52415016934014, "lng": 13.407659595853865, "labeledLatLngs": [{"label": "display", "lat": 52.52415016934014, "lng": 13.407659595853865}], "distance": 519, "postalCode": "10178", "cc": "DE", "city": "Berlin", "state": "Berlin", "country": "Deutschland", "formattedAddress": ["Rochstr. 2", "10178 Berlin", "Deutschland"]}, "categories": [{"id": "4bf58dd8d48988d10d941735", "name": "German Restaurant", "pluralName": "German Restaurants", "shortName": "German", "icon": {"prefix": "https://ss3.4sqi.net/img/categories_v2/food/german_", "suffix": ".png"}, "primary": true}], "photos": {"count": 0, "groups": []}}, "referralId": "e-0-4b0d8651f964a520304a23e3-44"}, {"reasons": {"count": 0, "items": [{"summary": "This spot is popular", "type": "general", "reasonName": "globalInteractionReason"}]}, "venue": {"id": "4adcda89f964a520954921e3", "name": "Maxim Gorki Theater", "location": {"address": "Am Festungsgraben 1", "lat": 52.51894077519612, "lng": 13.39524493467083, "labeledLatLngs": [{"label": "display", "lat": 52.51894077519612, "lng": 13.39524493467083}], "distance": 518, "postalCode": "10117", "cc": "DE", "city": "Berlin", "state": "Berlin", "country": "Deutschland", "formattedAddress": ["Am Festungsgraben 1", "10117 Berlin", "Deutschland"]}, "categories": [{"id": "4bf58dd8d48988d137941735", "name": "Theater", "pluralName": "Theaters", "shortName": "Theater", "icon": {"prefix": "https://ss3.4sqi.net/img/categories_v2/arts_entertainment/performingarts_theater_", "suffix": ".png"}, "primary": true}], "photos": {"count": 0, "groups": []}}, "referralId": "e-0-4adcda89f964a520954921e3-45"}, {"reasons": {"count": 0, "items": [{"summary": "This spot is popular", "type": "general", "reasonName": "globalInteractionReason"}]}, "venue": {"id": "4d34488a2c76a143335383c7", "name": "Neptunbrunnen", "location": {"address": "Karl-Liebknecht-Str.", "crossStreet": "Spandauer Str.", "lat": 52.51953850001971, "lng": 13.4069248448423, "labeledLatLngs": [{"label": "display", "lat": 52.51953850001971, "lng": 13.4069248448423}], "distance": 350, "postalCode": "10178", "cc": "DE", "city": "Berlin", "state": "Berlin", "country": "Deutschland", "formattedAddress": ["Karl-Liebknecht-Str. (Spandauer Str.)", "10178 Berlin", "Deutschland"]}, "categories": [{"id": "56aa371be4b08b9a8d573547", "name": "Fountain", "pluralName": "Fountains", "shortName": "Fountain", "icon": {"prefix": "https://ss3.4sqi.net/img/categories_v2/parks_outdoors/plaza_", "suffix": ".png"}, "primary": true}], "photos": {"count": 0, "groups": []}}, "referralId": "e-0-4d34488a2c76a143335383c7-46"}, {"reasons": {"count": 0, "items": [{"summary": "This spot is popular", "type": "general", "reasonName": "globalInteractionReason"}]}, "venue": {"id": "5287a67a11d231bdd99fd1e7", "name": "M\u00e4rchenh\u00fctte Jacob", "location": {"address": "Monbijoustr. 3b", "lat": 52.52301014591696, "lng": 13.395116694524507, "labeledLatLngs": [{"label": "display", "lat": 52.52301014591696, "lng": 13.395116694524507}], "distance": 538, "postalCode": "10117", "cc": "DE", "city": "Berlin", "state": "Berlin", "country": "Deutschland", "formattedAddress": ["Monbijoustr. 3b", "10117 Berlin", "Deutschland"]}, "categories": [{"id": "4bf58dd8d48988d135941735", "name": "Indie Theater", "pluralName": "Indie Theaters", "shortName": "Indie", "icon": {"prefix": "https://ss3.4sqi.net/img/categories_v2/arts_entertainment/performingarts_theater_", "suffix": ".png"}, "primary": true}], "photos": {"count": 0, "groups": []}}, "referralId": "e-0-5287a67a11d231bdd99fd1e7-47"}, {"reasons": {"count": 0, "items": [{"summary": "This spot is popular", "type": "general", "reasonName": "globalInteractionReason"}]}, "venue": {"id": "4c28ad7997d00f47212d40ea", "name": "LUSH", "location": {"address": "Rathausstr. 5", "lat": 52.51984357496295, "lng": 13.410409304434047, "labeledLatLngs": [{"label": "display", "lat": 52.51984357496295, "lng": 13.410409304434047}], "distance": 565, "postalCode": "10178", "cc": "DE", "city": "Berlin", "state": "Berlin", "country": "Deutschland", "formattedAddress": ["Rathausstr. 5", "10178 Berlin", "Deutschland"]}, "categories": [{"id": "4bf58dd8d48988d10c951735", "name": "Cosmetics Shop", "pluralName": "Cosmetics Shops", "shortName": "Cosmetics", "icon": {"prefix": "https://ss3.4sqi.net/img/categories_v2/shops/beauty_cosmetic_", "suffix": ".png"}, "primary": true}], "photos": {"count": 0, "groups": []}}, "referralId": "e-0-4c28ad7997d00f47212d40ea-48"}, {"reasons": {"count": 0, "items": [{"summary": "This spot is popular", "type": "general", "reasonName": "globalInteractionReason"}]}, "venue": {"id": "4f42de33e4b0a2bdc6c470ce", "name": "Designpanoptikum - surreales Museum f\u00fcr industrielle Objekte", "location": {"address": "Poststr. 7", "lat": 52.516941, "lng": 13.406072, "labeledLatLngs": [{"label": "display", "lat": 52.516941, "lng": 13.406072}], "distance": 507, "postalCode": "10178", "cc": "DE", "neighborhood": "Mitte", "city": "Berlin", "state": "Berlin", "country": "Deutschland", "formattedAddress": ["Poststr. 7", "10178 Berlin", "Deutschland"]}, "categories": [{"id": "4bf58dd8d48988d181941735", "name": "Museum", "pluralName": "Museums", "shortName": "Museum", "icon": {"prefix": "https://ss3.4sqi.net/img/categories_v2/arts_entertainment/museum_", "suffix": ".png"}, "primary": true}], "photos": {"count": 0, "groups": []}}, "referralId": "e-0-4f42de33e4b0a2bdc6c470ce-49"}, {"reasons": {"count": 0, "items": [{"summary": "This spot is popular", "type": "general", "reasonName": "globalInteractionReason"}]}, "venue": {"id": "5a7454ce6f706a38005806cf", "name": "Mr. Susan", "location": {"address": "Krausnickstr. 1", "crossStreet": "Oranienburger Str.", "lat": 52.524365484525525, "lng": 13.395541996018128, "labeledLatLngs": [{"label": "display", "lat": 52.524365484525525, "lng": 13.395541996018128}], "distance": 598, "postalCode": "10115", "cc": "DE", "neighborhood": "Mitte", "city": "Berlin", "state": "Berlin", "country": "Deutschland", "formattedAddress": ["Krausnickstr. 1 (Oranienburger Str.)", "10115 Berlin", "Deutschland"]}, "categories": [{"id": "4bf58dd8d48988d11e941735", "name": "Cocktail Bar", "pluralName": "Cocktail Bars", "shortName": "Cocktail", "icon": {"prefix": "https://ss3.4sqi.net/img/categories_v2/nightlife/cocktails_", "suffix": ".png"}, "primary": true}], "photos": {"count": 0, "groups": []}}, "referralId": "e-0-5a7454ce6f706a38005806cf-50"}, {"reasons": {"count": 0, "items": [{"summary": "This spot is popular", "type": "general", "reasonName": "globalInteractionReason"}]}, "venue": {"id": "4b5eefbaf964a5209a9e29e3", "name": "MediosApotheke", "location": {"address": "Rosenthaler Str. 46/47", "crossStreet": "Neue Sch\u00f6nhauser Str.", "lat": 52.5247123571147, "lng": 13.403289036339592, "labeledLatLngs": [{"label": "display", "lat": 52.5247123571147, "lng": 13.403289036339592}], "distance": 435, "postalCode": "10178", "cc": "DE", "city": "Berlin", "state": "Berlin", "country": "Deutschland", "formattedAddress": ["Rosenthaler Str. 46/47 (Neue Sch\u00f6nhauser Str.)", "10178 Berlin", "Deutschland"]}, "categories": [{"id": "4bf58dd8d48988d10f951735", "name": "Pharmacy", "pluralName": "Pharmacies", "shortName": "Pharmacy", "icon": {"prefix": "https://ss3.4sqi.net/img/categories_v2/shops/pharmacy_", "suffix": ".png"}, "primary": true}], "photos": {"count": 0, "groups": []}}, "referralId": "e-0-4b5eefbaf964a5209a9e29e3-51"}, {"reasons": {"count": 0, "items": [{"summary": "This spot is popular", "type": "general", "reasonName": "globalInteractionReason"}]}, "venue": {"id": "57e908c6498e2af8ac3f326f", "name": "MYKITA", "location": {"address": "Rosa-Luxemburg-Stra\u00dfe 6", "lat": 52.52352, "lng": 13.40948, "labeledLatLngs": [{"label": "display", "lat": 52.52352, "lng": 13.40948}], "distance": 573, "postalCode": "10178", "cc": "DE", "city": "Berlin", "state": "Berlin", "country": "Deutschland", "formattedAddress": ["Rosa-Luxemburg-Stra\u00dfe 6", "10178 Berlin", "Deutschland"]}, "categories": [{"id": "4d954afda243a5684865b473", "name": "Optical Shop", "pluralName": "Optical Shops", "shortName": "Optical", "icon": {"prefix": "https://ss3.4sqi.net/img/categories_v2/building/medical_opticalshop_", "suffix": ".png"}, "primary": true}], "photos": {"count": 0, "groups": []}}, "referralId": "e-0-57e908c6498e2af8ac3f326f-52"}, {"reasons": {"count": 0, "items": [{"summary": "This spot is popular", "type": "general", "reasonName": "globalInteractionReason"}]}, "venue": {"id": "5cfbe6b02aff31002ce8973f", "name": "Kin-Za", "location": {"address": "Krausnickstr. 23", "lat": 52.524928, "lng": 13.395808, "labeledLatLngs": [{"label": "display", "lat": 52.524928, "lng": 13.395808}], "distance": 628, "postalCode": "10115", "cc": "DE", "neighborhood": "Mitte", "city": "Berlin", "state": "Berlin", "country": "Deutschland", "formattedAddress": ["Krausnickstr. 23", "10115 Berlin", "Deutschland"]}, "categories": [{"id": "5293a7d53cf9994f4e043a45", "name": "Caucasian Restaurant", "pluralName": "Caucasian Restaurants", "shortName": "Caucasian", "icon": {"prefix": "https://ss3.4sqi.net/img/categories_v2/food/caucasian_", "suffix": ".png"}, "primary": true}], "photos": {"count": 0, "groups": []}}, "referralId": "e-0-5cfbe6b02aff31002ce8973f-53"}, {"reasons": {"count": 0, "items": [{"summary": "This spot is popular", "type": "general", "reasonName": "globalInteractionReason"}]}, "venue": {"id": "4adcda89f964a5209b4921e3", "name": "Sophiensaele", "location": {"address": "Sophienstra\u00dfe 18", "lat": 52.526030745383984, "lng": 13.401385144871206, "labeledLatLngs": [{"label": "display", "lat": 52.526030745383984, "lng": 13.401385144871206}], "distance": 579, "postalCode": "10178", "cc": "DE", "city": "Berlin", "state": "Berlin", "country": "Deutschland", "formattedAddress": ["Sophienstra\u00dfe 18", "10178 Berlin", "Deutschland"]}, "categories": [{"id": "4bf58dd8d48988d134941735", "name": "Dance Studio", "pluralName": "Dance Studios", "shortName": "Dance Studio", "icon": {"prefix": "https://ss3.4sqi.net/img/categories_v2/arts_entertainment/performingarts_dancestudio_", "suffix": ".png"}, "primary": true}], "photos": {"count": 0, "groups": []}}, "referralId": "e-0-4adcda89f964a5209b4921e3-54"}, {"reasons": {"count": 0, "items": [{"summary": "This spot is popular", "type": "general", "reasonName": "globalInteractionReason"}]}, "venue": {"id": "4adcda88f964a520854921e3", "name": "dolores*", "location": {"address": "Rosa-Luxemburg-Str. 7", "lat": 52.523736, "lng": 13.409249, "labeledLatLngs": [{"label": "display", "lat": 52.523736, "lng": 13.409249}], "distance": 573, "postalCode": "10178", "cc": "DE", "city": "Berlin", "state": "Berlin", "country": "Deutschland", "formattedAddress": ["Rosa-Luxemburg-Str. 7", "10178 Berlin", "Deutschland"]}, "categories": [{"id": "4bf58dd8d48988d153941735", "name": "Burrito Place", "pluralName": "Burrito Places", "shortName": "Burritos", "icon": {"prefix": "https://ss3.4sqi.net/img/categories_v2/food/burrito_", "suffix": ".png"}, "primary": true}], "photos": {"count": 0, "groups": []}}, "referralId": "e-0-4adcda88f964a520854921e3-55"}, {"reasons": {"count": 0, "items": [{"summary": "This spot is popular", "type": "general", "reasonName": "globalInteractionReason"}]}, "venue": {"id": "540ad3bb498e8ef1a0786c18", "name": "Bikram Yoga Mitte", "location": {"address": "Krausnickstra\u00dfe 23", "lat": 52.5248523826294, "lng": 13.395954684238157, "labeledLatLngs": [{"label": "display", "lat": 52.5248523826294, "lng": 13.395954684238157}], "distance": 615, "cc": "DE", "city": "Berlin", "state": "Berlin", "country": "Deutschland", "formattedAddress": ["Krausnickstra\u00dfe 23", "Berlin", "Deutschland"]}, "categories": [{"id": "4f4528bc4b90abdf24c9de85", "name": "Athletics & Sports", "pluralName": "Athletics & Sports", "shortName": "Athletics & Sports", "icon": {"prefix": "https://ss3.4sqi.net/img/categories_v2/shops/sports_outdoors_", "suffix": ".png"}, "primary": true}], "photos": {"count": 0, "groups": []}}, "referralId": "e-0-540ad3bb498e8ef1a0786c18-56"}, {"reasons": {"count": 0, "items": [{"summary": "This spot is popular", "type": "general", "reasonName": "globalInteractionReason"}]}, "venue": {"id": "4b37ffeaf964a520144a25e3", "name": "Motel One Berlin-Hackescher Markt", "location": {"address": "Dircksenstr. 36", "crossStreet": "Rosa-Luxemburg-Str.", "lat": 52.523108561905545, "lng": 13.408625897355646, "labeledLatLngs": [{"label": "display", "lat": 52.523108561905545, "lng": 13.408625897355646}], "distance": 500, "postalCode": "10179", "cc": "DE", "city": "Berlin", "state": "Berlin", "country": "Deutschland", "formattedAddress": ["Dircksenstr. 36 (Rosa-Luxemburg-Str.)", "10179 Berlin", "Deutschland"]}, "categories": [{"id": "4bf58dd8d48988d1fa931735", "name": "Hotel", "pluralName": "Hotels", "shortName": "Hotel", "icon": {"prefix": "https://ss3.4sqi.net/img/categories_v2/travel/hotel_", "suffix": ".png"}, "primary": true}], "photos": {"count": 0, "groups": []}, "venuePage": {"id": "473955422"}}, "referralId": "e-0-4b37ffeaf964a520144a25e3-57"}, {"reasons": {"count": 0, "items": [{"summary": "This spot is popular", "type": "general", "reasonName": "globalInteractionReason"}]}, "venue": {"id": "4adcda82f964a5208b4821e3", "name": "Sammlung Hoffmann", "location": {"address": "Sophienstr. 21", "lat": 52.52616958689138, "lng": 13.401084475242403, "labeledLatLngs": [{"label": "display", "lat": 52.52616958689138, "lng": 13.401084475242403}], "distance": 596, "postalCode": "10178", "cc": "DE", "city": "Berlin", "state": "Berlin", "country": "Deutschland", "formattedAddress": ["Sophienstr. 21", "10178 Berlin", "Deutschland"]}, "categories": [{"id": "4bf58dd8d48988d1e2931735", "name": "Art Gallery", "pluralName": "Art Galleries", "shortName": "Art Gallery", "icon": {"prefix": "https://ss3.4sqi.net/img/categories_v2/arts_entertainment/artgallery_", "suffix": ".png"}, "primary": true}], "photos": {"count": 0, "groups": []}}, "referralId": "e-0-4adcda82f964a5208b4821e3-58"}, {"reasons": {"count": 0, "items": [{"summary": "This spot is popular", "type": "general", "reasonName": "globalInteractionReason"}]}, "venue": {"id": "598f4c672aff3159d8a373b2", "name": "momotaro tavern", "location": {"address": "Panoramastr. 1A", "lat": 52.521201, "lng": 13.409838, "labeledLatLngs": [{"label": "display", "lat": 52.521201, "lng": 13.409838}], "distance": 516, "postalCode": "10178", "cc": "DE", "city": "Berlin", "state": "Berlin", "country": "Deutschland", "formattedAddress": ["Panoramastr. 1A", "10178 Berlin", "Deutschland"]}, "categories": [{"id": "4bf58dd8d48988d16c941735", "name": "Burger Joint", "pluralName": "Burger Joints", "shortName": "Burgers", "icon": {"prefix": "https://ss3.4sqi.net/img/categories_v2/food/burger_", "suffix": ".png"}, "primary": true}], "photos": {"count": 0, "groups": []}, "venuePage": {"id": "453047610"}}, "referralId": "e-0-598f4c672aff3159d8a373b2-59"}, {"reasons": {"count": 0, "items": [{"summary": "This spot is popular", "type": "general", "reasonName": "globalInteractionReason"}]}, "venue": {"id": "551706fe498e237bfc874019", "name": "Klub Kitchen", "location": {"address": "Almstadtstr. 9-11", "lat": 52.524849, "lng": 13.408988, "labeledLatLngs": [{"label": "display", "lat": 52.524849, "lng": 13.408988}], "distance": 638, "postalCode": "10119", "cc": "DE", "city": "Berlin", "state": "Berlin", "country": "Deutschland", "formattedAddress": ["Almstadtstr. 9-11", "10119 Berlin", "Deutschland"]}, "categories": [{"id": "52e81612bcbc57f1066b79f1", "name": "Bistro", "pluralName": "Bistros", "shortName": "Bistro", "icon": {"prefix": "https://ss3.4sqi.net/img/categories_v2/food/default_", "suffix": ".png"}, "primary": true}], "photos": {"count": 0, "groups": []}}, "referralId": "e-0-551706fe498e237bfc874019-60"}, {"reasons": {"count": 0, "items": [{"summary": "This spot is popular", "type": "general", "reasonName": "globalInteractionReason"}]}, "venue": {"id": "4ee917afd5fb86321f2b0297", "name": "Tigert\u00f6rtchen", "location": {"address": "Spandauer Str. 25", "lat": 52.51714999915386, "lng": 13.407926093359984, "labeledLatLngs": [{"label": "display", "lat": 52.51714999915386, "lng": 13.407926093359984}], "distance": 564, "postalCode": "10178", "cc": "DE", "city": "Berlin", "state": "Berlin", "country": "Deutschland", "formattedAddress": ["Spandauer Str. 25", "10178 Berlin", "Deutschland"]}, "categories": [{"id": "4bf58dd8d48988d1bc941735", "name": "Cupcake Shop", "pluralName": "Cupcake Shops", "shortName": "Cupcakes", "icon": {"prefix": "https://ss3.4sqi.net/img/categories_v2/food/cupcakes_", "suffix": ".png"}, "primary": true}], "photos": {"count": 0, "groups": []}, "venuePage": {"id": "33046216"}}, "referralId": "e-0-4ee917afd5fb86321f2b0297-61"}, {"reasons": {"count": 0, "items": [{"summary": "This spot is popular", "type": "general", "reasonName": "globalInteractionReason"}]}, "venue": {"id": "5a99a025b1538e6b2ca1d5fa", "name": "R\u00f6stst\u00e4tte Berlin", "location": {"address": "Rosenthaler Str. 40/41", "lat": 52.52413472442936, "lng": 13.402172185343975, "labeledLatLngs": [{"label": "display", "lat": 52.52413472442936, "lng": 13.402172185343975}], "distance": 365, "postalCode": "10178", "cc": "DE", "neighborhood": "Mitte", "city": "Berlin", "state": "Berlin", "country": "Deutschland", "formattedAddress": ["Rosenthaler Str. 40/41", "10178 Berlin", "Deutschland"]}, "categories": [{"id": "4bf58dd8d48988d1e0931735", "name": "Coffee Shop", "pluralName": "Coffee Shops", "shortName": "Coffee Shop", "icon": {"prefix": "https://ss3.4sqi.net/img/categories_v2/food/coffeeshop_", "suffix": ".png"}, "primary": true}], "photos": {"count": 0, "groups": []}}, "referralId": "e-0-5a99a025b1538e6b2ca1d5fa-62"}, {"reasons": {"count": 0, "items": [{"summary": "This spot is popular", "type": "general", "reasonName": "globalInteractionReason"}]}, "venue": {"id": "4c1920134ff90f471c750f49", "name": "Strandbar Mitte", "location": {"address": "Monbijoustr. 3", "lat": 52.52252048062552, "lng": 13.394650034921977, "labeledLatLngs": [{"label": "display", "lat": 52.52252048062552, "lng": 13.394650034921977}], "distance": 545, "postalCode": "10117", "cc": "DE", "city": "Berlin", "state": "Berlin", "country": "Deutschland", "formattedAddress": ["Monbijoustr. 3", "10117 Berlin", "Deutschland"]}, "categories": [{"id": "52e81612bcbc57f1066b7a0d", "name": "Beach Bar", "pluralName": "Beach Bars", "shortName": "Beach Bar", "icon": {"prefix": "https://ss3.4sqi.net/img/categories_v2/nightlife/default_", "suffix": ".png"}, "primary": true}], "photos": {"count": 0, "groups": []}}, "referralId": "e-0-4c1920134ff90f471c750f49-63"}, {"reasons": {"count": 0, "items": [{"summary": "This spot is popular", "type": "general", "reasonName": "globalInteractionReason"}]}, "venue": {"id": "4e50ee55483bb7704924391a", "name": "Bronzestatue \"Heiliger St. Georg im Kampf mit dem Drachen\"", "location": {"address": "Probststr.", "crossStreet": "Spreeufer", "lat": 52.51629022223086, "lng": 13.405557792008159, "labeledLatLngs": [{"label": "display", "lat": 52.51629022223086, "lng": 13.405557792008159}], "distance": 555, "postalCode": "10178", "cc": "DE", "city": "Berlin", "state": "Berlin", "country": "Deutschland", "formattedAddress": ["Probststr. (Spreeufer)", "10178 Berlin", "Deutschland"]}, "categories": [{"id": "52e81612bcbc57f1066b79ed", "name": "Outdoor Sculpture", "pluralName": "Outdoor Sculptures", "shortName": "Outdoor Sculpture", "icon": {"prefix": "https://ss3.4sqi.net/img/categories_v2/parks_outdoors/sculpture_", "suffix": ".png"}, "primary": true}], "photos": {"count": 0, "groups": []}}, "referralId": "e-0-4e50ee55483bb7704924391a-64"}, {"reasons": {"count": 0, "items": [{"summary": "This spot is popular", "type": "general", "reasonName": "globalInteractionReason"}]}, "venue": {"id": "4b27d308f964a520a58a24e3", "name": "COS", "location": {"address": "Neue Sch\u00f6nhauser Strasse 20", "crossStreet": "Weinmeisterstr.", "lat": 52.52497875366139, "lng": 13.406327221790633, "labeledLatLngs": [{"label": "display", "lat": 52.52497875366139, "lng": 13.406327221790633}], "distance": 536, "postalCode": "10178", "cc": "DE", "city": "Berlin", "state": "Berlin", "country": "Deutschland", "formattedAddress": ["Neue Sch\u00f6nhauser Strasse 20 (Weinmeisterstr.)", "10178 Berlin", "Deutschland"]}, "categories": [{"id": "4bf58dd8d48988d103951735", "name": "Clothing Store", "pluralName": "Clothing Stores", "shortName": "Apparel", "icon": {"prefix": "https://ss3.4sqi.net/img/categories_v2/shops/apparel_", "suffix": ".png"}, "primary": true}], "photos": {"count": 0, "groups": []}}, "referralId": "e-0-4b27d308f964a520a58a24e3-65"}, {"reasons": {"count": 0, "items": [{"summary": "This spot is popular", "type": "general", "reasonName": "globalInteractionReason"}]}, "venue": {"id": "579a410b498e5f7c187c5d91", "name": "Shiori", "location": {"address": "Max-Beer-Stra\u00dfe 13", "lat": 52.5255006388942, "lng": 13.40827536421529, "labeledLatLngs": [{"label": "display", "lat": 52.5255006388942, "lng": 13.40827536421529}], "distance": 659, "postalCode": "10119", "cc": "DE", "city": "Berlin", "state": "Berlin", "country": "Deutschland", "formattedAddress": ["Max-Beer-Stra\u00dfe 13", "10119 Berlin", "Deutschland"]}, "categories": [{"id": "4bf58dd8d48988d111941735", "name": "Japanese Restaurant", "pluralName": "Japanese Restaurants", "shortName": "Japanese", "icon": {"prefix": "https://ss3.4sqi.net/img/categories_v2/food/japanese_", "suffix": ".png"}, "primary": true}], "photos": {"count": 0, "groups": []}}, "referralId": "e-0-579a410b498e5f7c187c5d91-66"}, {"reasons": {"count": 0, "items": [{"summary": "This spot is popular", "type": "general", "reasonName": "globalInteractionReason"}]}, "venue": {"id": "4adcda91f964a520a34b21e3", "name": "Absinth Depot Berlin", "location": {"address": "Weinmeisterstr. 4", "lat": 52.52544626304552, "lng": 13.405128500995964, "labeledLatLngs": [{"label": "display", "lat": 52.52544626304552, "lng": 13.405128500995964}], "distance": 547, "postalCode": "10178", "cc": "DE", "city": "Berlin", "state": "Berlin", "country": "Deutschland", "formattedAddress": ["Weinmeisterstr. 4", "10178 Berlin", "Deutschland"]}, "categories": [{"id": "4bf58dd8d48988d186941735", "name": "Liquor Store", "pluralName": "Liquor Stores", "shortName": "Liquor Store", "icon": {"prefix": "https://ss3.4sqi.net/img/categories_v2/shops/food_liquor_", "suffix": ".png"}, "primary": true}], "photos": {"count": 0, "groups": []}}, "referralId": "e-0-4adcda91f964a520a34b21e3-67"}, {"reasons": {"count": 0, "items": [{"summary": "This spot is popular", "type": "general", "reasonName": "globalInteractionReason"}]}, "venue": {"id": "4fa95dd5e4b09ce165996cd3", "name": "Jolly", "location": {"address": "Am Kupfergraben  /  A 4", "lat": 52.520528807149965, "lng": 13.394800918201327, "labeledLatLngs": [{"label": "display", "lat": 52.520528807149965, "lng": 13.394800918201327}], "distance": 504, "postalCode": "10117", "cc": "DE", "city": "Berlin", "state": "Berlin", "country": "Deutschland", "formattedAddress": ["Am Kupfergraben  /  A 4", "10117 Berlin", "Deutschland"]}, "categories": [{"id": "4bf58dd8d48988d145941735", "name": "Chinese Restaurant", "pluralName": "Chinese Restaurants", "shortName": "Chinese", "icon": {"prefix": "https://ss3.4sqi.net/img/categories_v2/food/asian_", "suffix": ".png"}, "primary": true}], "photos": {"count": 0, "groups": []}}, "referralId": "e-0-4fa95dd5e4b09ce165996cd3-68"}, {"reasons": {"count": 0, "items": [{"summary": "This spot is popular", "type": "general", "reasonName": "globalInteractionReason"}]}, "venue": {"id": "4d32fd98c6cba35d3b94267a", "name": "Julchen Hoppe", "location": {"address": "Rathausstr. 25", "lat": 52.517396793480906, "lng": 13.404751382677345, "labeledLatLngs": [{"label": "display", "lat": 52.517396793480906, "lng": 13.404751382677345}], "distance": 421, "postalCode": "10178", "cc": "DE", "city": "Berlin", "state": "Berlin", "country": "Deutschland", "formattedAddress": ["Rathausstr. 25", "10178 Berlin", "Deutschland"]}, "categories": [{"id": "4bf58dd8d48988d10d941735", "name": "German Restaurant", "pluralName": "German Restaurants", "shortName": "German", "icon": {"prefix": "https://ss3.4sqi.net/img/categories_v2/food/german_", "suffix": ".png"}, "primary": true}], "photos": {"count": 0, "groups": []}}, "referralId": "e-0-4d32fd98c6cba35d3b94267a-69"}, {"reasons": {"count": 0, "items": [{"summary": "This spot is popular", "type": "general", "reasonName": "globalInteractionReason"}]}, "venue": {"id": "4adcda7df964a5206f4721e3", "name": "Nikolaiviertel", "location": {"lat": 52.51678234501796, "lng": 13.406453132629395, "labeledLatLngs": [{"label": "display", "lat": 52.51678234501796, "lng": 13.406453132629395}], "distance": 536, "postalCode": "10178", "cc": "DE", "city": "Berlin", "state": "Berlin", "country": "Deutschland", "formattedAddress": ["10178 Berlin", "Deutschland"]}, "categories": [{"id": "4f2a25ac4b909258e854f55f", "name": "Neighborhood", "pluralName": "Neighborhoods", "shortName": "Neighborhood", "icon": {"prefix": "https://ss3.4sqi.net/img/categories_v2/parks_outdoors/neighborhood_", "suffix": ".png"}, "primary": true}], "photos": {"count": 0, "groups": []}}, "referralId": "e-0-4adcda7df964a5206f4721e3-70"}, {"reasons": {"count": 0, "items": [{"summary": "This spot is popular", "type": "general", "reasonName": "globalInteractionReason"}]}, "venue": {"id": "57018779498e52f43091af88", "name": "Pierre Boulez Saal", "location": {"address": "Franz\u00f6sische Str. 33d", "lat": 52.51533292570581, "lng": 13.396217823028564, "labeledLatLngs": [{"label": "display", "lat": 52.51533292570581, "lng": 13.396217823028564}], "distance": 737, "postalCode": "10117", "cc": "DE", "city": "Berlin", "state": "Berlin", "country": "Deutschland", "formattedAddress": ["Franz\u00f6sische Str. 33d", "10117 Berlin", "Deutschland"]}, "categories": [{"id": "5032792091d4c4b30a586d5c", "name": "Concert Hall", "pluralName": "Concert Halls", "shortName": "Concert Hall", "icon": {"prefix": "https://ss3.4sqi.net/img/categories_v2/arts_entertainment/musicvenue_", "suffix": ".png"}, "primary": true}], "photos": {"count": 0, "groups": []}}, "referralId": "e-0-57018779498e52f43091af88-71"}, {"reasons": {"count": 0, "items": [{"summary": "This spot is popular", "type": "general", "reasonName": "globalInteractionReason"}]}, "venue": {"id": "4dbc1fa1a86e0e98a1daa36d", "name": "Schinkel Pavillion", "location": {"address": "Oberwallstr. 1", "lat": 52.51616321966491, "lng": 13.396857047689211, "labeledLatLngs": [{"label": "display", "lat": 52.51616321966491, "lng": 13.396857047689211}], "distance": 636, "postalCode": "10117", "cc": "DE", "city": "Berlin", "state": "Berlin", "country": "Deutschland", "formattedAddress": ["Oberwallstr. 1", "10117 Berlin", "Deutschland"]}, "categories": [{"id": "4bf58dd8d48988d1e2931735", "name": "Art Gallery", "pluralName": "Art Galleries", "shortName": "Art Gallery", "icon": {"prefix": "https://ss3.4sqi.net/img/categories_v2/arts_entertainment/artgallery_", "suffix": ".png"}, "primary": true}], "photos": {"count": 0, "groups": []}}, "referralId": "e-0-4dbc1fa1a86e0e98a1daa36d-72"}, {"reasons": {"count": 0, "items": [{"summary": "This spot is popular", "type": "general", "reasonName": "globalInteractionReason"}]}, "venue": {"id": "4af80b9df964a520cb0a22e3", "name": "Buscaglione", "location": {"address": "Rochstr. 3", "lat": 52.52399380498759, "lng": 13.407616209150518, "labeledLatLngs": [{"label": "display", "lat": 52.52399380498759, "lng": 13.407616209150518}], "distance": 505, "postalCode": "10178", "cc": "DE", "city": "Berlin", "state": "Berlin", "country": "Deutschland", "formattedAddress": ["Rochstr. 3", "10178 Berlin", "Deutschland"]}, "categories": [{"id": "4bf58dd8d48988d16d941735", "name": "Caf\u00e9", "pluralName": "Caf\u00e9s", "shortName": "Caf\u00e9", "icon": {"prefix": "https://ss3.4sqi.net/img/categories_v2/food/cafe_", "suffix": ".png"}, "primary": true}], "photos": {"count": 0, "groups": []}}, "referralId": "e-0-4af80b9df964a520cb0a22e3-73"}, {"reasons": {"count": 0, "items": [{"summary": "This spot is popular", "type": "general", "reasonName": "globalInteractionReason"}]}, "venue": {"id": "54c0f2fe498e52f046ee2d5a", "name": "Madami II", "location": {"address": "Dircksenstr. 37", "lat": 52.52321659249785, "lng": 13.408217887361939, "labeledLatLngs": [{"label": "display", "lat": 52.52321659249785, "lng": 13.408217887361939}], "distance": 483, "postalCode": "10178", "cc": "DE", "city": "Berlin", "state": "Berlin", "country": "Deutschland", "formattedAddress": ["Dircksenstr. 37", "10178 Berlin", "Deutschland"]}, "categories": [{"id": "4bf58dd8d48988d142941735", "name": "Asian Restaurant", "pluralName": "Asian Restaurants", "shortName": "Asian", "icon": {"prefix": "https://ss3.4sqi.net/img/categories_v2/food/asian_", "suffix": ".png"}, "primary": true}], "photos": {"count": 0, "groups": []}}, "referralId": "e-0-54c0f2fe498e52f046ee2d5a-74"}, {"reasons": {"count": 0, "items": [{"summary": "This spot is popular", "type": "general", "reasonName": "globalInteractionReason"}]}, "venue": {"id": "5535f234498efc81eb55d6e6", "name": "Decathlon", "location": {"address": "Rathausstr. 5", "lat": 52.5196293, "lng": 13.4107977, "labeledLatLngs": [{"label": "display", "lat": 52.5196293, "lng": 13.4107977}], "distance": 596, "postalCode": "10178", "cc": "DE", "city": "Berlin", "state": "Berlin", "country": "Deutschland", "formattedAddress": ["Rathausstr. 5", "10178 Berlin", "Deutschland"]}, "categories": [{"id": "4bf58dd8d48988d1f2941735", "name": "Sporting Goods Shop", "pluralName": "Sporting Goods Shops", "shortName": "Sporting Goods", "icon": {"prefix": "https://ss3.4sqi.net/img/categories_v2/shops/sports_outdoors_", "suffix": ".png"}, "primary": true}], "photos": {"count": 0, "groups": []}}, "referralId": "e-0-5535f234498efc81eb55d6e6-75"}, {"reasons": {"count": 0, "items": [{"summary": "This spot is popular", "type": "general", "reasonName": "globalInteractionReason"}]}, "venue": {"id": "54bced36498e8ddf27dfddd9", "name": "The Blue Yard", "location": {"address": "M\u00fcnzstr. 21", "crossStreet": "Neue Sch\u00f6nhauser Str.", "lat": 52.524472411669564, "lng": 13.40659411522576, "labeledLatLngs": [{"label": "display", "lat": 52.524472411669564, "lng": 13.40659411522576}], "distance": 499, "postalCode": "10178", "cc": "DE", "city": "Berlin", "state": "Berlin", "country": "Deutschland", "formattedAddress": ["M\u00fcnzstr. 21 (Neue Sch\u00f6nhauser Str.)", "10178 Berlin", "Deutschland"]}, "categories": [{"id": "5744ccdfe4b0c0459246b4dc", "name": "Shopping Plaza", "pluralName": "Shopping Plazas", "shortName": "Shopping Plaza", "icon": {"prefix": "https://ss3.4sqi.net/img/categories_v2/shops/mall_", "suffix": ".png"}, "primary": true}], "photos": {"count": 0, "groups": []}}, "referralId": "e-0-54bced36498e8ddf27dfddd9-76"}, {"reasons": {"count": 0, "items": [{"summary": "This spot is popular", "type": "general", "reasonName": "globalInteractionReason"}]}, "venue": {"id": "5304b561498e1f0fdd424e5e", "name": "Kauf Dich gl\u00fccklich Flagship-Store", "location": {"address": "Rosenthaler Str. 17", "lat": 52.52688649561831, "lng": 13.403374312638759, "labeledLatLngs": [{"label": "display", "lat": 52.52688649561831, "lng": 13.403374312638759}], "distance": 676, "postalCode": "10119", "cc": "DE", "city": "Berlin", "state": "Berlin", "country": "Deutschland", "formattedAddress": ["Rosenthaler Str. 17", "10119 Berlin", "Deutschland"]}, "categories": [{"id": "4bf58dd8d48988d103951735", "name": "Clothing Store", "pluralName": "Clothing Stores", "shortName": "Apparel", "icon": {"prefix": "https://ss3.4sqi.net/img/categories_v2/shops/apparel_", "suffix": ".png"}, "primary": true}], "photos": {"count": 0, "groups": []}}, "referralId": "e-0-5304b561498e1f0fdd424e5e-77"}, {"reasons": {"count": 0, "items": [{"summary": "This spot is popular", "type": "general", "reasonName": "globalInteractionReason"}]}, "venue": {"id": "535e35ae498ef304aa9dbac8", "name": "Madami", "location": {"address": "Rosa-Luxemburg-Str. 3", "lat": 52.52338247426076, "lng": 13.408974409103394, "labeledLatLngs": [{"label": "display", "lat": 52.52338247426076, "lng": 13.408974409103394}], "distance": 536, "postalCode": "10178", "cc": "DE", "city": "Berlin", "state": "Berlin", "country": "Deutschland", "formattedAddress": ["Rosa-Luxemburg-Str. 3", "10178 Berlin", "Deutschland"]}, "categories": [{"id": "4bf58dd8d48988d14a941735", "name": "Vietnamese Restaurant", "pluralName": "Vietnamese Restaurants", "shortName": "Vietnamese", "icon": {"prefix": "https://ss3.4sqi.net/img/categories_v2/food/vietnamese_", "suffix": ".png"}, "primary": true}], "photos": {"count": 0, "groups": []}}, "referralId": "e-0-535e35ae498ef304aa9dbac8-78"}, {"reasons": {"count": 0, "items": [{"summary": "This spot is popular", "type": "general", "reasonName": "globalInteractionReason"}]}, "venue": {"id": "526a779c11d221695a115214", "name": "Wheadon", "location": {"address": "Steinstr. 17", "lat": 52.5271893, "lng": 13.4046832, "labeledLatLngs": [{"label": "display", "lat": 52.5271893, "lng": 13.4046832}], "distance": 724, "postalCode": "10119", "cc": "DE", "neighborhood": "Mitte", "city": "Berlin", "state": "Berlin", "country": "Deutschland", "formattedAddress": ["Steinstr. 17", "10119 Berlin", "Deutschland"]}, "categories": [{"id": "4bf58dd8d48988d110951735", "name": "Salon / Barbershop", "pluralName": "Salons / Barbershops", "shortName": "Salon / Barbershop", "icon": {"prefix": "https://ss3.4sqi.net/img/categories_v2/shops/salon_barber_", "suffix": ".png"}, "primary": true}], "photos": {"count": 0, "groups": []}}, "referralId": "e-0-526a779c11d221695a115214-79"}, {"reasons": {"count": 0, "items": [{"summary": "This spot is popular", "type": "general", "reasonName": "globalInteractionReason"}]}, "venue": {"id": "4adcda8af964a520be4921e3", "name": "Staatsoper Unter den Linden", "location": {"address": "Unter den Linden 7", "lat": 52.517023910254956, "lng": 13.394651412963867, "labeledLatLngs": [{"label": "display", "lat": 52.517023910254956, "lng": 13.394651412963867}], "distance": 667, "postalCode": "10117", "cc": "DE", "city": "Berlin", "state": "Berlin", "country": "Deutschland", "formattedAddress": ["Unter den Linden 7", "10117 Berlin", "Deutschland"]}, "categories": [{"id": "4bf58dd8d48988d136941735", "name": "Opera House", "pluralName": "Opera Houses", "shortName": "Opera House", "icon": {"prefix": "https://ss3.4sqi.net/img/categories_v2/arts_entertainment/performingarts_operahouse_", "suffix": ".png"}, "primary": true}], "photos": {"count": 0, "groups": []}}, "referralId": "e-0-4adcda8af964a520be4921e3-80"}, {"reasons": {"count": 0, "items": [{"summary": "This spot is popular", "type": "general", "reasonName": "globalInteractionReason"}]}, "venue": {"id": "4af085d7f964a520e6dc21e3", "name": "Cocolo Ramen", "location": {"address": "Gipsstr. 3", "crossStreet": "Auguststr.", "lat": 52.527237, "lng": 13.399299, "labeledLatLngs": [{"label": "display", "lat": 52.527237, "lng": 13.399299}], "distance": 737, "postalCode": "10119", "cc": "DE", "city": "Berlin", "state": "Berlin", "country": "Deutschland", "formattedAddress": ["Gipsstr. 3 (Auguststr.)", "10119 Berlin", "Deutschland"]}, "categories": [{"id": "55a59bace4b013909087cb24", "name": "Ramen Restaurant", "pluralName": "Ramen Restaurants", "shortName": "Ramen", "icon": {"prefix": "https://ss3.4sqi.net/img/categories_v2/food/ramen_", "suffix": ".png"}, "primary": true}], "photos": {"count": 0, "groups": []}}, "referralId": "e-0-4af085d7f964a520e6dc21e3-81"}, {"reasons": {"count": 0, "items": [{"summary": "This spot is popular", "type": "general", "reasonName": "globalInteractionReason"}]}, "venue": {"id": "51c5bc33498e0d1d9282c2ef", "name": "Cuore di vetro", "location": {"address": "Max-Beer-Str. 33", "lat": 52.52657678557984, "lng": 13.408722634920323, "labeledLatLngs": [{"label": "display", "lat": 52.52657678557984, "lng": 13.408722634920323}], "distance": 774, "postalCode": "10119", "cc": "DE", "city": "Berlin", "state": "Berlin", "country": "Deutschland", "formattedAddress": ["Max-Beer-Str. 33", "10119 Berlin", "Deutschland"]}, "categories": [{"id": "4bf58dd8d48988d1c9941735", "name": "Ice Cream Shop", "pluralName": "Ice Cream Shops", "shortName": "Ice Cream", "icon": {"prefix": "https://ss3.4sqi.net/img/categories_v2/food/icecream_", "suffix": ".png"}, "primary": true}], "photos": {"count": 0, "groups": []}}, "referralId": "e-0-51c5bc33498e0d1d9282c2ef-82"}, {"reasons": {"count": 0, "items": [{"summary": "This spot is popular", "type": "general", "reasonName": "globalInteractionReason"}]}, "venue": {"id": "581cacad52addb0cc7c7009c", "name": "Beets & Roots", "location": {"address": "Gro\u00dfe Hamburger Str. 38", "crossStreet": "Sophienstr.", "lat": 52.52658960396515, "lng": 13.398413661874123, "labeledLatLngs": [{"label": "display", "lat": 52.52658960396515, "lng": 13.398413661874123}], "distance": 688, "postalCode": "10115", "cc": "DE", "neighborhood": "Mitte", "city": "Berlin", "state": "Berlin", "country": "Deutschland", "formattedAddress": ["Gro\u00dfe Hamburger Str. 38 (Sophienstr.)", "10115 Berlin", "Deutschland"]}, "categories": [{"id": "4bf58dd8d48988d1bd941735", "name": "Salad Place", "pluralName": "Salad Places", "shortName": "Salad", "icon": {"prefix": "https://ss3.4sqi.net/img/categories_v2/food/salad_", "suffix": ".png"}, "primary": true}], "photos": {"count": 0, "groups": []}}, "referralId": "e-0-581cacad52addb0cc7c7009c-83"}, {"reasons": {"count": 0, "items": [{"summary": "This spot is popular", "type": "general", "reasonName": "globalInteractionReason"}]}, "venue": {"id": "4adcda91f964a5209b4b21e3", "name": "do you read me?!", "location": {"address": "Auguststr. 28", "lat": 52.52721193085127, "lng": 13.397700600251317, "labeledLatLngs": [{"label": "display", "lat": 52.52721193085127, "lng": 13.397700600251317}], "distance": 771, "postalCode": "10117", "cc": "DE", "city": "Berlin", "state": "Berlin", "country": "Deutschland", "formattedAddress": ["Auguststr. 28", "10117 Berlin", "Deutschland"]}, "categories": [{"id": "4bf58dd8d48988d114951735", "name": "Bookstore", "pluralName": "Bookstores", "shortName": "Bookstore", "icon": {"prefix": "https://ss3.4sqi.net/img/categories_v2/shops/bookstore_", "suffix": ".png"}, "primary": true}], "photos": {"count": 0, "groups": []}}, "referralId": "e-0-4adcda91f964a5209b4b21e3-84"}, {"reasons": {"count": 0, "items": [{"summary": "This spot is popular", "type": "general", "reasonName": "globalInteractionReason"}]}, "venue": {"id": "5ab2728716fa0464f2ec0a42", "name": "Mama Van - Sai Gon Deli", "location": {"address": "Karl-Liebknecht-Str. 15", "lat": 52.52277618060749, "lng": 13.41046135741149, "labeledLatLngs": [{"label": "display", "lat": 52.52277618060749, "lng": 13.41046135741149}], "distance": 597, "postalCode": "10178", "cc": "DE", "neighborhood": "Alexanderplatz", "city": "Berlin", "state": "Berlin", "country": "Deutschland", "formattedAddress": ["Karl-Liebknecht-Str. 15", "10178 Berlin", "Deutschland"]}, "categories": [{"id": "4bf58dd8d48988d14a941735", "name": "Vietnamese Restaurant", "pluralName": "Vietnamese Restaurants", "shortName": "Vietnamese", "icon": {"prefix": "https://ss3.4sqi.net/img/categories_v2/food/vietnamese_", "suffix": ".png"}, "primary": true}], "photos": {"count": 0, "groups": []}}, "referralId": "e-0-5ab2728716fa0464f2ec0a42-85"}, {"reasons": {"count": 0, "items": [{"summary": "This spot is popular", "type": "general", "reasonName": "globalInteractionReason"}]}, "venue": {"id": "4ae84506f964a52067ae21e3", "name": "Muret la Barba", "location": {"address": "Rosenthaler Str. 61", "lat": 52.527338, "lng": 13.403331, "labeledLatLngs": [{"label": "display", "lat": 52.527338, "lng": 13.403331}], "distance": 725, "postalCode": "10119", "cc": "DE", "city": "Berlin", "state": "Berlin", "country": "Deutschland", "formattedAddress": ["Rosenthaler Str. 61", "10119 Berlin", "Deutschland"]}, "categories": [{"id": "4bf58dd8d48988d110941735", "name": "Italian Restaurant", "pluralName": "Italian Restaurants", "shortName": "Italian", "icon": {"prefix": "https://ss3.4sqi.net/img/categories_v2/food/italian_", "suffix": ".png"}, "primary": true}], "photos": {"count": 0, "groups": []}}, "referralId": "e-0-4ae84506f964a52067ae21e3-86"}, {"reasons": {"count": 0, "items": [{"summary": "This spot is popular", "type": "general", "reasonName": "globalInteractionReason"}]}, "venue": {"id": "4fb51c29e4b0719cde34a216", "name": "Nikolaikirchplatz", "location": {"address": "Nikolaikirchplatz", "lat": 52.51670039311001, "lng": 13.406839179328845, "labeledLatLngs": [{"label": "display", "lat": 52.51670039311001, "lng": 13.406839179328845}], "distance": 557, "postalCode": "10178", "cc": "DE", "city": "Berlin", "state": "Berlin", "country": "Deutschland", "formattedAddress": ["Nikolaikirchplatz", "10178 Berlin", "Deutschland"]}, "categories": [{"id": "4bf58dd8d48988d164941735", "name": "Plaza", "pluralName": "Plazas", "shortName": "Plaza", "icon": {"prefix": "https://ss3.4sqi.net/img/categories_v2/parks_outdoors/plaza_", "suffix": ".png"}, "primary": true}], "photos": {"count": 0, "groups": []}}, "referralId": "e-0-4fb51c29e4b0719cde34a216-87"}, {"reasons": {"count": 0, "items": [{"summary": "This spot is popular", "type": "general", "reasonName": "globalInteractionReason"}]}, "venue": {"id": "51a9da4f498ec8aca72360f1", "name": "Shiso Burger", "location": {"address": "Auguststr. 29c", "crossStreet": "Gipsstr.", "lat": 52.527269917172944, "lng": 13.398796981782652, "labeledLatLngs": [{"label": "display", "lat": 52.527269917172944, "lng": 13.398796981782652}], "distance": 751, "postalCode": "10119", "cc": "DE", "city": "Berlin", "state": "Berlin", "country": "Deutschland", "formattedAddress": ["Auguststr. 29c (Gipsstr.)", "10119 Berlin", "Deutschland"]}, "categories": [{"id": "4bf58dd8d48988d16c941735", "name": "Burger Joint", "pluralName": "Burger Joints", "shortName": "Burgers", "icon": {"prefix": "https://ss3.4sqi.net/img/categories_v2/food/burger_", "suffix": ".png"}, "primary": true}], "photos": {"count": 0, "groups": []}}, "referralId": "e-0-51a9da4f498ec8aca72360f1-88"}, {"reasons": {"count": 0, "items": [{"summary": "This spot is popular", "type": "general", "reasonName": "globalInteractionReason"}]}, "venue": {"id": "50c47265e4b070f4c2dd1c9a", "name": "Worlds end Vivienne Westwood", "location": {"address": "Mulackstr. 26", "lat": 52.5275001678299, "lng": 13.405170440675711, "labeledLatLngs": [{"label": "display", "lat": 52.5275001678299, "lng": 13.405170440675711}], "distance": 766, "cc": "DE", "city": "Berlin", "state": "Berlin", "country": "Deutschland", "formattedAddress": ["Mulackstr. 26", "Berlin", "Deutschland"]}, "categories": [{"id": "4bf58dd8d48988d104951735", "name": "Boutique", "pluralName": "Boutiques", "shortName": "Boutique", "icon": {"prefix": "https://ss3.4sqi.net/img/categories_v2/shops/apparel_boutique_", "suffix": ".png"}, "primary": true}], "photos": {"count": 0, "groups": []}}, "referralId": "e-0-50c47265e4b070f4c2dd1c9a-89"}, {"reasons": {"count": 0, "items": [{"summary": "This spot is popular", "type": "general", "reasonName": "globalInteractionReason"}]}, "venue": {"id": "54aa71d0498e077a285b5eed", "name": "Motel One Berlin-Alexanderplatz", "location": {"address": "Grunerstr. 11", "crossStreet": "Gontardstr.", "lat": 52.519390187716915, "lng": 13.412157520940962, "labeledLatLngs": [{"label": "display", "lat": 52.519390187716915, "lng": 13.412157520940962}], "distance": 692, "postalCode": "10179", "cc": "DE", "neighborhood": "Mitte", "city": "Berlin", "state": "Berlin", "country": "Deutschland", "formattedAddress": ["Grunerstr. 11 (Gontardstr.)", "10179 Berlin", "Deutschland"]}, "categories": [{"id": "4bf58dd8d48988d1fa931735", "name": "Hotel", "pluralName": "Hotels", "shortName": "Hotel", "icon": {"prefix": "https://ss3.4sqi.net/img/categories_v2/travel/hotel_", "suffix": ".png"}, "primary": true}], "photos": {"count": 0, "groups": []}}, "referralId": "e-0-54aa71d0498e077a285b5eed-90"}, {"reasons": {"count": 0, "items": [{"summary": "This spot is popular", "type": "general", "reasonName": "globalInteractionReason"}]}, "venue": {"id": "4adcda7df964a520ab4721e3", "name": "Bebelplatz", "location": {"address": "Bebelplatz", "crossStreet": "Unter den Linden", "lat": 52.51653012045096, "lng": 13.393846660247611, "labeledLatLngs": [{"label": "display", "lat": 52.51653012045096, "lng": 13.393846660247611}], "distance": 744, "postalCode": "10117", "cc": "DE", "city": "Berlin", "state": "Berlin", "country": "Deutschland", "formattedAddress": ["Bebelplatz (Unter den Linden)", "10117 Berlin", "Deutschland"]}, "categories": [{"id": "4bf58dd8d48988d164941735", "name": "Plaza", "pluralName": "Plazas", "shortName": "Plaza", "icon": {"prefix": "https://ss3.4sqi.net/img/categories_v2/parks_outdoors/plaza_", "suffix": ".png"}, "primary": true}], "photos": {"count": 0, "groups": []}}, "referralId": "e-0-4adcda7df964a520ab4721e3-91"}, {"reasons": {"count": 0, "items": [{"summary": "This spot is popular", "type": "general", "reasonName": "globalInteractionReason"}]}, "venue": {"id": "57aa1d97498ef24dbac46652", "name": "Banh Mi Stable", "location": {"address": "Alte Sch\u00f6nhauser Str. 50", "crossStreet": "Schendelgasse", "lat": 52.526965, "lng": 13.408235, "labeledLatLngs": [{"label": "display", "lat": 52.526965, "lng": 13.408235}], "distance": 792, "postalCode": "10119", "cc": "DE", "neighborhood": "Mitte", "city": "Berlin", "state": "Berlin", "country": "Deutschland", "formattedAddress": ["Alte Sch\u00f6nhauser Str. 50 (Schendelgasse)", "10119 Berlin", "Deutschland"]}, "categories": [{"id": "4bf58dd8d48988d1c5941735", "name": "Sandwich Place", "pluralName": "Sandwich Places", "shortName": "Sandwiches", "icon": {"prefix": "https://ss3.4sqi.net/img/categories_v2/food/deli_", "suffix": ".png"}, "primary": true}], "photos": {"count": 0, "groups": []}}, "referralId": "e-0-57aa1d97498ef24dbac46652-92"}, {"reasons": {"count": 0, "items": [{"summary": "This spot is popular", "type": "general", "reasonName": "globalInteractionReason"}]}, "venue": {"id": "4af0444cf964a520f0da21e3", "name": "Hotel de Rome", "location": {"address": "Behrenstr. 37", "lat": 52.516024880809326, "lng": 13.393938200455462, "labeledLatLngs": [{"label": "display", "lat": 52.516024880809326, "lng": 13.393938200455462}], "distance": 777, "postalCode": "10117", "cc": "DE", "city": "Berlin", "state": "Berlin", "country": "Deutschland", "formattedAddress": ["Behrenstr. 37", "10117 Berlin", "Deutschland"]}, "categories": [{"id": "4bf58dd8d48988d1fa931735", "name": "Hotel", "pluralName": "Hotels", "shortName": "Hotel", "icon": {"prefix": "https://ss3.4sqi.net/img/categories_v2/travel/hotel_", "suffix": ".png"}, "primary": true}], "photos": {"count": 0, "groups": []}}, "referralId": "e-0-4af0444cf964a520f0da21e3-93"}, {"reasons": {"count": 0, "items": [{"summary": "This spot is popular", "type": "general", "reasonName": "globalInteractionReason"}]}, "venue": {"id": "56609182498ec6e76b361f9c", "name": "Ace & Tate", "location": {"address": "Alte Sch\u00f6nhauser Stra\u00dfe 42", "crossStreet": "Steinstr.", "lat": 52.52632840441033, "lng": 13.407713676111484, "labeledLatLngs": [{"label": "display", "lat": 52.52632840441033, "lng": 13.407713676111484}], "distance": 713, "postalCode": "10119", "cc": "DE", "city": "Berlin", "state": "Brandenburg", "country": "Deutschland", "formattedAddress": ["Alte Sch\u00f6nhauser Stra\u00dfe 42 (Steinstr.)", "10119 Berlin", "Deutschland"]}, "categories": [{"id": "4d954afda243a5684865b473", "name": "Optical Shop", "pluralName": "Optical Shops", "shortName": "Optical", "icon": {"prefix": "https://ss3.4sqi.net/img/categories_v2/building/medical_opticalshop_", "suffix": ".png"}, "primary": true}], "photos": {"count": 0, "groups": []}}, "referralId": "e-0-56609182498ec6e76b361f9c-94"}, {"reasons": {"count": 0, "items": [{"summary": "This spot is popular", "type": "general", "reasonName": "globalInteractionReason"}]}, "venue": {"id": "4ffc3bf545b052e098b07906", "name": "Red Wing Shoes Berlin", "location": {"address": "M\u00fcnzstra\u00dfe 8", "lat": 52.52429672922191, "lng": 13.408667135439341, "labeledLatLngs": [{"label": "display", "lat": 52.52429672922191, "lng": 13.408667135439341}], "distance": 580, "postalCode": "10178", "cc": "DE", "city": "Berlin", "state": "Berlin", "country": "Deutschland", "formattedAddress": ["M\u00fcnzstra\u00dfe 8", "10178 Berlin", "Deutschland"]}, "categories": [{"id": "4bf58dd8d48988d107951735", "name": "Shoe Store", "pluralName": "Shoe Stores", "shortName": "Shoes", "icon": {"prefix": "https://ss3.4sqi.net/img/categories_v2/shops/apparel_shoestore_", "suffix": ".png"}, "primary": true}], "photos": {"count": 0, "groups": []}}, "referralId": "e-0-4ffc3bf545b052e098b07906-95"}, {"reasons": {"count": 0, "items": [{"summary": "This spot is popular", "type": "general", "reasonName": "globalInteractionReason"}]}, "venue": {"id": "588875294745863ba6709dcf", "name": "Flying Tiger", "location": {"lat": 52.52243722587935, "lng": 13.412612279052135, "labeledLatLngs": [{"label": "display", "lat": 52.52243722587935, "lng": 13.412612279052135}], "distance": 725, "postalCode": "10178", "cc": "DE", "city": "Berlin", "state": "Berlin", "country": "Deutschland", "formattedAddress": ["10178 Berlin", "Deutschland"]}, "categories": [{"id": "4bf58dd8d48988d128951735", "name": "Gift Shop", "pluralName": "Gift Shops", "shortName": "Gift Shop", "icon": {"prefix": "https://ss3.4sqi.net/img/categories_v2/shops/giftshop_", "suffix": ".png"}, "primary": true}], "photos": {"count": 0, "groups": []}}, "referralId": "e-0-588875294745863ba6709dcf-96"}, {"reasons": {"count": 0, "items": [{"summary": "This spot is popular", "type": "general", "reasonName": "globalInteractionReason"}]}, "venue": {"id": "4bb342f342959c74eaad212c", "name": "Tr\u00fcffelschwein", "location": {"address": "Rosa-Luxemburg-Str. 21", "lat": 52.52538210651051, "lng": 13.410744923625371, "labeledLatLngs": [{"label": "display", "lat": 52.52538210651051, "lng": 13.410744923625371}], "distance": 766, "postalCode": "10178", "cc": "DE", "city": "Berlin", "state": "Berlin", "country": "Deutschland", "formattedAddress": ["Rosa-Luxemburg-Str. 21", "10178 Berlin", "Deutschland"]}, "categories": [{"id": "4bf58dd8d48988d106951735", "name": "Men's Store", "pluralName": "Men's Stores", "shortName": "Men's Store", "icon": {"prefix": "https://ss3.4sqi.net/img/categories_v2/shops/apparel_men_", "suffix": ".png"}, "primary": true}], "photos": {"count": 0, "groups": []}}, "referralId": "e-0-4bb342f342959c74eaad212c-97"}, {"reasons": {"count": 0, "items": [{"summary": "This spot is popular", "type": "general", "reasonName": "globalInteractionReason"}]}, "venue": {"id": "4bc495ef920eb713d2ec1e2c", "name": "Wood Wood", "location": {"address": "Rochstr. 4", "lat": 52.52410123921733, "lng": 13.40767266462649, "labeledLatLngs": [{"label": "display", "lat": 52.52410123921733, "lng": 13.40767266462649}], "distance": 516, "postalCode": "10178", "cc": "DE", "city": "Berlin", "state": "Berlin", "country": "Deutschland", "formattedAddress": ["Rochstr. 4", "10178 Berlin", "Deutschland"]}, "categories": [{"id": "4bf58dd8d48988d103951735", "name": "Clothing Store", "pluralName": "Clothing Stores", "shortName": "Apparel", "icon": {"prefix": "https://ss3.4sqi.net/img/categories_v2/shops/apparel_", "suffix": ".png"}, "primary": true}], "photos": {"count": 0, "groups": []}}, "referralId": "e-0-4bc495ef920eb713d2ec1e2c-98"}, {"reasons": {"count": 0, "items": [{"summary": "This spot is popular", "type": "general", "reasonName": "globalInteractionReason"}]}, "venue": {"id": "4c0fde34ce57c928f7f580d2", "name": "Green Tea Caf\u00e9 MAMECHA", "location": {"address": "Mulackstr. 33", "crossStreet": "R\u00fcckerstr.", "lat": 52.52728395772743, "lng": 13.406304556201015, "labeledLatLngs": [{"label": "display", "lat": 52.52728395772743, "lng": 13.406304556201015}], "distance": 767, "postalCode": "10119", "cc": "DE", "neighborhood": "Mitte", "city": "Berlin", "state": "Berlin", "country": "Deutschland", "formattedAddress": ["Mulackstr. 33 (R\u00fcckerstr.)", "10119 Berlin", "Deutschland"]}, "categories": [{"id": "4bf58dd8d48988d1dc931735", "name": "Tea Room", "pluralName": "Tea Rooms", "shortName": "Tea Room", "icon": {"prefix": "https://ss3.4sqi.net/img/categories_v2/food/tearoom_", "suffix": ".png"}, "primary": true}], "photos": {"count": 0, "groups": []}}, "referralId": "e-0-4c0fde34ce57c928f7f580d2-99"}]