[{"reasons": {"count": 0, "items": [{"summary": "This spot is popular", "type": "general", "reasonName": "globalInteractionReason"}]}, "venue": {"id": "4e32d7941838be8b94cea36c", "name": "REWE", "location": {"address": "Konrad-Wolf-Str. 24", "lat": 52.543783, "lng": 13.4907963, "labeledLatLngs": [{"label": "display", "lat": 52.543783, "lng": 13.4907963}], "distance": 300, "postalCode": "13055", "cc": "DE", "neighborhood": "Alt-Hohensch\u00f6nhausen", "city": "Berlin", "state": "Berlin", "country": "Deutschland", "formattedAddress": ["Konrad-Wolf-Str. 24", "13055 Berlin", "Deutschland"]}, "categories": [{"id": "52f2ab2ebcbc57f1066b8b46", "name": "Supermarket", "pluralName": "Supermarkets", "shortName": "Supermarket", "icon": {"prefix": "https://ss3.4sqi.net/img/categories_v2/shops/food_grocery_", "suffix": ".png"}, "primary": true}], "photos": {"count": 0, "groups": []}, "venuePage": {"id": "567866101"}}, "referralId": "e-0-4e32d7941838be8b94cea36c-0"}, {"reasons": {"count": 0, "items": [{"summary": "This spot is popular", "type": "general", "reasonName": "globalInteractionReason"}]}, "venue": {"id": "4fe9c17ae4b0636892ea32f7", "name": "Wellblechpalast", "location": {"address": "Konrad-Wolf-Str. 39", "crossStreet": "Steffenstr.", "lat": 52.54095651940924, "lng": 13.480924462792457, "labeledLatLngs": [{"label": "display", "lat": 52.54095651940924, "lng": 13.480924462792457}], "distance": 714, "postalCode": "13055", "cc": "DE", "city": "Berlin", "state": "Berlin", "country": "Deutschland", "formattedAddress": ["Konrad-Wolf-Str. 39 (Steffenstr.)", "13055 Berlin", "Deutschland"]}, "categories": [{"id": "56aa371be4b08b9a8d57352c", "name": "Hockey Rink", "pluralName": "Hockey Rinks", "shortName": "Hockey Rink", "icon": {"prefix": "https://ss3.4sqi.net/img/categories_v2/arts_entertainment/stadium_hockey_", "suffix": ".png"}, "primary": true}], "photos": {"count": 0, "groups": []}}, "referralId": "e-0-4fe9c17ae4b0636892ea32f7-1"}, {"reasons": {"count": 0, "items": [{"summary": "This spot is popular", "type": "general", "reasonName": "globalInteractionReason"}]}, "venue": {"id": "4bdae1af2a3a0f47d25cacb6", "name": "Berlin-Hohensch\u00f6nhausen Memorial (Gedenkst\u00e4tte Berlin-Hohensch\u00f6nhausen)", "location": {"address": "Genslerstr. 66", "crossStreet": "Lichtenauer Str.", "lat": 52.54185886644147, "lng": 13.501274585723875, "labeledLatLngs": [{"label": "display", "lat": 52.54185886644147, "lng": 13.501274585723875}], "distance": 668, "postalCode": "13055", "cc": "DE", "neighborhood": "Lichtenberg", "city": "Berlin", "state": "Berlin", "country": "Deutschland", "formattedAddress": ["Genslerstr. 66 (Lichtenauer Str.)", "13055 Berlin", "Deutschland"]}, "categories": [{"id": "5642206c498e4bfca532186c", "name": "Memorial Site", "pluralName": "Memorial Sites", "shortName": "Memorial Site", "icon": {"prefix": "https://ss3.4sqi.net/img/categories_v2/arts_entertainment/historicsite_", "suffix": ".png"}, "primary": true}], "photos": {"count": 0, "groups": []}}, "referralId": "e-0-4bdae1af2a3a0f47d25cacb6-2"}, {"reasons": {"count": 0, "items": [{"summary": "This spot is popular", "type": "general", "reasonName": "globalInteractionReason"}]}, "venue": {"id": "4ca9da9814c3370473ece13b", "name": "Silverado", "location": {"address": "Konrad-Wolf-Stra\u00dfe 28", "lat": 52.543058, "lng": 13.49018, "labeledLatLngs": [{"label": "display", "lat": 52.543058, "lng": 13.49018}], "distance": 233, "postalCode": "13055", "cc": "DE", "city": "Berlin", "state": "Berlin", "country": "Deutschland", "formattedAddress": ["Konrad-Wolf-Stra\u00dfe 28", "13055 Berlin", "Deutschland"]}, "categories": [{"id": "4bf58dd8d48988d1cc941735", "name": "Steakhouse", "pluralName": "Steakhouses", "shortName": "Steakhouse", "icon": {"prefix": "https://ss3.4sqi.net/img/categories_v2/food/steakhouse_", "suffix": ".png"}, "primary": true}], "photos": {"count": 0, "groups": []}}, "referralId": "e-0-4ca9da9814c3370473ece13b-3"}, {"reasons": {"count": 0, "items": [{"summary": "This spot is popular", "type": "general", "reasonName": "globalInteractionReason"}]}, "venue": {"id": "4b49dfc0f964a5202f7526e3", "name": "Bar im Wasserturm", "location": {"address": "Waldowstr. 20", "lat": 52.547801129373255, "lng": 13.488749342067372, "labeledLatLngs": [{"label": "display", "lat": 52.547801129373255, "lng": 13.488749342067372}], "distance": 766, "postalCode": "13053", "cc": "DE", "neighborhood": "Lichtenberg", "city": "Berlin", "state": "Berlin", "country": "Deutschland", "formattedAddress": ["Waldowstr. 20", "13053 Berlin", "Deutschland"]}, "categories": [{"id": "4bf58dd8d48988d116941735", "name": "Bar", "pluralName": "Bars", "shortName": "Bar", "icon": {"prefix": "https://ss3.4sqi.net/img/categories_v2/nightlife/pub_", "suffix": ".png"}, "primary": true}], "photos": {"count": 0, "groups": []}}, "referralId": "e-0-4b49dfc0f964a5202f7526e3-4"}, {"reasons": {"count": 0, "items": [{"summary": "This spot is popular", "type": "general", "reasonName": "globalInteractionReason"}]}, "venue": {"id": "586920b592ca4c7f6f31a1ae", "name": "Kaffee Strudel", "location": {"address": "Konrad-Wolf-Stra\u00dfe 114", "lat": 52.544217628764905, "lng": 13.492901740459827, "labeledLatLngs": [{"label": "display", "lat": 52.544217628764905, "lng": 13.492901740459827}], "distance": 358, "postalCode": "13055", "cc": "DE", "city": "Berlin", "state": "Berlin", "country": "Deutschland", "formattedAddress": ["Konrad-Wolf-Stra\u00dfe 114", "13055 Berlin", "Deutschland"]}, "categories": [{"id": "4bf58dd8d48988d16d941735", "name": "Caf\u00e9", "pluralName": "Caf\u00e9s", "shortName": "Caf\u00e9", "icon": {"prefix": "https://ss3.4sqi.net/img/categories_v2/food/cafe_", "suffix": ".png"}, "primary": true}], "photos": {"count": 0, "groups": []}}, "referralId": "e-0-586920b592ca4c7f6f31a1ae-5"}, {"reasons": {"count": 0, "items": [{"summary": "This spot is popular", "type": "general", "reasonName": "globalInteractionReason"}]}, "venue": {"id": "4adcda81f964a5206e4821e3", "name": "Mies van der Rohe Haus", "location": {"address": "Oberseestr. 60", "lat": 52.54929564688801, "lng": 13.490739092721281, "labeledLatLngs": [{"label": "display", "lat": 52.54929564688801, "lng": 13.490739092721281}], "distance": 911, "postalCode": "13053", "cc": "DE", "city": "Berlin", "state": "Berlin", "country": "Deutschland", "formattedAddress": ["Oberseestr. 60", "13053 Berlin", "Deutschland"]}, "categories": [{"id": "4bf58dd8d48988d18f941735", "name": "Art Museum", "pluralName": "Art Museums", "shortName": "Art Museum", "icon": {"prefix": "https://ss3.4sqi.net/img/categories_v2/arts_entertainment/museum_art_", "suffix": ".png"}, "primary": true}], "photos": {"count": 0, "groups": []}}, "referralId": "e-0-4adcda81f964a5206e4821e3-6"}, {"reasons": {"count": 0, "items": [{"summary": "This spot is popular", "type": "general", "reasonName": "globalInteractionReason"}]}, "venue": {"id": "4e494571d22d12b08be562a6", "name": "Pietschmanns", "location": {"address": "Konrad-Wolf-Str. 113a", "lat": 52.543871807884834, "lng": 13.492391109466553, "labeledLatLngs": [{"label": "display", "lat": 52.543871807884834, "lng": 13.492391109466553}], "distance": 313, "postalCode": "13055", "cc": "DE", "neighborhood": "Alt-Hohensch\u00f6nhausen, Berlin", "city": "Berlin", "state": "Berlin", "country": "Deutschland", "formattedAddress": ["Konrad-Wolf-Str. 113a", "13055 Berlin", "Deutschland"]}, "categories": [{"id": "4bf58dd8d48988d10d941735", "name": "German Restaurant", "pluralName": "German Restaurants", "shortName": "German", "icon": {"prefix": "https://ss3.4sqi.net/img/categories_v2/food/german_", "suffix": ".png"}, "primary": true}], "photos": {"count": 0, "groups": []}}, "referralId": "e-0-4e494571d22d12b08be562a6-7"}, {"reasons": {"count": 0, "items": [{"summary": "This spot is popular", "type": "general", "reasonName": "globalInteractionReason"}]}, "venue": {"id": "51581a46e4b0e5f97803c7b6", "name": "B\u00e4ckerei und Konditorei Blauert", "location": {"address": "Konrad-Wolf-Str. 113", "lat": 52.54376106925172, "lng": 13.491896519752466, "labeledLatLngs": [{"label": "display", "lat": 52.54376106925172, "lng": 13.491896519752466}], "distance": 295, "postalCode": "13055", "cc": "DE", "neighborhood": "Alt-Hohensch\u00f6nhausen", "city": "Berlin", "state": "Berlin", "country": "Deutschland", "formattedAddress": ["Konrad-Wolf-Str. 113", "13055 Berlin", "Deutschland"]}, "categories": [{"id": "4bf58dd8d48988d16a941735", "name": "Bakery", "pluralName": "Bakeries", "shortName": "Bakery", "icon": {"prefix": "https://ss3.4sqi.net/img/categories_v2/food/bakery_", "suffix": ".png"}, "primary": true}], "photos": {"count": 0, "groups": []}}, "referralId": "e-0-51581a46e4b0e5f97803c7b6-8"}, {"reasons": {"count": 0, "items": [{"summary": "This spot is popular", "type": "general", "reasonName": "globalInteractionReason"}]}, "venue": {"id": "4e3d44358877b00cfc446392", "name": "dm-drogerie markt", "location": {"address": "Gro\u00dfe-Leege-Stra\u00dfe 96", "lat": 52.5434960218817, "lng": 13.497987003539038, "labeledLatLngs": [{"label": "display", "lat": 52.5434960218817, "lng": 13.497987003539038}], "distance": 514, "postalCode": "13055", "cc": "DE", "city": "Berlin", "state": "Berlin", "country": "Deutschland", "formattedAddress": ["Gro\u00dfe-Leege-Stra\u00dfe 96", "13055 Berlin", "Deutschland"]}, "categories": [{"id": "5745c2e4498e11e7bccabdbd", "name": "Drugstore", "pluralName": "Drugstores", "shortName": "Drugstore", "icon": {"prefix": "https://ss3.4sqi.net/img/categories_v2/shops/pharmacy_", "suffix": ".png"}, "primary": true}], "photos": {"count": 0, "groups": []}, "venuePage": {"id": "449788455"}}, "referralId": "e-0-4e3d44358877b00cfc446392-9"}, {"reasons": {"count": 0, "items": [{"summary": "This spot is popular", "type": "general", "reasonName": "globalInteractionReason"}]}, "venue": {"id": "4cf3f1d1c9af6dcb331da97f", "name": "Lidl", "location": {"address": "Gro\u00dfe-Leege-Str. 95", "lat": 52.5428706, "lng": 13.4975596, "labeledLatLngs": [{"label": "display", "lat": 52.5428706, "lng": 13.4975596}], "distance": 456, "postalCode": "13055", "cc": "DE", "city": "Berlin", "state": "Berlin", "country": "Deutschland", "formattedAddress": ["Gro\u00dfe-Leege-Str. 95", "13055 Berlin", "Deutschland"]}, "categories": [{"id": "52f2ab2ebcbc57f1066b8b46", "name": "Supermarket", "pluralName": "Supermarkets", "shortName": "Supermarket", "icon": {"prefix": "https://ss3.4sqi.net/img/categories_v2/shops/food_grocery_", "suffix": ".png"}, "primary": true}], "photos": {"count": 0, "groups": []}, "venuePage": {"id": "576018592"}}, "referralId": "e-0-4cf3f1d1c9af6dcb331da97f-10"}, {"reasons": {"count": 0, "items": [{"summary": "This spot is popular", "type": "general", "reasonName": "globalInteractionReason"}]}, "venue": {"id": "4d8f40f45091a1cd129fa101", "name": "Eiscafe Heidi", "location": {"address": "Konrad-Wolf-Str. 111", "lat": 52.54356302905851, "lng": 13.491826346682895, "labeledLatLngs": [{"label": "display", "lat": 52.54356302905851, "lng": 13.491826346682895}], "distance": 273, "postalCode": "13055", "cc": "DE", "city": "Berlin", "state": "Berlin", "country": "Deutschland", "formattedAddress": ["Konrad-Wolf-Str. 111", "13055 Berlin", "Deutschland"]}, "categories": [{"id": "4bf58dd8d48988d16d941735", "name": "Caf\u00e9", "pluralName": "Caf\u00e9s", "shortName": "Caf\u00e9", "icon": {"prefix": "https://ss3.4sqi.net/img/categories_v2/food/cafe_", "suffix": ".png"}, "primary": true}], "photos": {"count": 0, "groups": []}}, "referralId": "e-0-4d8f40f45091a1cd129fa101-11"}, {"reasons": {"count": 0, "items": [{"summary": "This spot is popular", "type": "general", "reasonName": "globalInteractionReason"}]}, "venue": {"id": "536cd42d498e3a45b905c413", "name": "REWE", "location": {"address": "Genslerstr. 34", "crossStreet": "Allee-Center", "lat": 52.53553920747418, "lng": 13.496786944441826, "labeledLatLngs": [{"label": "display", "lat": 52.53553920747418, "lng": 13.496786944441826}], "distance": 717, "postalCode": "13055", "cc": "DE", "city": "Berlin", "state": "Berlin", "country": "Deutschland", "formattedAddress": ["Genslerstr. 34 (Allee-Center)", "13055 Berlin", "Deutschland"]}, "categories": [{"id": "52f2ab2ebcbc57f1066b8b46", "name": "Supermarket", "pluralName": "Supermarkets", "shortName": "Supermarket", "icon": {"prefix": "https://ss3.4sqi.net/img/categories_v2/shops/food_grocery_", "suffix": ".png"}, "primary": true}], "photos": {"count": 0, "groups": []}}, "referralId": "e-0-536cd42d498e3a45b905c413-12"}, {"reasons": {"count": 0, "items": [{"summary": "This spot is popular", "type": "general", "reasonName": "globalInteractionReason"}]}, "venue": {"id": "4f082f82e4b0540ca1d0c269", "name": "Eisschnelllaufhalle", "location": {"address": "Konrad-Wolf-Str. 39", "lat": 52.53984636816958, "lng": 13.482927092394863, "labeledLatLngs": [{"label": "display", "lat": 52.53984636816958, "lng": 13.482927092394863}], "distance": 595, "postalCode": "13055", "cc": "DE", "city": "Berlin", "state": "Berlin", "country": "Deutschland", "formattedAddress": ["Konrad-Wolf-Str. 39", "13055 Berlin", "Deutschland"]}, "categories": [{"id": "4bf58dd8d48988d168941735", "name": "Skating Rink", "pluralName": "Skating Rinks", "shortName": "Skating Rink", "icon": {"prefix": "https://ss3.4sqi.net/img/categories_v2/parks_outdoors/skatingrink_", "suffix": ".png"}, "primary": true}], "photos": {"count": 0, "groups": []}}, "referralId": "e-0-4f082f82e4b0540ca1d0c269-13"}, {"reasons": {"count": 0, "items": [{"summary": "This spot is popular", "type": "general", "reasonName": "globalInteractionReason"}]}, "venue": {"id": "4e0ca73718a89ad0106bfe91", "name": "Rossmann", "location": {"address": "Landsberger Allee 277", "lat": 52.535031854576076, "lng": 13.49630187854959, "labeledLatLngs": [{"label": "display", "lat": 52.535031854576076, "lng": 13.49630187854959}], "distance": 752, "postalCode": "13055", "cc": "DE", "city": "Berlin", "state": "Berlin", "country": "Deutschland", "formattedAddress": ["Landsberger Allee 277", "13055 Berlin", "Deutschland"]}, "categories": [{"id": "5745c2e4498e11e7bccabdbd", "name": "Drugstore", "pluralName": "Drugstores", "shortName": "Drugstore", "icon": {"prefix": "https://ss3.4sqi.net/img/categories_v2/shops/pharmacy_", "suffix": ".png"}, "primary": true}], "photos": {"count": 0, "groups": []}}, "referralId": "e-0-4e0ca73718a89ad0106bfe91-14"}, {"reasons": {"count": 0, "items": [{"summary": "This spot is popular", "type": "general", "reasonName": "globalInteractionReason"}]}, "venue": {"id": "4db3daae6a23c31a030bbebb", "name": "Vino Del Sol", "location": {"address": "Landsberger Allee 219A", "lat": 52.53445350997939, "lng": 13.486038834020434, "labeledLatLngs": [{"label": "display", "lat": 52.53445350997939, "lng": 13.486038834020434}], "distance": 827, "postalCode": "13055", "cc": "DE", "city": "Berlin", "state": "Berlin", "country": "Deutschland", "formattedAddress": ["Landsberger Allee 219A", "13055 Berlin", "Deutschland"]}, "categories": [{"id": "4bf58dd8d48988d1ca941735", "name": "Pizza Place", "pluralName": "Pizza Places", "shortName": "Pizza", "icon": {"prefix": "https://ss3.4sqi.net/img/categories_v2/food/pizza_", "suffix": ".png"}, "primary": true}], "photos": {"count": 0, "groups": []}}, "referralId": "e-0-4db3daae6a23c31a030bbebb-15"}, {"reasons": {"count": 0, "items": [{"summary": "This spot is popular", "type": "general", "reasonName": "globalInteractionReason"}]}, "venue": {"id": "57c70032498ebb16f2f69d11", "name": "A&O Berlin Kolumbus", "location": {"address": "Genslerstr. 18", "lat": 52.53928228862709, "lng": 13.498304619127985, "labeledLatLngs": [{"label": "display", "lat": 52.53928228862709, "lng": 13.498304619127985}], "distance": 505, "postalCode": "13055", "cc": "DE", "city": "Berlin", "state": "Berlin", "country": "Deutschland", "formattedAddress": ["Genslerstr. 18", "13055 Berlin", "Deutschland"]}, "categories": [{"id": "4bf58dd8d48988d1ee931735", "name": "Hostel", "pluralName": "Hostels", "shortName": "Hostel", "icon": {"prefix": "https://ss3.4sqi.net/img/categories_v2/travel/hostel_", "suffix": ".png"}, "primary": true}], "photos": {"count": 0, "groups": []}}, "referralId": "e-0-57c70032498ebb16f2f69d11-16"}, {"reasons": {"count": 0, "items": [{"summary": "This spot is popular", "type": "general", "reasonName": "globalInteractionReason"}]}, "venue": {"id": "500fcfaae4b04a3250da7453", "name": "L\u00f6wenb\u00e4cker", "location": {"address": "Werneuchener Str. 1", "crossStreet": "Konrad-Wolf-Stra\u00dfe", "lat": 52.54208929320602, "lng": 13.490448033877936, "labeledLatLngs": [{"label": "display", "lat": 52.54208929320602, "lng": 13.490448033877936}], "distance": 128, "postalCode": "13055", "cc": "DE", "city": "Berlin", "state": "Berlin", "country": "Deutschland", "formattedAddress": ["Werneuchener Str. 1 (Konrad-Wolf-Stra\u00dfe)", "13055 Berlin", "Deutschland"]}, "categories": [{"id": "4bf58dd8d48988d16a941735", "name": "Bakery", "pluralName": "Bakeries", "shortName": "Bakery", "icon": {"prefix": "https://ss3.4sqi.net/img/categories_v2/food/bakery_", "suffix": ".png"}, "primary": true}], "photos": {"count": 0, "groups": []}}, "referralId": "e-0-500fcfaae4b04a3250da7453-17"}, {"reasons": {"count": 0, "items": [{"summary": "This spot is popular", "type": "general", "reasonName": "globalInteractionReason"}]}, "venue": {"id": "59628b01b399f759bafa281c", "name": "Orankesee Terrassen", "location": {"address": "Orankestr. 41", "lat": 52.547792995277796, "lng": 13.482765762912782, "labeledLatLngs": [{"label": "display", "lat": 52.547792995277796, "lng": 13.482765762912782}], "distance": 948, "postalCode": "13053", "cc": "DE", "neighborhood": "Alt-Hohensch\u00f6nhausen", "city": "Berlin", "state": "Berlin", "country": "Deutschland", "formattedAddress": ["Orankestr. 41", "13053 Berlin", "Deutschland"]}, "categories": [{"id": "4bf58dd8d48988d10e941735", "name": "Greek Restaurant", "pluralName": "Greek Restaurants", "shortName": "Greek", "icon": {"prefix": "https://ss3.4sqi.net/img/categories_v2/food/greek_", "suffix": ".png"}, "primary": true}], "photos": {"count": 0, "groups": []}, "venuePage": {"id": "563096519"}}, "referralId": "e-0-59628b01b399f759bafa281c-18"}, {"reasons": {"count": 0, "items": [{"summary": "This spot is popular", "type": "general", "reasonName": "globalInteractionReason"}]}, "venue": {"id": "5d1b121325359200237b8114", "name": "NP-Markt Berlin - Hohensch\u00f6nhausen", "location": {"address": "Werneuchener Str. 31", "lat": 52.54211400000001, "lng": 13.4908988, "labeledLatLngs": [{"label": "display", "lat": 52.54211400000001, "lng": 13.4908988}], "distance": 117, "postalCode": "13055", "cc": "DE", "city": "Berlin", "state": "Berlin", "country": "Deutschland", "formattedAddress": ["Werneuchener Str. 31", "13055 Berlin", "Deutschland"]}, "categories": [{"id": "52f2ab2ebcbc57f1066b8b46", "name": "Supermarket", "pluralName": "Supermarkets", "shortName": "Supermarket", "icon": {"prefix": "https://ss3.4sqi.net/img/categories_v2/shops/food_grocery_", "suffix": ".png"}, "primary": true}], "photos": {"count": 0, "groups": []}, "venuePage": {"id": "553919495"}}, "referralId": "e-0-5d1b121325359200237b8114-19"}, {"reasons": {"count": 0, "items": [{"summary": "This spot is popular", "type": "general", "reasonName": "globalInteractionReason"}]}, "venue": {"id": "4dd16c6615200a4d187093b3", "name": "H Werneuchener Str./Gro\u00dfe-Leege-Str.", "location": {"address": "Werneuchener Str.", "crossStreet": "Gro\u00dfe-Leege-Str.", "lat": 52.54120268818589, "lng": 13.494307302686758, "labeledLatLngs": [{"label": "display", "lat": 52.54120268818589, "lng": 13.494307302686758}], "distance": 192, "postalCode": "13055", "cc": "DE", "city": "Berlin", "state": "Berlin", "country": "Deutschland", "formattedAddress": ["Werneuchener Str. (Gro\u00dfe-Leege-Str.)", "13055 Berlin", "Deutschland"]}, "categories": [{"id": "52f2ab2ebcbc57f1066b8b4f", "name": "Bus Stop", "pluralName": "Bus Stops", "shortName": "Bus Stop", "icon": {"prefix": "https://ss3.4sqi.net/img/categories_v2/travel/busstation_", "suffix": ".png"}, "primary": true}], "photos": {"count": 0, "groups": []}}, "referralId": "e-0-4dd16c6615200a4d187093b3-20"}, {"reasons": {"count": 0, "items": [{"summary": "This spot is popular", "type": "general", "reasonName": "globalInteractionReason"}]}, "venue": {"id": "4adcda70f964a520e94421e3", "name": "Hotel Kolumbus", "location": {"address": "Genslerstr. 18", "lat": 52.53908352620945, "lng": 13.498179311227906, "labeledLatLngs": [{"label": "display", "lat": 52.53908352620945, "lng": 13.498179311227906}], "distance": 507, "postalCode": "13055", "cc": "DE", "city": "Berlin", "state": "Berlin", "country": "Deutschland", "formattedAddress": ["Genslerstr. 18", "13055 Berlin", "Deutschland"]}, "categories": [{"id": "4bf58dd8d48988d1fa931735", "name": "Hotel", "pluralName": "Hotels", "shortName": "Hotel", "icon": {"prefix": "https://ss3.4sqi.net/img/categories_v2/travel/hotel_", "suffix": ".png"}, "primary": true}], "photos": {"count": 0, "groups": []}}, "referralId": "e-0-4adcda70f964a520e94421e3-21"}, {"reasons": {"count": 0, "items": [{"summary": "This spot is popular", "type": "general", "reasonName": "globalInteractionReason"}]}, "venue": {"id": "50db60f8e4b0a7a671008c4c", "name": "Konrad Grill", "location": {"address": "Konrad-Wolf-Str. 23", "lat": 52.544254021367685, "lng": 13.492578799083315, "labeledLatLngs": [{"label": "display", "lat": 52.544254021367685, "lng": 13.492578799083315}], "distance": 357, "postalCode": "13055", "cc": "DE", "city": "Berlin", "state": "Berlin", "country": "Deutschland", "formattedAddress": ["Konrad-Wolf-Str. 23", "13055 Berlin", "Deutschland"]}, "categories": [{"id": "4bf58dd8d48988d16e941735", "name": "Fast Food Restaurant", "pluralName": "Fast Food Restaurants", "shortName": "Fast Food", "icon": {"prefix": "https://ss3.4sqi.net/img/categories_v2/food/fastfood_", "suffix": ".png"}, "primary": true}], "photos": {"count": 0, "groups": []}}, "referralId": "e-0-50db60f8e4b0a7a671008c4c-22"}, {"reasons": {"count": 0, "items": [{"summary": "This spot is popular", "type": "general", "reasonName": "globalInteractionReason"}]}, "venue": {"id": "4ef904349adf7bbf89faf30a", "name": "H Freienwalder Stra\u00dfe", "location": {"address": "Konrad-Wolf-Str.", "crossStreet": "Freienwalder Str.", "lat": 52.544349029808835, "lng": 13.492904063867448, "labeledLatLngs": [{"label": "display", "lat": 52.544349029808835, "lng": 13.492904063867448}], "distance": 372, "postalCode": "13055", "cc": "DE", "city": "Berlin", "state": "Berlin", "country": "Deutschland", "formattedAddress": ["Konrad-Wolf-Str. (Freienwalder Str.)", "13055 Berlin", "Deutschland"]}, "categories": [{"id": "52f2ab2ebcbc57f1066b8b51", "name": "Tram Station", "pluralName": "Tram Stations", "shortName": "Tram", "icon": {"prefix": "https://ss3.4sqi.net/img/categories_v2/travel/trainstation_", "suffix": ".png"}, "primary": true}], "photos": {"count": 0, "groups": []}}, "referralId": "e-0-4ef904349adf7bbf89faf30a-23"}, {"reasons": {"count": 0, "items": [{"summary": "This spot is popular", "type": "general", "reasonName": "globalInteractionReason"}]}, "venue": {"id": "4f251356e4b0617644feb0ad", "name": "Packstation 162", "location": {"address": "Werneuchener Str. 19", "lat": 52.53960113023752, "lng": 13.497841358184814, "labeledLatLngs": [{"label": "display", "lat": 52.53960113023752, "lng": 13.497841358184814}], "distance": 462, "postalCode": "13055", "cc": "DE", "city": "Berlin", "state": "Berlin", "country": "Deutschland", "formattedAddress": ["Werneuchener Str. 19", "13055 Berlin", "Deutschland"]}, "categories": [{"id": "52f2ab2ebcbc57f1066b8b1f", "name": "Shipping Store", "pluralName": "Shipping Stores", "shortName": "Shipping Store", "icon": {"prefix": "https://ss3.4sqi.net/img/categories_v2/shops/default_", "suffix": ".png"}, "primary": true}], "photos": {"count": 0, "groups": []}}, "referralId": "e-0-4f251356e4b0617644feb0ad-24"}, {"reasons": {"count": 0, "items": [{"summary": "This spot is popular", "type": "general", "reasonName": "globalInteractionReason"}]}, "venue": {"id": "50f98783e4b0c258fbf86d29", "name": "Getr\u00e4nke Hoffmann", "location": {"address": "Gro\u00dfe-Leege-Str. 96", "lat": 52.54374994222635, "lng": 13.498356222854227, "labeledLatLngs": [{"label": "display", "lat": 52.54374994222635, "lng": 13.498356222854227}], "distance": 550, "postalCode": "13055", "cc": "DE", "city": "Berlin", "state": "Berlin", "country": "Deutschland", "formattedAddress": ["Gro\u00dfe-Leege-Str. 96", "13055 Berlin", "Deutschland"]}, "categories": [{"id": "4bf58dd8d48988d186941735", "name": "Liquor Store", "pluralName": "Liquor Stores", "shortName": "Liquor Store", "icon": {"prefix": "https://ss3.4sqi.net/img/categories_v2/shops/food_liquor_", "suffix": ".png"}, "primary": true}], "photos": {"count": 0, "groups": []}}, "referralId": "e-0-50f98783e4b0c258fbf86d29-25"}, {"reasons": {"count": 0, "items": [{"summary": "This spot is popular", "type": "general", "reasonName": "globalInteractionReason"}]}, "venue": {"id": "50a8e9bae4b0bfc916a561d0", "name": "Da Li's", "location": {"address": "Gro\u00dfe-Leege-Stra\u00dfe 97/98", "lat": 52.54407411989623, "lng": 13.498092076972823, "labeledLatLngs": [{"label": "display", "lat": 52.54407411989623, "lng": 13.498092076972823}], "distance": 556, "postalCode": "13055", "cc": "DE", "neighborhood": "Lichtenberg", "city": "Berlin", "state": "Berlin", "country": "Deutschland", "formattedAddress": ["Gro\u00dfe-Leege-Stra\u00dfe 97/98", "13055 Berlin", "Deutschland"]}, "categories": [{"id": "4bf58dd8d48988d14a941735", "name": "Vietnamese Restaurant", "pluralName": "Vietnamese Restaurants", "shortName": "Vietnamese", "icon": {"prefix": "https://ss3.4sqi.net/img/categories_v2/food/vietnamese_", "suffix": ".png"}, "primary": true}], "photos": {"count": 0, "groups": []}}, "referralId": "e-0-50a8e9bae4b0bfc916a561d0-26"}, {"reasons": {"count": 0, "items": [{"summary": "This spot is popular", "type": "general", "reasonName": "globalInteractionReason"}]}, "venue": {"id": "4b38eb1af964a520325225e3", "name": "Burger King", "location": {"address": "Landsberger Allee 277", "crossStreet": "Allee Center", "lat": 52.53458691492524, "lng": 13.496165449751715, "labeledLatLngs": [{"label": "display", "lat": 52.53458691492524, "lng": 13.496165449751715}], "distance": 793, "postalCode": "13055", "cc": "DE", "city": "Berlin", "state": "Berlin", "country": "Deutschland", "formattedAddress": ["Landsberger Allee 277 (Allee Center)", "13055 Berlin", "Deutschland"]}, "categories": [{"id": "4bf58dd8d48988d16e941735", "name": "Fast Food Restaurant", "pluralName": "Fast Food Restaurants", "shortName": "Fast Food", "icon": {"prefix": "https://ss3.4sqi.net/img/categories_v2/food/fastfood_", "suffix": ".png"}, "primary": true}], "photos": {"count": 0, "groups": []}}, "referralId": "e-0-4b38eb1af964a520325225e3-27"}, {"reasons": {"count": 0, "items": [{"summary": "This spot is popular", "type": "general", "reasonName": "globalInteractionReason"}]}, "venue": {"id": "4e1d6a38a809ef911ebb29d0", "name": "Stern Apotheke im Allee-Center", "location": {"lat": 52.53516446990015, "lng": 13.496338445679042, "labeledLatLngs": [{"label": "display", "lat": 52.53516446990015, "lng": 13.496338445679042}], "distance": 739, "cc": "DE", "city": "Berlin", "state": "Berlin", "country": "Deutschland", "formattedAddress": ["Berlin", "Deutschland"]}, "categories": [{"id": "4bf58dd8d48988d10f951735", "name": "Pharmacy", "pluralName": "Pharmacies", "shortName": "Pharmacy", "icon": {"prefix": "https://ss3.4sqi.net/img/categories_v2/shops/pharmacy_", "suffix": ".png"}, "primary": true}], "photos": {"count": 0, "groups": []}}, "referralId": "e-0-4e1d6a38a809ef911ebb29d0-28"}, {"reasons": {"count": 0, "items": [{"summary": "This spot is popular", "type": "general", "reasonName": "globalInteractionReason"}]}, "venue": {"id": "4baf4070f964a520b2f33be3", "name": "Oberseepark", "location": {"address": "Waldowstr.", "crossStreet": "Oberseestr.", "lat": 52.54775449322392, "lng": 13.489108085632322, "labeledLatLngs": [{"label": "display", "lat": 52.54775449322392, "lng": 13.489108085632322}], "distance": 756, "postalCode": "13053", "cc": "DE", "city": "Berlin", "state": "Berlin", "country": "Deutschland", "formattedAddress": ["Waldowstr. (Oberseestr.)", "13053 Berlin", "Deutschland"]}, "categories": [{"id": "4bf58dd8d48988d161941735", "name": "Lake", "pluralName": "Lakes", "shortName": "Lake", "icon": {"prefix": "https://ss3.4sqi.net/img/categories_v2/parks_outdoors/lake_", "suffix": ".png"}, "primary": true}], "photos": {"count": 0, "groups": []}}, "referralId": "e-0-4baf4070f964a520b2f33be3-29"}, {"reasons": {"count": 0, "items": [{"summary": "This spot is popular", "type": "general", "reasonName": "globalInteractionReason"}]}, "venue": {"id": "515811e2e4b0ac344520913f", "name": "H Sandinostra\u00dfe", "location": {"address": "Konrad-Wolf-Str.", "crossStreet": "Sandinostr.", "lat": 52.53849179534253, "lng": 13.48073959350586, "labeledLatLngs": [{"label": "display", "lat": 52.53849179534253, "lng": 13.48073959350586}], "distance": 783, "postalCode": "13055", "cc": "DE", "city": "Berlin", "state": "Berlin", "country": "Deutschland", "formattedAddress": ["Konrad-Wolf-Str. (Sandinostr.)", "13055 Berlin", "Deutschland"]}, "categories": [{"id": "52f2ab2ebcbc57f1066b8b51", "name": "Tram Station", "pluralName": "Tram Stations", "shortName": "Tram", "icon": {"prefix": "https://ss3.4sqi.net/img/categories_v2/travel/trainstation_", "suffix": ".png"}, "primary": true}], "photos": {"count": 0, "groups": []}}, "referralId": "e-0-515811e2e4b0ac344520913f-30"}, {"reasons": {"count": 0, "items": [{"summary": "This spot is popular", "type": "general", "reasonName": "globalInteractionReason"}]}, "venue": {"id": "4d330d4898336dcbb9f129f0", "name": "H Oberseestra\u00dfe", "location": {"address": "Konrad-Wolf-Str.", "crossStreet": "Oberseestr.", "lat": 52.54695243537747, "lng": 13.497967897511817, "labeledLatLngs": [{"label": "display", "lat": 52.54695243537747, "lng": 13.497967897511817}], "distance": 784, "postalCode": "13055", "cc": "DE", "city": "Berlin", "state": "Berlin", "country": "Deutschland", "formattedAddress": ["Konrad-Wolf-Str. (Oberseestr.)", "13055 Berlin", "Deutschland"]}, "categories": [{"id": "52f2ab2ebcbc57f1066b8b51", "name": "Tram Station", "pluralName": "Tram Stations", "shortName": "Tram", "icon": {"prefix": "https://ss3.4sqi.net/img/categories_v2/travel/trainstation_", "suffix": ".png"}, "primary": true}], "photos": {"count": 0, "groups": []}}, "referralId": "e-0-4d330d4898336dcbb9f129f0-31"}, {"reasons": {"count": 0, "items": [{"summary": "This spot is popular", "type": "general", "reasonName": "globalInteractionReason"}]}, "venue": {"id": "57f52981498ec4922f925232", "name": "Sporthalle Gutenberg Oberschule", "location": {"address": "Sandinostra\u00dfe 10", "lat": 52.536379, "lng": 13.482449, "labeledLatLngs": [{"label": "display", "lat": 52.536379, "lng": 13.482449}], "distance": 806, "cc": "DE", "city": "Berlin", "state": "Berlin", "country": "Deutschland", "formattedAddress": ["Sandinostra\u00dfe 10", "Berlin", "Deutschland"]}, "categories": [{"id": "4bf58dd8d48988d176941735", "name": "Gym", "pluralName": "Gyms", "shortName": "Gym", "icon": {"prefix": "https://ss3.4sqi.net/img/categories_v2/building/gym_", "suffix": ".png"}, "primary": true}], "photos": {"count": 0, "groups": []}}, "referralId": "e-0-57f52981498ec4922f925232-32"}, {"reasons": {"count": 0, "items": [{"summary": "This spot is popular", "type": "general", "reasonName": "globalInteractionReason"}]}, "venue": {"id": "4e1f132652b1bdc463e8b983", "name": "H Genslerstra\u00dfe", "location": {"address": "Landsberger Allee", "crossStreet": "Genslerstr.", "lat": 52.53438048630748, "lng": 13.495899438858032, "labeledLatLngs": [{"label": "display", "lat": 52.53438048630748, "lng": 13.495899438858032}], "distance": 807, "postalCode": "13055", "cc": "DE", "city": "Berlin", "state": "Berlin", "country": "Deutschland", "formattedAddress": ["Landsberger Allee (Genslerstr.)", "13055 Berlin", "Deutschland"]}, "categories": [{"id": "52f2ab2ebcbc57f1066b8b51", "name": "Tram Station", "pluralName": "Tram Stations", "shortName": "Tram", "icon": {"prefix": "https://ss3.4sqi.net/img/categories_v2/travel/trainstation_", "suffix": ".png"}, "primary": true}], "photos": {"count": 0, "groups": []}}, "referralId": "e-0-4e1f132652b1bdc463e8b983-33"}, {"reasons": {"count": 0, "items": [{"summary": "This spot is popular", "type": "general", "reasonName": "globalInteractionReason"}]}, "venue": {"id": "4fb50643e4b096440ea97830", "name": "Obersee", "location": {"address": "Waldowstr.", "lat": 52.548650950609165, "lng": 13.489172458648682, "labeledLatLngs": [{"label": "display", "lat": 52.548650950609165, "lng": 13.489172458648682}], "distance": 853, "postalCode": "13053", "cc": "DE", "city": "Berlin", "state": "Berlin", "country": "Deutschland", "formattedAddress": ["Waldowstr.", "13053 Berlin", "Deutschland"]}, "categories": [{"id": "4bf58dd8d48988d161941735", "name": "Lake", "pluralName": "Lakes", "shortName": "Lake", "icon": {"prefix": "https://ss3.4sqi.net/img/categories_v2/parks_outdoors/lake_", "suffix": ".png"}, "primary": true}], "photos": {"count": 0, "groups": []}}, "referralId": "e-0-4fb50643e4b096440ea97830-34"}, {"reasons": {"count": 0, "items": [{"summary": "This spot is popular", "type": "general", "reasonName": "globalInteractionReason"}]}, "venue": {"id": "5a6dc48cdee770696f8a13d7", "name": "Windobona", "location": {"lat": 52.533369, "lng": 13.49385, "labeledLatLngs": [{"label": "display", "lat": 52.533369, "lng": 13.49385}], "distance": 877, "cc": "DE", "city": "Berlin", "state": "Berlin", "country": "Deutschland", "formattedAddress": ["Berlin", "Deutschland"]}, "categories": [{"id": "4f4528bc4b90abdf24c9de85", "name": "Athletics & Sports", "pluralName": "Athletics & Sports", "shortName": "Athletics & Sports", "icon": {"prefix": "https://ss3.4sqi.net/img/categories_v2/shops/sports_outdoors_", "suffix": ".png"}, "primary": true}], "photos": {"count": 0, "groups": []}}, "referralId": "e-0-5a6dc48cdee770696f8a13d7-35"}, {"reasons": {"count": 0, "items": [{"summary": "This spot is popular", "type": "general", "reasonName": "globalInteractionReason"}]}, "venue": {"id": "4bcd88e8b6c49c74f7749591", "name": "Orankeseepark", "location": {"address": "Oberseestr.", "crossStreet": "Orankestr.", "lat": 52.54807417810374, "lng": 13.483164310455322, "labeledLatLngs": [{"label": "display", "lat": 52.54807417810374, "lng": 13.483164310455322}], "distance": 957, "postalCode": "13053", "cc": "DE", "city": "Berlin", "state": "Berlin", "country": "Deutschland", "formattedAddress": ["Oberseestr. (Orankestr.)", "13053 Berlin", "Deutschland"]}, "categories": [{"id": "4bf58dd8d48988d163941735", "name": "Park", "pluralName": "Parks", "shortName": "Park", "icon": {"prefix": "https://ss3.4sqi.net/img/categories_v2/parks_outdoors/park_", "suffix": ".png"}, "primary": true}], "photos": {"count": 0, "groups": []}}, "referralId": "e-0-4bcd88e8b6c49c74f7749591-36"}]