[{"reasons": {"count": 0, "items": [{"summary": "This spot is popular", "type": "general", "reasonName": "globalInteractionReason"}]}, "venue": {"id": "4c334540213c2d7fbaa0365d", "name": "Der Holl\u00e4nder", "location": {"address": "Am Treptower Park 71-74", "lat": 52.49198096604755, "lng": 13.459415955433435, "labeledLatLngs": [{"label": "display", "lat": 52.49198096604755, "lng": 13.459415955433435}], "distance": 229, "postalCode": "12435", "cc": "DE", "city": "Berlin", "state": "Berlin", "country": "Deutschland", "formattedAddress": ["Am Treptower Park 71-74", "12435 Berlin", "Deutschland"]}, "categories": [{"id": "4eb1c0253b7b52c0e1adc2e9", "name": "Garden Center", "pluralName": "Garden Centers", "shortName": "Garden Center", "icon": {"prefix": "https://ss3.4sqi.net/img/categories_v2/parks_outdoors/gardencenter_", "suffix": ".png"}, "primary": true}], "photos": {"count": 0, "groups": []}}, "referralId": "e-0-4c334540213c2d7fbaa0365d-0"}, {"reasons": {"count": 0, "items": [{"summary": "This spot is popular", "type": "general", "reasonName": "globalInteractionReason"}]}, "venue": {"id": "58c70a1fe18e65428b9ef279", "name": "mom's Creation", "location": {"address": "Elsenstr. 27", "crossStreet": "Kiefholzstr.", "lat": 52.48904876640502, "lng": 13.453765345873867, "labeledLatLngs": [{"label": "display", "lat": 52.48904876640502, "lng": 13.453765345873867}], "distance": 466, "postalCode": "12435", "cc": "DE", "neighborhood": "Alt-Treptow", "city": "Berlin", "state": "Berlin", "country": "Deutschland", "formattedAddress": ["Elsenstr. 27 (Kiefholzstr.)", "12435 Berlin", "Deutschland"]}, "categories": [{"id": "4bf58dd8d48988d1d3941735", "name": "Vegetarian / Vegan Restaurant", "pluralName": "Vegetarian / Vegan Restaurants", "shortName": "Vegetarian / Vegan", "icon": {"prefix": "https://ss3.4sqi.net/img/categories_v2/food/vegetarian_", "suffix": ".png"}, "primary": true}], "photos": {"count": 0, "groups": []}}, "referralId": "e-0-58c70a1fe18e65428b9ef279-1"}, {"reasons": {"count": 0, "items": [{"summary": "This spot is popular", "type": "general", "reasonName": "globalInteractionReason"}]}, "venue": {"id": "4b6536b4f964a5202fe92ae3", "name": "Treptower Park", "location": {"address": "Am Treptower Park", "crossStreet": "Puschkinallee", "lat": 52.48868643446976, "lng": 13.470375537872314, "labeledLatLngs": [{"label": "display", "lat": 52.48868643446976, "lng": 13.470375537872314}], "distance": 688, "postalCode": "12435", "cc": "DE", "city": "Berlin", "state": "Berlin", "country": "Deutschland", "formattedAddress": ["Am Treptower Park (Puschkinallee)", "12435 Berlin", "Deutschland"]}, "categories": [{"id": "4bf58dd8d48988d163941735", "name": "Park", "pluralName": "Parks", "shortName": "Park", "icon": {"prefix": "https://ss3.4sqi.net/img/categories_v2/parks_outdoors/park_", "suffix": ".png"}, "primary": true}], "photos": {"count": 0, "groups": []}}, "referralId": "e-0-4b6536b4f964a5202fe92ae3-2"}, {"reasons": {"count": 0, "items": [{"summary": "This spot is popular", "type": "general", "reasonName": "globalInteractionReason"}]}, "venue": {"id": "51c6f175498e16a8c1e01a66", "name": "ELSE", "location": {"address": "An den Treptowers 10", "lat": 52.49520452011272, "lng": 13.462636773349086, "labeledLatLngs": [{"label": "display", "lat": 52.49520452011272, "lng": 13.462636773349086}], "distance": 595, "postalCode": "12435", "cc": "DE", "city": "Berlin", "state": "Berlin", "country": "Deutschland", "formattedAddress": ["An den Treptowers 10", "12435 Berlin", "Deutschland"]}, "categories": [{"id": "4bf58dd8d48988d11f941735", "name": "Nightclub", "pluralName": "Nightclubs", "shortName": "Nightclub", "icon": {"prefix": "https://ss3.4sqi.net/img/categories_v2/nightlife/nightclub_", "suffix": ".png"}, "primary": true}], "photos": {"count": 0, "groups": []}}, "referralId": "e-0-51c6f175498e16a8c1e01a66-3"}, {"reasons": {"count": 0, "items": [{"summary": "This spot is popular", "type": "general", "reasonName": "globalInteractionReason"}]}, "venue": {"id": "4dfce514149599f28fcc4cd3", "name": "Tapas No. 6", "location": {"address": "Beermannstr. 6", "lat": 52.49013271724425, "lng": 13.456731572320841, "labeledLatLngs": [{"label": "display", "lat": 52.49013271724425, "lng": 13.456731572320841}], "distance": 253, "postalCode": "12435", "cc": "DE", "city": "Berlin", "state": "Berlin", "country": "Deutschland", "formattedAddress": ["Beermannstr. 6", "12435 Berlin", "Deutschland"]}, "categories": [{"id": "4bf58dd8d48988d1db931735", "name": "Tapas Restaurant", "pluralName": "Tapas Restaurants", "shortName": "Tapas", "icon": {"prefix": "https://ss3.4sqi.net/img/categories_v2/food/tapas_", "suffix": ".png"}, "primary": true}], "photos": {"count": 0, "groups": []}}, "referralId": "e-0-4dfce514149599f28fcc4cd3-4"}, {"reasons": {"count": 0, "items": [{"summary": "This spot is popular", "type": "general", "reasonName": "globalInteractionReason"}]}, "venue": {"id": "56351b57498e8cb7f4eb273b", "name": "Passenger Coffee", "location": {"address": "Elsenstra\u00dfe 38", "lat": 52.487445322148886, "lng": 13.4524220197121, "labeledLatLngs": [{"label": "display", "lat": 52.487445322148886, "lng": 13.4524220197121}], "distance": 615, "postalCode": "12435", "cc": "DE", "city": "Berlin", "state": "Berlin", "country": "Deutschland", "formattedAddress": ["Elsenstra\u00dfe 38", "12435 Berlin", "Deutschland"]}, "categories": [{"id": "4bf58dd8d48988d16d941735", "name": "Caf\u00e9", "pluralName": "Caf\u00e9s", "shortName": "Caf\u00e9", "icon": {"prefix": "https://ss3.4sqi.net/img/categories_v2/food/cafe_", "suffix": ".png"}, "primary": true}], "photos": {"count": 0, "groups": []}}, "referralId": "e-0-56351b57498e8cb7f4eb273b-5"}, {"reasons": {"count": 0, "items": [{"summary": "This spot is popular", "type": "general", "reasonName": "globalInteractionReason"}]}, "venue": {"id": "4b4f7f91f964a520ff0827e3", "name": "Salon zur wilden Renate", "location": {"address": "Alt-Stralau 70", "crossStreet": "Markgrafendamm", "lat": 52.4973613791362, "lng": 13.46525251865387, "labeledLatLngs": [{"label": "display", "lat": 52.4973613791362, "lng": 13.46525251865387}], "distance": 879, "postalCode": "10245", "cc": "DE", "neighborhood": "Stralauer Allee", "city": "Berlin", "state": "Berlin", "country": "Deutschland", "formattedAddress": ["Alt-Stralau 70 (Markgrafendamm)", "10245 Berlin", "Deutschland"]}, "categories": [{"id": "4bf58dd8d48988d11f941735", "name": "Nightclub", "pluralName": "Nightclubs", "shortName": "Nightclub", "icon": {"prefix": "https://ss3.4sqi.net/img/categories_v2/nightlife/nightclub_", "suffix": ".png"}, "primary": true}], "photos": {"count": 0, "groups": []}}, "referralId": "e-0-4b4f7f91f964a520ff0827e3-6"}, {"reasons": {"count": 0, "items": [{"summary": "This spot is popular", "type": "general", "reasonName": "globalInteractionReason"}]}, "venue": {"id": "55fc8c2a498ef74c223f6c24", "name": "Krass B\u00f6ser Wolf", "location": {"address": "Markgrafendamm 36", "lat": 52.49749365989495, "lng": 13.464763960634274, "labeledLatLngs": [{"label": "display", "lat": 52.49749365989495, "lng": 13.464763960634274}], "distance": 881, "cc": "DE", "city": "Berlin", "state": "Berlin", "country": "Deutschland", "formattedAddress": ["Markgrafendamm 36", "Berlin", "Deutschland"]}, "categories": [{"id": "4bf58dd8d48988d116941735", "name": "Bar", "pluralName": "Bars", "shortName": "Bar", "icon": {"prefix": "https://ss3.4sqi.net/img/categories_v2/nightlife/pub_", "suffix": ".png"}, "primary": true}], "photos": {"count": 0, "groups": []}}, "referralId": "e-0-55fc8c2a498ef74c223f6c24-7"}, {"reasons": {"count": 0, "items": [{"summary": "This spot is popular", "type": "general", "reasonName": "globalInteractionReason"}]}, "venue": {"id": "5b9e4ca8c97f28002c361d00", "name": "Neue Republik Reger", "location": {"address": "Bouch\u00e9str. 79a", "crossStreet": "Karl-Kunger-Str.", "lat": 52.49034578063774, "lng": 13.44900369644165, "labeledLatLngs": [{"label": "display", "lat": 52.49034578063774, "lng": 13.44900369644165}], "distance": 777, "postalCode": "12435", "cc": "DE", "city": "Berlin", "state": "Berlin", "country": "Deutschland", "formattedAddress": ["Bouch\u00e9str. 79a (Karl-Kunger-Str.)", "12435 Berlin", "Deutschland"]}, "categories": [{"id": "4bf58dd8d48988d1d3941735", "name": "Vegetarian / Vegan Restaurant", "pluralName": "Vegetarian / Vegan Restaurants", "shortName": "Vegetarian / Vegan", "icon": {"prefix": "https://ss3.4sqi.net/img/categories_v2/food/vegetarian_", "suffix": ".png"}, "primary": true}], "photos": {"count": 0, "groups": []}}, "referralId": "e-0-5b9e4ca8c97f28002c361d00-8"}, {"reasons": {"count": 0, "items": [{"summary": "This spot is popular", "type": "general", "reasonName": "globalInteractionReason"}]}, "venue": {"id": "4bd41f769854d13a0e1aff4d", "name": "Badeschiff Berlin", "location": {"address": "Eichenstr. 4", "lat": 52.49754985622297, "lng": 13.453697234006507, "labeledLatLngs": [{"label": "display", "lat": 52.49754985622297, "lng": 13.453697234006507}], "distance": 955, "postalCode": "12435", "cc": "DE", "city": "Berlin", "state": "Berlin", "country": "Deutschland", "formattedAddress": ["Eichenstr. 4", "12435 Berlin", "Deutschland"]}, "categories": [{"id": "4bf58dd8d48988d15e941735", "name": "Pool", "pluralName": "Pools", "shortName": "Pool", "icon": {"prefix": "https://ss3.4sqi.net/img/categories_v2/parks_outdoors/pool_", "suffix": ".png"}, "primary": true}], "photos": {"count": 0, "groups": []}}, "referralId": "e-0-4bd41f769854d13a0e1aff4d-9"}, {"reasons": {"count": 0, "items": [{"summary": "This spot is popular", "type": "general", "reasonName": "globalInteractionReason"}]}, "venue": {"id": "4e300060483b93c2f2e49522", "name": "Molecule Man", "location": {"address": "An den Treptowers", "crossStreet": "Stralauer Allee", "lat": 52.497, "lng": 13.459093, "labeledLatLngs": [{"label": "display", "lat": 52.497, "lng": 13.459093}], "distance": 782, "postalCode": "12435", "cc": "DE", "city": "Berlin", "state": "Berlin", "country": "Deutschland", "formattedAddress": ["An den Treptowers (Stralauer Allee)", "12435 Berlin", "Deutschland"]}, "categories": [{"id": "52e81612bcbc57f1066b79ed", "name": "Outdoor Sculpture", "pluralName": "Outdoor Sculptures", "shortName": "Outdoor Sculpture", "icon": {"prefix": "https://ss3.4sqi.net/img/categories_v2/parks_outdoors/sculpture_", "suffix": ".png"}, "primary": true}], "photos": {"count": 0, "groups": []}}, "referralId": "e-0-4e300060483b93c2f2e49522-10"}, {"reasons": {"count": 0, "items": [{"summary": "This spot is popular", "type": "general", "reasonName": "globalInteractionReason"}]}, "venue": {"id": "4fd47ebee4b0bd4328e842b5", "name": "Goldelsen", "location": {"address": "Elsenstr. 30B", "lat": 52.48838421888869, "lng": 13.453120260191566, "labeledLatLngs": [{"label": "display", "lat": 52.48838421888869, "lng": 13.453120260191566}], "distance": 529, "postalCode": "12435", "cc": "DE", "city": "Berlin", "state": "Berlin", "country": "Deutschland", "formattedAddress": ["Elsenstr. 30B", "12435 Berlin", "Deutschland"]}, "categories": [{"id": "4bf58dd8d48988d16d941735", "name": "Caf\u00e9", "pluralName": "Caf\u00e9s", "shortName": "Caf\u00e9", "icon": {"prefix": "https://ss3.4sqi.net/img/categories_v2/food/cafe_", "suffix": ".png"}, "primary": true}], "photos": {"count": 0, "groups": []}}, "referralId": "e-0-4fd47ebee4b0bd4328e842b5-11"}, {"reasons": {"count": 0, "items": [{"summary": "This spot is popular", "type": "general", "reasonName": "globalInteractionReason"}]}, "venue": {"id": "4e0486ffd1649538d96d0821", "name": "Hafenr\u00e4ucherei Treptow \"L\u00f6cknitz\"", "location": {"address": "Hafen Treptow", "lat": 52.49399089608705, "lng": 13.463444709777832, "labeledLatLngs": [{"label": "display", "lat": 52.49399089608705, "lng": 13.463444709777832}], "distance": 485, "postalCode": "12435", "cc": "DE", "city": "Berlin", "state": "Berlin", "country": "Deutschland", "formattedAddress": ["Hafen Treptow", "12435 Berlin", "Deutschland"]}, "categories": [{"id": "4bf58dd8d48988d1ce941735", "name": "Seafood Restaurant", "pluralName": "Seafood Restaurants", "shortName": "Seafood", "icon": {"prefix": "https://ss3.4sqi.net/img/categories_v2/food/seafood_", "suffix": ".png"}, "primary": true}], "photos": {"count": 0, "groups": []}}, "referralId": "e-0-4e0486ffd1649538d96d0821-12"}, {"reasons": {"count": 0, "items": [{"summary": "This spot is popular", "type": "general", "reasonName": "globalInteractionReason"}]}, "venue": {"id": "55aa70ea498efb5179a1b335", "name": "Farina", "location": {"address": "Karl-Kunger-Stra\u00dfe 10", "crossStreet": "Kr\u00fcllsstra\u00dfe", "lat": 52.491661, "lng": 13.446347, "labeledLatLngs": [{"label": "display", "lat": 52.491661, "lng": 13.446347}], "distance": 973, "postalCode": "12435", "cc": "DE", "city": "Berlin", "state": "Berlin", "country": "Deutschland", "formattedAddress": ["Karl-Kunger-Stra\u00dfe 10 (Kr\u00fcllsstra\u00dfe)", "12435 Berlin", "Deutschland"]}, "categories": [{"id": "4bf58dd8d48988d1ca941735", "name": "Pizza Place", "pluralName": "Pizza Places", "shortName": "Pizza", "icon": {"prefix": "https://ss3.4sqi.net/img/categories_v2/food/pizza_", "suffix": ".png"}, "primary": true}], "photos": {"count": 0, "groups": []}}, "referralId": "e-0-55aa70ea498efb5179a1b335-13"}, {"reasons": {"count": 0, "items": [{"summary": "This spot is popular", "type": "general", "reasonName": "globalInteractionReason"}]}, "venue": {"id": "51504781b0edeef4081d47f3", "name": "Our/Berlin", "location": {"address": "Am Flutgraben 2", "lat": 52.49654186459513, "lng": 13.452159809036988, "labeledLatLngs": [{"label": "display", "lat": 52.49654186459513, "lng": 13.452159809036988}], "distance": 918, "postalCode": "12435", "cc": "DE", "city": "Berlin", "state": "Berlin", "country": "Deutschland", "formattedAddress": ["Am Flutgraben 2", "12435 Berlin", "Deutschland"]}, "categories": [{"id": "4e0e22f5a56208c4ea9a85a0", "name": "Distillery", "pluralName": "Distilleries", "shortName": "Distillery", "icon": {"prefix": "https://ss3.4sqi.net/img/categories_v2/food/brewery_", "suffix": ".png"}, "primary": true}], "photos": {"count": 0, "groups": []}}, "referralId": "e-0-51504781b0edeef4081d47f3-14"}, {"reasons": {"count": 0, "items": [{"summary": "This spot is popular", "type": "general", "reasonName": "globalInteractionReason"}]}, "venue": {"id": "5247210511d2727cebf94a92", "name": "Oberhafen-Kantine", "location": {"address": "Am Flutgraben 2", "crossStreet": "Puschkinallee", "lat": 52.49601720131809, "lng": 13.452492177748352, "labeledLatLngs": [{"label": "display", "lat": 52.49601720131809, "lng": 13.452492177748352}], "distance": 858, "postalCode": "12435", "cc": "DE", "city": "Berlin", "state": "Berlin", "country": "Deutschland", "formattedAddress": ["Am Flutgraben 2 (Puschkinallee)", "12435 Berlin", "Deutschland"]}, "categories": [{"id": "4bf58dd8d48988d1d4941735", "name": "Speakeasy", "pluralName": "Speakeasies", "shortName": "Speakeasy", "icon": {"prefix": "https://ss3.4sqi.net/img/categories_v2/nightlife/secretbar_", "suffix": ".png"}, "primary": true}], "photos": {"count": 0, "groups": []}, "venuePage": {"id": "70902597"}}, "referralId": "e-0-5247210511d2727cebf94a92-15"}, {"reasons": {"count": 0, "items": [{"summary": "This spot is popular", "type": "general", "reasonName": "globalInteractionReason"}]}, "venue": {"id": "4db4308bfa8c350240df20c0", "name": "Stralauer Uferweg", "location": {"lat": 52.49335073639228, "lng": 13.470911979675293, "labeledLatLngs": [{"label": "display", "lat": 52.49335073639228, "lng": 13.470911979675293}], "distance": 799, "cc": "DE", "city": "Berlin", "state": "Berlin", "country": "Deutschland", "formattedAddress": ["Berlin", "Deutschland"]}, "categories": [{"id": "4bf58dd8d48988d163941735", "name": "Park", "pluralName": "Parks", "shortName": "Park", "icon": {"prefix": "https://ss3.4sqi.net/img/categories_v2/parks_outdoors/park_", "suffix": ".png"}, "primary": true}], "photos": {"count": 0, "groups": []}}, "referralId": "e-0-4db4308bfa8c350240df20c0-16"}, {"reasons": {"count": 0, "items": [{"summary": "This spot is popular", "type": "general", "reasonName": "globalInteractionReason"}]}, "venue": {"id": "4af20726f964a52048e521e3", "name": "Arena Club", "location": {"address": "Eichenstr. 4", "lat": 52.49736082413317, "lng": 13.45287237326492, "labeledLatLngs": [{"label": "display", "lat": 52.49736082413317, "lng": 13.45287237326492}], "distance": 965, "postalCode": "12623", "cc": "DE", "city": "Berlin", "state": "Berlin", "country": "Deutschland", "formattedAddress": ["Eichenstr. 4", "12623 Berlin", "Deutschland"]}, "categories": [{"id": "4bf58dd8d48988d11f941735", "name": "Nightclub", "pluralName": "Nightclubs", "shortName": "Nightclub", "icon": {"prefix": "https://ss3.4sqi.net/img/categories_v2/nightlife/nightclub_", "suffix": ".png"}, "primary": true}], "photos": {"count": 0, "groups": []}}, "referralId": "e-0-4af20726f964a52048e521e3-17"}, {"reasons": {"count": 0, "items": [{"summary": "This spot is popular", "type": "general", "reasonName": "globalInteractionReason"}]}, "venue": {"id": "587a82452b04f82f1b70eb29", "name": "Festsaal Kreuzberg", "location": {"address": "Am Flutgraben 2", "lat": 52.49685726028535, "lng": 13.451636769168545, "labeledLatLngs": [{"label": "display", "lat": 52.49685726028535, "lng": 13.451636769168545}], "distance": 967, "postalCode": "12435", "cc": "DE", "city": "Berlin", "state": "Berlin", "country": "Deutschland", "formattedAddress": ["Am Flutgraben 2", "12435 Berlin", "Deutschland"]}, "categories": [{"id": "4bf58dd8d48988d1e9931735", "name": "Rock Club", "pluralName": "Rock Clubs", "shortName": "Rock Club", "icon": {"prefix": "https://ss3.4sqi.net/img/categories_v2/arts_entertainment/musicvenue_rockclub_", "suffix": ".png"}, "primary": true}], "photos": {"count": 0, "groups": []}}, "referralId": "e-0-587a82452b04f82f1b70eb29-18"}, {"reasons": {"count": 0, "items": [{"summary": "This spot is popular", "type": "general", "reasonName": "globalInteractionReason"}]}, "venue": {"id": "4bd97e2c0115c9b6bc6d7780", "name": "Il Sogno", "location": {"address": "Karl-Kunger-Str. 18", "lat": 52.49071126332193, "lng": 13.448221244882069, "labeledLatLngs": [{"label": "display", "lat": 52.49071126332193, "lng": 13.448221244882069}], "distance": 833, "postalCode": "12435", "cc": "DE", "city": "Berlin", "state": "Berlin", "country": "Deutschland", "formattedAddress": ["Karl-Kunger-Str. 18", "12435 Berlin", "Deutschland"]}, "categories": [{"id": "4bf58dd8d48988d110941735", "name": "Italian Restaurant", "pluralName": "Italian Restaurants", "shortName": "Italian", "icon": {"prefix": "https://ss3.4sqi.net/img/categories_v2/food/italian_", "suffix": ".png"}, "primary": true}], "photos": {"count": 0, "groups": []}}, "referralId": "e-0-4bd97e2c0115c9b6bc6d7780-19"}, {"reasons": {"count": 0, "items": [{"summary": "This spot is popular", "type": "general", "reasonName": "globalInteractionReason"}]}, "venue": {"id": "537dde04498e08214a8aa3a7", "name": "Zimt & Mehl Manufaktur", "location": {"address": "Elsenstr. 109", "crossStreet": "Beermannstr. 2", "lat": 52.49043405267648, "lng": 13.456163414896569, "labeledLatLngs": [{"label": "display", "lat": 52.49043405267648, "lng": 13.456163414896569}], "distance": 294, "postalCode": "12435", "cc": "DE", "city": "Berlin", "state": "Berlin", "country": "Deutschland", "formattedAddress": ["Elsenstr. 109 (Beermannstr. 2)", "12435 Berlin", "Deutschland"]}, "categories": [{"id": "4bf58dd8d48988d16d941735", "name": "Caf\u00e9", "pluralName": "Caf\u00e9s", "shortName": "Caf\u00e9", "icon": {"prefix": "https://ss3.4sqi.net/img/categories_v2/food/cafe_", "suffix": ".png"}, "primary": true}], "photos": {"count": 0, "groups": []}}, "referralId": "e-0-537dde04498e08214a8aa3a7-20"}, {"reasons": {"count": 0, "items": [{"summary": "This spot is popular", "type": "general", "reasonName": "globalInteractionReason"}]}, "venue": {"id": "4b29376cf964a5201d9b24e3", "name": "real", "location": {"address": "Am Treptower Park 14", "lat": 52.49100375312046, "lng": 13.457566056315581, "labeledLatLngs": [{"label": "display", "lat": 52.49100375312046, "lng": 13.457566056315581}], "distance": 224, "postalCode": "12435", "cc": "DE", "city": "Berlin-Treptow", "state": "Berlin", "country": "Deutschland", "formattedAddress": ["Am Treptower Park 14", "12435 Treptow", "Deutschland"]}, "categories": [{"id": "52f2ab2ebcbc57f1066b8b42", "name": "Big Box Store", "pluralName": "Big Box Stores", "shortName": "Big Box Store", "icon": {"prefix": "https://ss3.4sqi.net/img/categories_v2/shops/default_", "suffix": ".png"}, "primary": true}], "photos": {"count": 0, "groups": []}}, "referralId": "e-0-4b29376cf964a5201d9b24e3-21"}, {"reasons": {"count": 0, "items": [{"summary": "This spot is popular", "type": "general", "reasonName": "globalInteractionReason"}]}, "venue": {"id": "4c0bdc61bbc676b0c0234cd5", "name": "Schlesischer Busch", "location": {"address": "Puschkinallee", "crossStreet": "Am Flutgraben", "lat": 52.49563070760855, "lng": 13.450752817589091, "labeledLatLngs": [{"label": "display", "lat": 52.49563070760855, "lng": 13.450752817589091}], "distance": 906, "postalCode": "12435", "cc": "DE", "city": "Berlin", "state": "Berlin", "country": "Deutschland", "formattedAddress": ["Puschkinallee (Am Flutgraben)", "12435 Berlin", "Deutschland"]}, "categories": [{"id": "4bf58dd8d48988d163941735", "name": "Park", "pluralName": "Parks", "shortName": "Park", "icon": {"prefix": "https://ss3.4sqi.net/img/categories_v2/parks_outdoors/park_", "suffix": ".png"}, "primary": true}], "photos": {"count": 0, "groups": []}}, "referralId": "e-0-4c0bdc61bbc676b0c0234cd5-22"}, {"reasons": {"count": 0, "items": [{"summary": "This spot is popular", "type": "general", "reasonName": "globalInteractionReason"}]}, "venue": {"id": "4ca71715b7106dcbef4164a5", "name": "LPG BioMarkt", "location": {"address": "Bouch\u00e9str. 12", "lat": 52.49217171114259, "lng": 13.451129356252247, "labeledLatLngs": [{"label": "display", "lat": 52.49217171114259, "lng": 13.451129356252247}], "distance": 676, "postalCode": "12435", "cc": "DE", "city": "Berlin", "state": "Berlin", "country": "Deutschland", "formattedAddress": ["Bouch\u00e9str. 12", "12435 Berlin", "Deutschland"]}, "categories": [{"id": "52f2ab2ebcbc57f1066b8b45", "name": "Organic Grocery", "pluralName": "Organic Groceries", "shortName": "Organic Grocery", "icon": {"prefix": "https://ss3.4sqi.net/img/categories_v2/shops/food_grocery_", "suffix": ".png"}, "primary": true}], "photos": {"count": 0, "groups": []}}, "referralId": "e-0-4ca71715b7106dcbef4164a5-23"}, {"reasons": {"count": 0, "items": [{"summary": "This spot is popular", "type": "general", "reasonName": "globalInteractionReason"}]}, "venue": {"id": "5352875c498e25b22ed19dfe", "name": "Bite Club", "location": {"address": "Eichenstr. 4", "lat": 52.49744903538499, "lng": 13.454327516172336, "labeledLatLngs": [{"label": "display", "lat": 52.49744903538499, "lng": 13.454327516172336}], "distance": 925, "postalCode": "12435", "cc": "DE", "neighborhood": "Alt-Treptow", "city": "Berlin", "state": "Berlin", "country": "Deutschland", "formattedAddress": ["Eichenstr. 4", "12435 Berlin", "Deutschland"]}, "categories": [{"id": "53e0feef498e5aac066fd8a9", "name": "Street Food Gathering", "pluralName": "Street Food Gatherings", "shortName": "Street Food Gathering", "icon": {"prefix": "https://ss3.4sqi.net/img/categories_v2/food/streetfood_", "suffix": ".png"}, "primary": true}], "photos": {"count": 0, "groups": []}}, "referralId": "e-0-5352875c498e25b22ed19dfe-24"}, {"reasons": {"count": 0, "items": [{"summary": "This spot is popular", "type": "general", "reasonName": "globalInteractionReason"}]}, "venue": {"id": "4b0a696af964a520da2323e3", "name": "Arena Berlin", "location": {"address": "Eichenstr. 4", "lat": 52.49673433208395, "lng": 13.454089164733885, "labeledLatLngs": [{"label": "display", "lat": 52.49673433208395, "lng": 13.454089164733885}], "distance": 862, "postalCode": "12435", "cc": "DE", "city": "Berlin", "state": "Berlin", "country": "Deutschland", "formattedAddress": ["Eichenstr. 4", "12435 Berlin", "Deutschland"]}, "categories": [{"id": "5032792091d4c4b30a586d5c", "name": "Concert Hall", "pluralName": "Concert Halls", "shortName": "Concert Hall", "icon": {"prefix": "https://ss3.4sqi.net/img/categories_v2/arts_entertainment/musicvenue_", "suffix": ".png"}, "primary": true}], "photos": {"count": 0, "groups": []}}, "referralId": "e-0-4b0a696af964a520da2323e3-25"}, {"reasons": {"count": 0, "items": [{"summary": "This spot is popular", "type": "general", "reasonName": "globalInteractionReason"}]}, "venue": {"id": "4e43903bd4c02cf15f573c20", "name": "Rossmann", "location": {"address": "Am Treptower Park 14", "lat": 52.49085868491015, "lng": 13.456793115366926, "labeledLatLngs": [{"label": "display", "lat": 52.49085868491015, "lng": 13.456793115366926}], "distance": 265, "postalCode": "12435", "cc": "DE", "city": "Berlin", "state": "Berlin", "country": "Deutschland", "formattedAddress": ["Am Treptower Park 14", "12435 Berlin", "Deutschland"]}, "categories": [{"id": "5745c2e4498e11e7bccabdbd", "name": "Drugstore", "pluralName": "Drugstores", "shortName": "Drugstore", "icon": {"prefix": "https://ss3.4sqi.net/img/categories_v2/shops/pharmacy_", "suffix": ".png"}, "primary": true}], "photos": {"count": 0, "groups": []}}, "referralId": "e-0-4e43903bd4c02cf15f573c20-26"}, {"reasons": {"count": 0, "items": [{"summary": "This spot is popular", "type": "general", "reasonName": "globalInteractionReason"}]}, "venue": {"id": "55b100a1498e317b5d888abc", "name": "T.viet", "location": {"address": "Elsenstra\u00dfe 109", "lat": 52.49029022056749, "lng": 13.455825045080122, "labeledLatLngs": [{"label": "display", "lat": 52.49029022056749, "lng": 13.455825045080122}], "distance": 315, "cc": "DE", "city": "Berlin", "state": "Berlin", "country": "Deutschland", "formattedAddress": ["Elsenstra\u00dfe 109", "Berlin", "Deutschland"]}, "categories": [{"id": "4bf58dd8d48988d14a941735", "name": "Vietnamese Restaurant", "pluralName": "Vietnamese Restaurants", "shortName": "Vietnamese", "icon": {"prefix": "https://ss3.4sqi.net/img/categories_v2/food/vietnamese_", "suffix": ".png"}, "primary": true}], "photos": {"count": 0, "groups": []}}, "referralId": "e-0-55b100a1498e317b5d888abc-27"}, {"reasons": {"count": 0, "items": [{"summary": "This spot is popular", "type": "general", "reasonName": "globalInteractionReason"}]}, "venue": {"id": "4d4be949855b548132f3e18f", "name": "Hindi Restaurant", "location": {"address": "Plesser Str. 6", "lat": 52.48910549143887, "lng": 13.451454536241837, "labeledLatLngs": [{"label": "display", "lat": 52.48910549143887, "lng": 13.451454536241837}], "distance": 618, "postalCode": "12435", "cc": "DE", "city": "Berlin", "state": "Berlin", "country": "Deutschland", "formattedAddress": ["Plesser Str. 6", "12435 Berlin", "Deutschland"]}, "categories": [{"id": "4bf58dd8d48988d10f941735", "name": "Indian Restaurant", "pluralName": "Indian Restaurants", "shortName": "Indian", "icon": {"prefix": "https://ss3.4sqi.net/img/categories_v2/food/indian_", "suffix": ".png"}, "primary": true}], "photos": {"count": 0, "groups": []}}, "referralId": "e-0-4d4be949855b548132f3e18f-28"}, {"reasons": {"count": 0, "items": [{"summary": "This spot is popular", "type": "general", "reasonName": "globalInteractionReason"}]}, "venue": {"id": "4b72b652f964a520ee842de3", "name": "Asia Snack", "location": {"address": "Am Treptower Park 14", "crossStreet": "Elsenstr.", "lat": 52.49079116971657, "lng": 13.456958965952934, "labeledLatLngs": [{"label": "display", "lat": 52.49079116971657, "lng": 13.456958965952934}], "distance": 252, "postalCode": "12435", "cc": "DE", "city": "Berlin", "state": "Berlin", "country": "Deutschland", "formattedAddress": ["Am Treptower Park 14 (Elsenstr.)", "12435 Berlin", "Deutschland"]}, "categories": [{"id": "4bf58dd8d48988d1c7941735", "name": "Snack Place", "pluralName": "Snack Places", "shortName": "Snacks", "icon": {"prefix": "https://ss3.4sqi.net/img/categories_v2/food/snacks_", "suffix": ".png"}, "primary": true}], "photos": {"count": 0, "groups": []}}, "referralId": "e-0-4b72b652f964a520ee842de3-29"}, {"reasons": {"count": 0, "items": [{"summary": "This spot is popular", "type": "general", "reasonName": "globalInteractionReason"}]}, "venue": {"id": "4d3729bcd8caa1cd5f4f74d6", "name": "NK", "location": {"address": "Elsenstr. 52 / 2", "lat": 52.4861079232943, "lng": 13.448391801255706, "labeledLatLngs": [{"label": "display", "lat": 52.4861079232943, "lng": 13.448391801255706}], "distance": 926, "postalCode": "12059", "cc": "DE", "city": "Berlin", "state": "Berlin", "country": "Deutschland", "formattedAddress": ["Elsenstr. 52 / 2", "12059 Berlin", "Deutschland"]}, "categories": [{"id": "4bf58dd8d48988d1e5931735", "name": "Music Venue", "pluralName": "Music Venues", "shortName": "Music Venue", "icon": {"prefix": "https://ss3.4sqi.net/img/categories_v2/arts_entertainment/musicvenue_", "suffix": ".png"}, "primary": true}], "photos": {"count": 0, "groups": []}}, "referralId": "e-0-4d3729bcd8caa1cd5f4f74d6-30"}, {"reasons": {"count": 0, "items": [{"summary": "This spot is popular", "type": "general", "reasonName": "globalInteractionReason"}]}, "venue": {"id": "4b7f2453f964a520c31930e3", "name": "Hoppetosse", "location": {"address": "Eichenstr. 4", "lat": 52.49754922208188, "lng": 13.45479058857863, "labeledLatLngs": [{"label": "display", "lat": 52.49754922208188, "lng": 13.45479058857863}], "distance": 921, "postalCode": "12435", "cc": "DE", "city": "Berlin", "state": "Berlin", "country": "Deutschland", "formattedAddress": ["Eichenstr. 4", "12435 Berlin", "Deutschland"]}, "categories": [{"id": "4bf58dd8d48988d11f941735", "name": "Nightclub", "pluralName": "Nightclubs", "shortName": "Nightclub", "icon": {"prefix": "https://ss3.4sqi.net/img/categories_v2/nightlife/nightclub_", "suffix": ".png"}, "primary": true}], "photos": {"count": 0, "groups": []}}, "referralId": "e-0-4b7f2453f964a520c31930e3-31"}, {"reasons": {"count": 0, "items": [{"summary": "This spot is popular", "type": "general", "reasonName": "globalInteractionReason"}]}, "venue": {"id": "4b58ecb9f964a5205e7328e3", "name": "Glashaus der Arena", "location": {"address": "Eichenstr. 4", "lat": 52.497326, "lng": 13.452556, "labeledLatLngs": [{"label": "display", "lat": 52.497326, "lng": 13.452556}], "distance": 973, "postalCode": "12435", "cc": "DE", "neighborhood": "Alt-Treptow", "city": "Berlin", "state": "Berlin", "country": "Deutschland", "formattedAddress": ["Eichenstr. 4", "12435 Berlin", "Deutschland"]}, "categories": [{"id": "4bf58dd8d48988d1e5931735", "name": "Music Venue", "pluralName": "Music Venues", "shortName": "Music Venue", "icon": {"prefix": "https://ss3.4sqi.net/img/categories_v2/arts_entertainment/musicvenue_", "suffix": ".png"}, "primary": true}], "photos": {"count": 0, "groups": []}}, "referralId": "e-0-4b58ecb9f964a5205e7328e3-32"}, {"reasons": {"count": 0, "items": [{"summary": "This spot is popular", "type": "general", "reasonName": "globalInteractionReason"}]}, "venue": {"id": "4f953548e4b03828ff00588f", "name": "Da Gelo", "location": {"address": "Elsenstr. 115", "lat": 52.49214713766075, "lng": 13.45830518892306, "labeledLatLngs": [{"label": "display", "lat": 52.49214713766075, "lng": 13.45830518892306}], "distance": 277, "postalCode": "12435", "cc": "DE", "city": "Berlin", "state": "Berlin", "country": "Deutschland", "formattedAddress": ["Elsenstr. 115", "12435 Berlin", "Deutschland"]}, "categories": [{"id": "4bf58dd8d48988d110941735", "name": "Italian Restaurant", "pluralName": "Italian Restaurants", "shortName": "Italian", "icon": {"prefix": "https://ss3.4sqi.net/img/categories_v2/food/italian_", "suffix": ".png"}, "primary": true}], "photos": {"count": 0, "groups": []}}, "referralId": "e-0-4f953548e4b03828ff00588f-33"}, {"reasons": {"count": 0, "items": [{"summary": "This spot is popular", "type": "general", "reasonName": "globalInteractionReason"}]}, "venue": {"id": "5a10bf2eb1ec131173bdfee6", "name": "OST", "location": {"address": "Alt-stralau 1-2", "lat": 52.49710569277116, "lng": 13.465028820422209, "labeledLatLngs": [{"label": "display", "lat": 52.49710569277116, "lng": 13.465028820422209}], "distance": 846, "postalCode": "10245", "cc": "DE", "city": "Berlin", "state": "Berlin", "country": "Deutschland", "formattedAddress": ["Alt-stralau 1-2", "10245 Berlin", "Deutschland"]}, "categories": [{"id": "4bf58dd8d48988d11f941735", "name": "Nightclub", "pluralName": "Nightclubs", "shortName": "Nightclub", "icon": {"prefix": "https://ss3.4sqi.net/img/categories_v2/nightlife/nightclub_", "suffix": ".png"}, "primary": true}], "photos": {"count": 0, "groups": []}}, "referralId": "e-0-5a10bf2eb1ec131173bdfee6-34"}, {"reasons": {"count": 0, "items": [{"summary": "This spot is popular", "type": "general", "reasonName": "globalInteractionReason"}]}, "venue": {"id": "4cdd907fdf986ea81267d616", "name": "Fitness am Park", "location": {"address": "Elsenstr. 113", "lat": 52.49125661202373, "lng": 13.45736336986708, "labeledLatLngs": [{"label": "display", "lat": 52.49125661202373, "lng": 13.45736336986708}], "distance": 250, "postalCode": "12435", "cc": "DE", "city": "Berlin", "state": "Berlin", "country": "Deutschland", "formattedAddress": ["Elsenstr. 113", "12435 Berlin", "Deutschland"]}, "categories": [{"id": "4bf58dd8d48988d175941735", "name": "Gym / Fitness Center", "pluralName": "Gyms or Fitness Centers", "shortName": "Gym / Fitness", "icon": {"prefix": "https://ss3.4sqi.net/img/categories_v2/building/gym_", "suffix": ".png"}, "primary": true}], "photos": {"count": 0, "groups": []}, "venuePage": {"id": "560614847"}}, "referralId": "e-0-4cdd907fdf986ea81267d616-35"}, {"reasons": {"count": 0, "items": [{"summary": "This spot is popular", "type": "general", "reasonName": "globalInteractionReason"}]}, "venue": {"id": "4bbc61eeed7776b0fc8a3f51", "name": "Lidl", "location": {"address": "Kiefholzstr. 386", "crossStreet": "Puderstr.", "lat": 52.4845035, "lng": 13.4616852, "labeledLatLngs": [{"label": "display", "lat": 52.4845035, "lng": 13.4616852}], "distance": 620, "postalCode": "12435", "cc": "DE", "city": "Berlin", "state": "Berlin", "country": "Deutschland", "formattedAddress": ["Kiefholzstr. 386 (Puderstr.)", "12435 Berlin-Treptow-K\u00f6penick", "Deutschland"]}, "categories": [{"id": "52f2ab2ebcbc57f1066b8b46", "name": "Supermarket", "pluralName": "Supermarkets", "shortName": "Supermarket", "icon": {"prefix": "https://ss3.4sqi.net/img/categories_v2/shops/food_grocery_", "suffix": ".png"}, "primary": true}], "photos": {"count": 0, "groups": []}, "venuePage": {"id": "576270033"}}, "referralId": "e-0-4bbc61eeed7776b0fc8a3f51-36"}, {"reasons": {"count": 0, "items": [{"summary": "This spot is popular", "type": "general", "reasonName": "globalInteractionReason"}]}, "venue": {"id": "512f1ffae4b0aa2e908ed3f8", "name": "BackWerk", "location": {"address": "Elsenstr. 2", "lat": 52.49377589, "lng": 13.45968159, "labeledLatLngs": [{"label": "display", "lat": 52.49377589, "lng": 13.45968159}], "distance": 421, "postalCode": "12435", "cc": "DE", "city": "Berlin", "state": "Berlin", "country": "Deutschland", "formattedAddress": ["Elsenstr. 2", "12435 Berlin", "Deutschland"]}, "categories": [{"id": "4bf58dd8d48988d16a941735", "name": "Bakery", "pluralName": "Bakeries", "shortName": "Bakery", "icon": {"prefix": "https://ss3.4sqi.net/img/categories_v2/food/bakery_", "suffix": ".png"}, "primary": true}], "photos": {"count": 0, "groups": []}, "venuePage": {"id": "561609251"}}, "referralId": "e-0-512f1ffae4b0aa2e908ed3f8-37"}, {"reasons": {"count": 0, "items": [{"summary": "This spot is popular", "type": "general", "reasonName": "globalInteractionReason"}]}, "venue": {"id": "540dcf5d498e0ff1606dc3c5", "name": "Fritzze", "location": {"address": "Karl-Kunger-Str. 57", "lat": 52.49107143555717, "lng": 13.44759761296911, "labeledLatLngs": [{"label": "display", "lat": 52.49107143555717, "lng": 13.44759761296911}], "distance": 879, "cc": "DE", "city": "Berlin", "state": "Berlin", "country": "Deutschland", "formattedAddress": ["Karl-Kunger-Str. 57", "Berlin", "Deutschland"]}, "categories": [{"id": "4bf58dd8d48988d1c9941735", "name": "Ice Cream Shop", "pluralName": "Ice Cream Shops", "shortName": "Ice Cream", "icon": {"prefix": "https://ss3.4sqi.net/img/categories_v2/food/icecream_", "suffix": ".png"}, "primary": true}], "photos": {"count": 0, "groups": []}}, "referralId": "e-0-540dcf5d498e0ff1606dc3c5-38"}, {"reasons": {"count": 0, "items": [{"summary": "This spot is popular", "type": "general", "reasonName": "globalInteractionReason"}]}, "venue": {"id": "4b72b5aff964a520cd842de3", "name": "Saturn", "location": {"address": "Elsenstr. 111-114", "lat": 52.490684, "lng": 13.457361, "labeledLatLngs": [{"label": "display", "lat": 52.490684, "lng": 13.457361}], "distance": 222, "postalCode": "12435", "cc": "DE", "city": "Berlin", "state": "Berlin", "country": "Deutschland", "formattedAddress": ["Elsenstr. 111-114", "12435 Berlin", "Deutschland"]}, "categories": [{"id": "4bf58dd8d48988d122951735", "name": "Electronics Store", "pluralName": "Electronics Stores", "shortName": "Electronics", "icon": {"prefix": "https://ss3.4sqi.net/img/categories_v2/shops/technology_", "suffix": ".png"}, "primary": true}], "photos": {"count": 0, "groups": []}}, "referralId": "e-0-4b72b5aff964a520cd842de3-39"}, {"reasons": {"count": 0, "items": [{"summary": "This spot is popular", "type": "general", "reasonName": "globalInteractionReason"}]}, "venue": {"id": "4b82caa7f964a52040e530e3", "name": "REWE", "location": {"address": "Kiefholzstr. 50", "crossStreet": "Treptower Str.", "lat": 52.48564333790062, "lng": 13.456866188782215, "labeledLatLngs": [{"label": "display", "lat": 52.48564333790062, "lng": 13.456866188782215}], "distance": 545, "postalCode": "12435", "cc": "DE", "city": "Berlin", "state": "Berlin", "country": "Deutschland", "formattedAddress": ["Kiefholzstr. 50 (Treptower Str.)", "12435 Berlin", "Deutschland"]}, "categories": [{"id": "52f2ab2ebcbc57f1066b8b46", "name": "Supermarket", "pluralName": "Supermarkets", "shortName": "Supermarket", "icon": {"prefix": "https://ss3.4sqi.net/img/categories_v2/shops/food_grocery_", "suffix": ".png"}, "primary": true}], "photos": {"count": 0, "groups": []}, "venuePage": {"id": "558607492"}}, "referralId": "e-0-4b82caa7f964a52040e530e3-40"}, {"reasons": {"count": 0, "items": [{"summary": "This spot is popular", "type": "general", "reasonName": "globalInteractionReason"}]}, "venue": {"id": "5152df03e4b02c28c4ff8f88", "name": "Al Colosseo", "location": {"address": "Am Treptower Park 37", "crossStreet": "Puderstr", "lat": 52.486446929286586, "lng": 13.4651979904692, "labeledLatLngs": [{"label": "display", "lat": 52.486446929286586, "lng": 13.4651979904692}], "distance": 511, "postalCode": "12435", "cc": "DE", "city": "Berlin", "state": "Berlin", "country": "Deutschland", "formattedAddress": ["Am Treptower Park 37 (Puderstr)", "12435 Berlin", "Deutschland"]}, "categories": [{"id": "4bf58dd8d48988d110941735", "name": "Italian Restaurant", "pluralName": "Italian Restaurants", "shortName": "Italian", "icon": {"prefix": "https://ss3.4sqi.net/img/categories_v2/food/italian_", "suffix": ".png"}, "primary": true}], "photos": {"count": 0, "groups": []}}, "referralId": "e-0-5152df03e4b02c28c4ff8f88-41"}, {"reasons": {"count": 0, "items": [{"summary": "This spot is popular", "type": "general", "reasonName": "globalInteractionReason"}]}, "venue": {"id": "591b20e4bd40092ec9820785", "name": "Ofenrausch", "location": {"address": "Bouchestr 15", "lat": 52.491191, "lng": 13.449673, "labeledLatLngs": [{"label": "display", "lat": 52.491191, "lng": 13.449673}], "distance": 742, "cc": "DE", "city": "Berlin", "state": "Berlin", "country": "Deutschland", "formattedAddress": ["Bouchestr 15", "Berlin", "Deutschland"]}, "categories": [{"id": "52e81612bcbc57f1066b79f1", "name": "Bistro", "pluralName": "Bistros", "shortName": "Bistro", "icon": {"prefix": "https://ss3.4sqi.net/img/categories_v2/food/default_", "suffix": ".png"}, "primary": true}], "photos": {"count": 0, "groups": []}}, "referralId": "e-0-591b20e4bd40092ec9820785-42"}, {"reasons": {"count": 0, "items": [{"summary": "This spot is popular", "type": "general", "reasonName": "globalInteractionReason"}]}, "venue": {"id": "518b635e498eee9194015820", "name": "Caf\u00e9 B\u00e4ckerei Sesam", "location": {"address": "Puschkinallee 14 a", "lat": 52.492883721791095, "lng": 13.460402277154218, "labeledLatLngs": [{"label": "display", "lat": 52.492883721791095, "lng": 13.460402277154218}], "distance": 318, "postalCode": "12435", "cc": "DE", "city": "Berlin", "state": "Berlin", "country": "Deutschland", "formattedAddress": ["Puschkinallee 14 a", "12435 Berlin", "Deutschland"]}, "categories": [{"id": "4bf58dd8d48988d16a941735", "name": "Bakery", "pluralName": "Bakeries", "shortName": "Bakery", "icon": {"prefix": "https://ss3.4sqi.net/img/categories_v2/food/bakery_", "suffix": ".png"}, "primary": true}], "photos": {"count": 0, "groups": []}}, "referralId": "e-0-518b635e498eee9194015820-43"}, {"reasons": {"count": 0, "items": [{"summary": "This spot is popular", "type": "general", "reasonName": "globalInteractionReason"}]}, "venue": {"id": "4bb379c72397b7135d2538b3", "name": "Caf\u00e9 Grenzenlos", "location": {"address": "Plesser Str. 1", "crossStreet": "Kiefholzstr.", "lat": 52.48897388474576, "lng": 13.453574180603027, "labeledLatLngs": [{"label": "display", "lat": 52.48897388474576, "lng": 13.453574180603027}], "distance": 481, "postalCode": "12435", "cc": "DE", "city": "Berlin", "state": "Berlin", "country": "Deutschland", "formattedAddress": ["Plesser Str. 1 (Kiefholzstr.)", "12435 Berlin", "Deutschland"]}, "categories": [{"id": "4bf58dd8d48988d16d941735", "name": "Caf\u00e9", "pluralName": "Caf\u00e9s", "shortName": "Caf\u00e9", "icon": {"prefix": "https://ss3.4sqi.net/img/categories_v2/food/cafe_", "suffix": ".png"}, "primary": true}], "photos": {"count": 0, "groups": []}}, "referralId": "e-0-4bb379c72397b7135d2538b3-44"}, {"reasons": {"count": 0, "items": [{"summary": "This spot is popular", "type": "general", "reasonName": "globalInteractionReason"}]}, "venue": {"id": "4f8419aae4b072142deadb69", "name": "Inos Griechische Feinkost", "location": {"address": "Am Treptower Park 14", "crossStreet": "Park Center Treptow", "lat": 52.491253875212635, "lng": 13.457462299264309, "labeledLatLngs": [{"label": "display", "lat": 52.491253875212635, "lng": 13.457462299264309}], "distance": 245, "postalCode": "12435", "cc": "DE", "neighborhood": "Alt-Treptow", "city": "Berlin", "state": "Berlin", "country": "Deutschland", "formattedAddress": ["Am Treptower Park 14 (Park Center Treptow)", "12435 Berlin", "Deutschland"]}, "categories": [{"id": "4bf58dd8d48988d146941735", "name": "Deli / Bodega", "pluralName": "Delis / Bodegas", "shortName": "Deli / Bodega", "icon": {"prefix": "https://ss3.4sqi.net/img/categories_v2/food/deli_", "suffix": ".png"}, "primary": true}], "photos": {"count": 0, "groups": []}, "venuePage": {"id": "144505987"}}, "referralId": "e-0-4f8419aae4b072142deadb69-45"}, {"reasons": {"count": 0, "items": [{"summary": "This spot is popular", "type": "general", "reasonName": "globalInteractionReason"}]}, "venue": {"id": "4f551f6ae4b0ce972e900713", "name": "H Beermannstra\u00dfe", "location": {"address": "Elsenstr.", "crossStreet": "Beermannstr.", "lat": 52.49084226574793, "lng": 13.456857204437256, "labeledLatLngs": [{"label": "display", "lat": 52.49084226574793, "lng": 13.456857204437256}], "distance": 260, "postalCode": "12435", "cc": "DE", "city": "Berlin", "state": "Berlin", "country": "Deutschland", "formattedAddress": ["Elsenstr. (Beermannstr.)", "12435 Berlin", "Deutschland"]}, "categories": [{"id": "52f2ab2ebcbc57f1066b8b4f", "name": "Bus Stop", "pluralName": "Bus Stops", "shortName": "Bus Stop", "icon": {"prefix": "https://ss3.4sqi.net/img/categories_v2/travel/busstation_", "suffix": ".png"}, "primary": true}], "photos": {"count": 0, "groups": []}}, "referralId": "e-0-4f551f6ae4b0ce972e900713-46"}, {"reasons": {"count": 0, "items": [{"summary": "This spot is popular", "type": "general", "reasonName": "globalInteractionReason"}]}, "venue": {"id": "50cf6011e4b0461765aff53e", "name": "NANU-NANA", "location": {"lat": 52.49160778621861, "lng": 13.456801041040375, "labeledLatLngs": [{"label": "display", "lat": 52.49160778621861, "lng": 13.456801041040375}], "distance": 304, "cc": "DE", "city": "Berlin", "state": "Berlin", "country": "Deutschland", "formattedAddress": ["Berlin", "Deutschland"]}, "categories": [{"id": "4bf58dd8d48988d128951735", "name": "Gift Shop", "pluralName": "Gift Shops", "shortName": "Gift Shop", "icon": {"prefix": "https://ss3.4sqi.net/img/categories_v2/shops/giftshop_", "suffix": ".png"}, "primary": true}], "photos": {"count": 0, "groups": []}}, "referralId": "e-0-50cf6011e4b0461765aff53e-47"}, {"reasons": {"count": 0, "items": [{"summary": "This spot is popular", "type": "general", "reasonName": "globalInteractionReason"}]}, "venue": {"id": "51a72605498e56842bd569c4", "name": "Asia Wok am Bahnhof", "location": {"lat": 52.49298095703125, "lng": 13.46031665802002, "labeledLatLngs": [{"label": "display", "lat": 52.49298095703125, "lng": 13.46031665802002}], "distance": 329, "postalCode": "12435", "cc": "DE", "city": "Berlin", "state": "Berlin", "country": "Deutschland", "formattedAddress": ["12435 Berlin", "Deutschland"]}, "categories": [{"id": "4bf58dd8d48988d142941735", "name": "Asian Restaurant", "pluralName": "Asian Restaurants", "shortName": "Asian", "icon": {"prefix": "https://ss3.4sqi.net/img/categories_v2/food/asian_", "suffix": ".png"}, "primary": true}], "photos": {"count": 0, "groups": []}}, "referralId": "e-0-51a72605498e56842bd569c4-48"}, {"reasons": {"count": 0, "items": [{"summary": "This spot is popular", "type": "general", "reasonName": "globalInteractionReason"}]}, "venue": {"id": "4cdeb522f8cdb1f7b7c58c12", "name": "H Elsenstra\u00dfe / S Treptower Park", "location": {"address": "Puschkinallee", "crossStreet": "Elsenstr.", "lat": 52.4930511475017, "lng": 13.458670198671816, "labeledLatLngs": [{"label": "display", "lat": 52.4930511475017, "lng": 13.458670198671816}], "distance": 358, "postalCode": "12435", "cc": "DE", "city": "Berlin", "state": "Berlin", "country": "Deutschland", "formattedAddress": ["Puschkinallee (Elsenstr.)", "12435 Berlin", "Deutschland"]}, "categories": [{"id": "52f2ab2ebcbc57f1066b8b4f", "name": "Bus Stop", "pluralName": "Bus Stops", "shortName": "Bus Stop", "icon": {"prefix": "https://ss3.4sqi.net/img/categories_v2/travel/busstation_", "suffix": ".png"}, "primary": true}], "photos": {"count": 0, "groups": []}}, "referralId": "e-0-4cdeb522f8cdb1f7b7c58c12-49"}, {"reasons": {"count": 0, "items": [{"summary": "This spot is popular", "type": "general", "reasonName": "globalInteractionReason"}]}, "venue": {"id": "4d6ceec7125eb60cb8a02d4e", "name": "Desha Lokanta", "location": {"address": "Elsenstr. 26", "lat": 52.48906064681687, "lng": 13.453980707680339, "labeledLatLngs": [{"label": "display", "lat": 52.48906064681687, "lng": 13.453980707680339}], "distance": 452, "postalCode": "12435", "cc": "DE", "neighborhood": "Alt-Treptow", "city": "Berlin", "state": "Berlin", "country": "Deutschland", "formattedAddress": ["Elsenstr. 26", "12435 Berlin", "Deutschland"]}, "categories": [{"id": "4bf58dd8d48988d110941735", "name": "Italian Restaurant", "pluralName": "Italian Restaurants", "shortName": "Italian", "icon": {"prefix": "https://ss3.4sqi.net/img/categories_v2/food/italian_", "suffix": ".png"}, "primary": true}], "photos": {"count": 0, "groups": []}}, "referralId": "e-0-4d6ceec7125eb60cb8a02d4e-50"}, {"reasons": {"count": 0, "items": [{"summary": "This spot is popular", "type": "general", "reasonName": "globalInteractionReason"}]}, "venue": {"id": "4e660e0cd164ddd5e7469f86", "name": "NETTO", "location": {"address": "Kiefholzstr. 425", "lat": 52.49061052194738, "lng": 13.45207487096035, "labeledLatLngs": [{"label": "display", "lat": 52.49061052194738, "lng": 13.45207487096035}], "distance": 572, "postalCode": "12435", "cc": "DE", "city": "Berlin", "state": "Berlin", "country": "Deutschland", "formattedAddress": ["Kiefholzstr. 425", "12435 Berlin", "Deutschland"]}, "categories": [{"id": "52f2ab2ebcbc57f1066b8b46", "name": "Supermarket", "pluralName": "Supermarkets", "shortName": "Supermarket", "icon": {"prefix": "https://ss3.4sqi.net/img/categories_v2/shops/food_grocery_", "suffix": ".png"}, "primary": true}], "photos": {"count": 0, "groups": []}}, "referralId": "e-0-4e660e0cd164ddd5e7469f86-51"}, {"reasons": {"count": 0, "items": [{"summary": "This spot is popular", "type": "general", "reasonName": "globalInteractionReason"}]}, "venue": {"id": "4dc68c65d164eb9ca00a5df2", "name": "Plesser B\u00e4ckerei", "location": {"address": "Plesser Str. 9", "lat": 52.48890202235289, "lng": 13.452136516571045, "labeledLatLngs": [{"label": "display", "lat": 52.48890202235289, "lng": 13.452136516571045}], "distance": 577, "postalCode": "12435", "cc": "DE", "city": "Berlin", "state": "Berlin", "country": "Deutschland", "formattedAddress": ["Plesser Str. 9", "12435 Berlin", "Deutschland"]}, "categories": [{"id": "4bf58dd8d48988d16a941735", "name": "Bakery", "pluralName": "Bakeries", "shortName": "Bakery", "icon": {"prefix": "https://ss3.4sqi.net/img/categories_v2/food/bakery_", "suffix": ".png"}, "primary": true}], "photos": {"count": 0, "groups": []}}, "referralId": "e-0-4dc68c65d164eb9ca00a5df2-52"}, {"reasons": {"count": 0, "items": [{"summary": "This spot is popular", "type": "general", "reasonName": "globalInteractionReason"}]}, "venue": {"id": "520109d8498e60bee64a8b8f", "name": "Endorphina Backkunst", "location": {"address": "Elsenstr. 52", "crossStreet": "2. Hinterhof", "lat": 52.486027123664265, "lng": 13.44862265015339, "labeledLatLngs": [{"label": "display", "lat": 52.486027123664265, "lng": 13.44862265015339}], "distance": 917, "postalCode": "12059", "cc": "DE", "city": "Berlin", "state": "Berlin", "country": "Deutschland", "formattedAddress": ["Elsenstr. 52 (2. Hinterhof)", "12059 Berlin", "Deutschland"]}, "categories": [{"id": "4bf58dd8d48988d16d941735", "name": "Caf\u00e9", "pluralName": "Caf\u00e9s", "shortName": "Caf\u00e9", "icon": {"prefix": "https://ss3.4sqi.net/img/categories_v2/food/cafe_", "suffix": ".png"}, "primary": true}], "photos": {"count": 0, "groups": []}}, "referralId": "e-0-520109d8498e60bee64a8b8f-53"}, {"reasons": {"count": 0, "items": [{"summary": "This spot is popular", "type": "general", "reasonName": "globalInteractionReason"}]}, "venue": {"id": "4bf952be5317a593950a017f", "name": "Sowjetisches Ehrenmal im Treptower Park", "location": {"address": "Puschkinallee", "lat": 52.48746762189992, "lng": 13.469110386871044, "labeledLatLngs": [{"label": "display", "lat": 52.48746762189992, "lng": 13.469110386871044}], "distance": 651, "postalCode": "12435", "cc": "DE", "city": "Berlin", "state": "Berlin", "country": "Deutschland", "formattedAddress": ["Puschkinallee", "12435 Berlin", "Deutschland"]}, "categories": [{"id": "5642206c498e4bfca532186c", "name": "Memorial Site", "pluralName": "Memorial Sites", "shortName": "Memorial Site", "icon": {"prefix": "https://ss3.4sqi.net/img/categories_v2/arts_entertainment/historicsite_", "suffix": ".png"}, "primary": true}], "photos": {"count": 0, "groups": []}}, "referralId": "e-0-4bf952be5317a593950a017f-54"}, {"reasons": {"count": 0, "items": [{"summary": "This spot is popular", "type": "general", "reasonName": "globalInteractionReason"}]}, "venue": {"id": "593ece748496ca7adade2ffa", "name": "Wildenbruchstrasse", "location": {"address": "Wildenbruchstrasse 52", "lat": 52.48913590126646, "lng": 13.450183868408201, "labeledLatLngs": [{"label": "display", "lat": 52.48913590126646, "lng": 13.450183868408201}], "distance": 703, "postalCode": "12435", "cc": "DE", "city": "Berlin", "state": "Berlin", "country": "Deutschland", "formattedAddress": ["Wildenbruchstrasse 52", "12435 Berlin", "Deutschland"]}, "categories": [{"id": "4bf58dd8d48988d10b951735", "name": "Video Game Store", "pluralName": "Video Game Stores", "shortName": "Video Games", "icon": {"prefix": "https://ss3.4sqi.net/img/categories_v2/shops/videogames_", "suffix": ".png"}, "primary": true}], "photos": {"count": 0, "groups": []}}, "referralId": "e-0-593ece748496ca7adade2ffa-55"}, {"reasons": {"count": 0, "items": [{"summary": "This spot is popular", "type": "general", "reasonName": "globalInteractionReason"}]}, "venue": {"id": "4f2243ece4b00087401a0840", "name": "H Heidelberger Stra\u00dfe", "location": {"address": "Wildenbruchstr.", "crossStreet": "Heidelberger Str.", "lat": 52.488712566390674, "lng": 13.449797630310059, "labeledLatLngs": [{"label": "display", "lat": 52.488712566390674, "lng": 13.449797630310059}], "distance": 737, "postalCode": "12435", "cc": "DE", "city": "Berlin", "state": "Berlin", "country": "Deutschland", "formattedAddress": ["Wildenbruchstr. (Heidelberger Str.)", "12435 Berlin", "Deutschland"]}, "categories": [{"id": "52f2ab2ebcbc57f1066b8b4f", "name": "Bus Stop", "pluralName": "Bus Stops", "shortName": "Bus Stop", "icon": {"prefix": "https://ss3.4sqi.net/img/categories_v2/travel/busstation_", "suffix": ".png"}, "primary": true}], "photos": {"count": 0, "groups": []}}, "referralId": "e-0-4f2243ece4b00087401a0840-56"}, {"reasons": {"count": 0, "items": [{"summary": "This spot is popular", "type": "general", "reasonName": "globalInteractionReason"}]}, "venue": {"id": "4d9c5bcf8efaa143715c4ab7", "name": "Pizzeria Latino", "location": {"address": "Bouch\u00e9str. 18", "lat": 52.49074789404095, "lng": 13.44938838994779, "labeledLatLngs": [{"label": "display", "lat": 52.49074789404095, "lng": 13.44938838994779}], "distance": 754, "postalCode": "12435", "cc": "DE", "city": "Berlin", "state": "Berlin", "country": "Deutschland", "formattedAddress": ["Bouch\u00e9str. 18", "12435 Berlin", "Deutschland"]}, "categories": [{"id": "4bf58dd8d48988d110941735", "name": "Italian Restaurant", "pluralName": "Italian Restaurants", "shortName": "Italian", "icon": {"prefix": "https://ss3.4sqi.net/img/categories_v2/food/italian_", "suffix": ".png"}, "primary": true}], "photos": {"count": 0, "groups": []}}, "referralId": "e-0-4d9c5bcf8efaa143715c4ab7-57"}, {"reasons": {"count": 0, "items": [{"summary": "This spot is popular", "type": "general", "reasonName": "globalInteractionReason"}]}, "venue": {"id": "5d2f0f5c72ce90000873f898", "name": "Netto Filiale", "location": {"address": "Wildenbruchstr. 55", "lat": 52.48844133, "lng": 13.44890528, "labeledLatLngs": [{"label": "display", "lat": 52.48844133, "lng": 13.44890528}], "distance": 802, "postalCode": "12435", "cc": "DE", "city": "Berlin", "state": "Berlin", "country": "Deutschland", "formattedAddress": ["Wildenbruchstr. 55", "12435 Berlin", "Deutschland"]}, "categories": [{"id": "52f2ab2ebcbc57f1066b8b46", "name": "Supermarket", "pluralName": "Supermarkets", "shortName": "Supermarket", "icon": {"prefix": "https://ss3.4sqi.net/img/categories_v2/shops/food_grocery_", "suffix": ".png"}, "primary": true}], "photos": {"count": 0, "groups": []}, "venuePage": {"id": "551732652"}}, "referralId": "e-0-5d2f0f5c72ce90000873f898-58"}, {"reasons": {"count": 0, "items": [{"summary": "This spot is popular", "type": "general", "reasonName": "globalInteractionReason"}]}, "venue": {"id": "4dff518b1fc74b5cf81c293e", "name": "B\u00e4ckerei Kr\u00fclls", "location": {"address": "Kr\u00fcllsstr. 18", "lat": 52.4916081069307, "lng": 13.44676056207348, "labeledLatLngs": [{"label": "display", "lat": 52.4916081069307, "lng": 13.44676056207348}], "distance": 945, "postalCode": "12435", "cc": "DE", "city": "Berlin", "state": "Berlin", "country": "Deutschland", "formattedAddress": ["Kr\u00fcllsstr. 18", "12435 Berlin", "Deutschland"]}, "categories": [{"id": "4bf58dd8d48988d16a941735", "name": "Bakery", "pluralName": "Bakeries", "shortName": "Bakery", "icon": {"prefix": "https://ss3.4sqi.net/img/categories_v2/food/bakery_", "suffix": ".png"}, "primary": true}], "photos": {"count": 0, "groups": []}}, "referralId": "e-0-4dff518b1fc74b5cf81c293e-59"}, {"reasons": {"count": 0, "items": [{"summary": "This spot is popular", "type": "general", "reasonName": "globalInteractionReason"}]}, "venue": {"id": "4bb22851f964a52071be3ce3", "name": "Karpfenteich", "location": {"address": "Am Treptower Park", "crossStreet": "Bulgarische Str.", "lat": 52.48454796595158, "lng": 13.471558483076095, "labeledLatLngs": [{"label": "display", "lat": 52.48454796595158, "lng": 13.471558483076095}], "distance": 968, "cc": "DE", "city": "Berlin", "state": "Berlin", "country": "Deutschland", "formattedAddress": ["Am Treptower Park (Bulgarische Str.)", "Berlin", "Deutschland"]}, "categories": [{"id": "4bf58dd8d48988d161941735", "name": "Lake", "pluralName": "Lakes", "shortName": "Lake", "icon": {"prefix": "https://ss3.4sqi.net/img/categories_v2/parks_outdoors/lake_", "suffix": ".png"}, "primary": true}], "photos": {"count": 0, "groups": []}}, "referralId": "e-0-4bb22851f964a52071be3ce3-60"}, {"reasons": {"count": 0, "items": [{"summary": "This spot is popular", "type": "general", "reasonName": "globalInteractionReason"}]}, "venue": {"id": "4eba4c619911cd1426b46287", "name": "Caroline-T\u00fcbbecke-Ufer", "location": {"lat": 52.492493529653, "lng": 13.474481049861925, "labeledLatLngs": [{"label": "display", "lat": 52.492493529653, "lng": 13.474481049861925}], "distance": 989, "cc": "DE", "city": "Berlin", "state": "Berlin", "country": "Deutschland", "formattedAddress": ["Berlin", "Deutschland"]}, "categories": [{"id": "4eb1d4dd4b900d56c88a45fd", "name": "River", "pluralName": "Rivers", "shortName": "River", "icon": {"prefix": "https://ss3.4sqi.net/img/categories_v2/parks_outdoors/river_", "suffix": ".png"}, "primary": true}], "photos": {"count": 0, "groups": []}}, "referralId": "e-0-4eba4c619911cd1426b46287-61"}]