[{"reasons": {"count": 0, "items": [{"summary": "This spot is popular", "type": "general", "reasonName": "globalInteractionReason"}]}, "venue": {"id": "4cc466cd1e596dcb7e3ad167", "name": "Arjun", "location": {"address": "Konrad-Wolf-Str. 145", "lat": 52.54830899865499, "lng": 13.500725993894742, "labeledLatLngs": [{"label": "display", "lat": 52.54830899865499, "lng": 13.500725993894742}], "distance": 743, "postalCode": "13055", "cc": "DE", "city": "Berlin", "state": "Berlin", "country": "Deutschland", "formattedAddress": ["Konrad-Wolf-Str. 145", "13055 Berlin", "Deutschland"]}, "categories": [{"id": "4bf58dd8d48988d10f941735", "name": "Indian Restaurant", "pluralName": "Indian Restaurants", "shortName": "Indian", "icon": {"prefix": "https://ss3.4sqi.net/img/categories_v2/food/indian_", "suffix": ".png"}, "primary": true}], "photos": {"count": 0, "groups": []}}, "referralId": "e-0-4cc466cd1e596dcb7e3ad167-0"}, {"reasons": {"count": 0, "items": [{"summary": "This spot is popular", "type": "general", "reasonName": "globalInteractionReason"}]}, "venue": {"id": "4fcf61173ac6d9ec99037318", "name": "Lidl", "location": {"address": "Gehrenseestra\u00dfe 11", "lat": 52.55012862797649, "lng": 13.514535427093506, "labeledLatLngs": [{"label": "display", "lat": 52.55012862797649, "lng": 13.514535427093506}], "distance": 262, "postalCode": "13053", "cc": "DE", "city": "Berlin", "state": "Berlin", "country": "Deutschland", "formattedAddress": ["Gehrenseestra\u00dfe 11", "13053 Berlin", "Deutschland"]}, "categories": [{"id": "52f2ab2ebcbc57f1066b8b46", "name": "Supermarket", "pluralName": "Supermarkets", "shortName": "Supermarket", "icon": {"prefix": "https://ss3.4sqi.net/img/categories_v2/shops/food_grocery_", "suffix": ".png"}, "primary": true}], "photos": {"count": 0, "groups": []}, "venuePage": {"id": "578267668"}}, "referralId": "e-0-4fcf61173ac6d9ec99037318-1"}, {"reasons": {"count": 0, "items": [{"summary": "This spot is popular", "type": "general", "reasonName": "globalInteractionReason"}]}, "venue": {"id": "50e88ce8e4b0a5a070369ca3", "name": "Restaurant Olympia", "location": {"address": "Malchower Weg 45", "lat": 52.55391068544683, "lng": 13.503025903994729, "labeledLatLngs": [{"label": "display", "lat": 52.55391068544683, "lng": 13.503025903994729}], "distance": 628, "postalCode": "13053", "cc": "DE", "city": "Berlin", "state": "Berlin", "country": "Deutschland", "formattedAddress": ["Malchower Weg 45", "13053 Berlin", "Deutschland"]}, "categories": [{"id": "4bf58dd8d48988d10e941735", "name": "Greek Restaurant", "pluralName": "Greek Restaurants", "shortName": "Greek", "icon": {"prefix": "https://ss3.4sqi.net/img/categories_v2/food/greek_", "suffix": ".png"}, "primary": true}], "photos": {"count": 0, "groups": []}}, "referralId": "e-0-50e88ce8e4b0a5a070369ca3-2"}, {"reasons": {"count": 0, "items": [{"summary": "This spot is popular", "type": "general", "reasonName": "globalInteractionReason"}]}, "venue": {"id": "4ed610110e01b2ee69ab5b05", "name": "Kaufland", "location": {"address": "Hauptstr. 9-10", "lat": 52.54827840968082, "lng": 13.503457172023653, "labeledLatLngs": [{"label": "display", "lat": 52.54827840968082, "lng": 13.503457172023653}], "distance": 579, "postalCode": "13055", "cc": "DE", "city": "Berlin", "state": "Berlin", "country": "Deutschland", "formattedAddress": ["Hauptstr. 9-10", "13055 Berlin", "Deutschland"]}, "categories": [{"id": "52f2ab2ebcbc57f1066b8b42", "name": "Big Box Store", "pluralName": "Big Box Stores", "shortName": "Big Box Store", "icon": {"prefix": "https://ss3.4sqi.net/img/categories_v2/shops/default_", "suffix": ".png"}, "primary": true}], "photos": {"count": 0, "groups": []}, "venuePage": {"id": "455317893"}}, "referralId": "e-0-4ed610110e01b2ee69ab5b05-3"}, {"reasons": {"count": 0, "items": [{"summary": "This spot is popular", "type": "general", "reasonName": "globalInteractionReason"}]}, "venue": {"id": "4f797517e4b040208e05766a", "name": "Rossmann", "location": {"address": "Hauptstr. 9-9 d", "lat": 52.54818765241391, "lng": 13.504583915791196, "labeledLatLngs": [{"label": "display", "lat": 52.54818765241391, "lng": 13.504583915791196}], "distance": 520, "postalCode": "13055", "cc": "DE", "city": "Berlin", "state": "Berlin", "country": "Deutschland", "formattedAddress": ["Hauptstr. 9-9 d", "13055 Berlin", "Deutschland"]}, "categories": [{"id": "5745c2e4498e11e7bccabdbd", "name": "Drugstore", "pluralName": "Drugstores", "shortName": "Drugstore", "icon": {"prefix": "https://ss3.4sqi.net/img/categories_v2/shops/pharmacy_", "suffix": ".png"}, "primary": true}], "photos": {"count": 0, "groups": []}}, "referralId": "e-0-4f797517e4b040208e05766a-4"}, {"reasons": {"count": 0, "items": [{"summary": "This spot is popular", "type": "general", "reasonName": "globalInteractionReason"}]}, "venue": {"id": "4ba25818f964a52050ef37e3", "name": "Eiscafe & Restaurant Gessert", "location": {"address": "Malchower Weg 67", "lat": 52.55577792019946, "lng": 13.502524495124817, "labeledLatLngs": [{"label": "display", "lat": 52.55577792019946, "lng": 13.502524495124817}], "distance": 784, "postalCode": "13053", "cc": "DE", "city": "Berlin", "state": "Berlin", "country": "Deutschland", "formattedAddress": ["Malchower Weg 67", "13053 Berlin", "Deutschland"]}, "categories": [{"id": "4bf58dd8d48988d1c9941735", "name": "Ice Cream Shop", "pluralName": "Ice Cream Shops", "shortName": "Ice Cream", "icon": {"prefix": "https://ss3.4sqi.net/img/categories_v2/food/icecream_", "suffix": ".png"}, "primary": true}], "photos": {"count": 0, "groups": []}}, "referralId": "e-0-4ba25818f964a52050ef37e3-5"}, {"reasons": {"count": 0, "items": [{"summary": "This spot is popular", "type": "general", "reasonName": "globalInteractionReason"}]}, "venue": {"id": "4bee5840e8c3c9287d9d9892", "name": "Hellweg", "location": {"address": "Ferdinand-Schultze-Str. 106", "lat": 52.54422825367731, "lng": 13.509432781006275, "labeledLatLngs": [{"label": "display", "lat": 52.54422825367731, "lng": 13.509432781006275}], "distance": 747, "postalCode": "13055", "cc": "DE", "city": "Berlin", "state": "Berlin", "country": "Deutschland", "formattedAddress": ["Ferdinand-Schultze-Str. 106", "13055 Berlin", "Deutschland"]}, "categories": [{"id": "4bf58dd8d48988d112951735", "name": "Hardware Store", "pluralName": "Hardware Stores", "shortName": "Hardware", "icon": {"prefix": "https://ss3.4sqi.net/img/categories_v2/shops/hardware_", "suffix": ".png"}, "primary": true}], "photos": {"count": 0, "groups": []}, "venuePage": {"id": "566021702"}}, "referralId": "e-0-4bee5840e8c3c9287d9d9892-6"}, {"reasons": {"count": 0, "items": [{"summary": "This spot is popular", "type": "general", "reasonName": "globalInteractionReason"}]}, "venue": {"id": "4f651999e4b08383b2431192", "name": "H Anna-Ebermann-Stra\u00dfe", "location": {"address": "Wartenberger Str.", "crossStreet": "Anna-Ebermann-Str.", "lat": 52.554829935247916, "lng": 13.512285709635822, "labeledLatLngs": [{"label": "display", "lat": 52.554829935247916, "lng": 13.512285709635822}], "distance": 449, "postalCode": "13053", "cc": "DE", "city": "Berlin", "state": "Berlin", "country": "Deutschland", "formattedAddress": ["Wartenberger Str. (Anna-Ebermann-Str.)", "13053 Berlin", "Deutschland"]}, "categories": [{"id": "52f2ab2ebcbc57f1066b8b51", "name": "Tram Station", "pluralName": "Tram Stations", "shortName": "Tram", "icon": {"prefix": "https://ss3.4sqi.net/img/categories_v2/travel/trainstation_", "suffix": ".png"}, "primary": true}], "photos": {"count": 0, "groups": []}}, "referralId": "e-0-4f651999e4b08383b2431192-7"}, {"reasons": {"count": 0, "items": [{"summary": "This spot is popular", "type": "general", "reasonName": "globalInteractionReason"}]}, "venue": {"id": "4cb73ce0e262b60c42d374e0", "name": "H Alt-Hohensch\u00f6nhausen", "location": {"address": "Hauptstr.", "crossStreet": "Rhinstr.", "lat": 52.548866789539105, "lng": 13.504637168408616, "labeledLatLngs": [{"label": "display", "lat": 52.548866789539105, "lng": 13.504637168408616}], "distance": 477, "postalCode": "13055", "cc": "DE", "city": "Berlin", "state": "Berlin", "country": "Deutschland", "formattedAddress": ["Hauptstr. (Rhinstr.)", "13055 Berlin", "Deutschland"]}, "categories": [{"id": "52f2ab2ebcbc57f1066b8b51", "name": "Tram Station", "pluralName": "Tram Stations", "shortName": "Tram", "icon": {"prefix": "https://ss3.4sqi.net/img/categories_v2/travel/trainstation_", "suffix": ".png"}, "primary": true}], "photos": {"count": 0, "groups": []}}, "referralId": "e-0-4cb73ce0e262b60c42d374e0-8"}, {"reasons": {"count": 0, "items": [{"summary": "This spot is popular", "type": "general", "reasonName": "globalInteractionReason"}]}, "venue": {"id": "568cf25c498e545e80e01fb8", "name": "Fantasia", "location": {"lat": 52.548834852503276, "lng": 13.50392791028788, "labeledLatLngs": [{"label": "display", "lat": 52.548834852503276, "lng": 13.50392791028788}], "distance": 521, "cc": "DE", "city": "Berlin", "state": "Berlin", "country": "Deutschland", "formattedAddress": ["Berlin", "Deutschland"]}, "categories": [{"id": "5283c7b4e4b094cb91ec88d8", "name": "Doner Restaurant", "pluralName": "Doner Restaurants", "shortName": "Doner", "icon": {"prefix": "https://ss3.4sqi.net/img/categories_v2/food/turkish_", "suffix": ".png"}, "primary": true}], "photos": {"count": 0, "groups": []}}, "referralId": "e-0-568cf25c498e545e80e01fb8-9"}, {"reasons": {"count": 0, "items": [{"summary": "This spot is popular", "type": "general", "reasonName": "globalInteractionReason"}]}, "venue": {"id": "4e6f1365149506c77ad815aa", "name": "ALDI NORD", "location": {"address": "Hauptstr. 9", "lat": 52.54868357095564, "lng": 13.503656387329102, "labeledLatLngs": [{"label": "display", "lat": 52.54868357095564, "lng": 13.503656387329102}], "distance": 545, "postalCode": "13055", "cc": "DE", "city": "Berlin", "state": "Berlin", "country": "Deutschland", "formattedAddress": ["Hauptstr. 9", "13055 Berlin", "Deutschland"]}, "categories": [{"id": "52f2ab2ebcbc57f1066b8b46", "name": "Supermarket", "pluralName": "Supermarkets", "shortName": "Supermarket", "icon": {"prefix": "https://ss3.4sqi.net/img/categories_v2/shops/food_grocery_", "suffix": ".png"}, "primary": true}], "photos": {"count": 0, "groups": []}}, "referralId": "e-0-4e6f1365149506c77ad815aa-10"}, {"reasons": {"count": 0, "items": [{"summary": "This spot is popular", "type": "general", "reasonName": "globalInteractionReason"}]}, "venue": {"id": "4f6da677e4b0ac4cda6f0f8e", "name": "H Rhinstra\u00dfe / G\u00e4rtnerstra\u00dfe", "location": {"address": "Rhinstr.", "crossStreet": "G\u00e4rtnerstr.", "lat": 52.545927415154374, "lng": 13.509761196374432, "labeledLatLngs": [{"label": "display", "lat": 52.545927415154374, "lng": 13.509761196374432}], "distance": 556, "postalCode": "13055", "cc": "DE", "city": "Berlin", "state": "Berlin", "country": "Deutschland", "formattedAddress": ["Rhinstr. (G\u00e4rtnerstr.)", "13055 Berlin", "Deutschland"]}, "categories": [{"id": "52f2ab2ebcbc57f1066b8b51", "name": "Tram Station", "pluralName": "Tram Stations", "shortName": "Tram", "icon": {"prefix": "https://ss3.4sqi.net/img/categories_v2/travel/trainstation_", "suffix": ".png"}, "primary": true}], "photos": {"count": 0, "groups": []}}, "referralId": "e-0-4f6da677e4b0ac4cda6f0f8e-11"}, {"reasons": {"count": 0, "items": [{"summary": "This spot is popular", "type": "general", "reasonName": "globalInteractionReason"}]}, "venue": {"id": "509a589fe4b09409671a264b", "name": "Coco Hot One", "location": {"address": "Hauptstra\u00dfe 9-10", "crossStreet": "im Kaufland", "lat": 52.548325991294355, "lng": 13.503483481341672, "labeledLatLngs": [{"label": "display", "lat": 52.548325991294355, "lng": 13.503483481341672}], "distance": 574, "postalCode": "13055", "cc": "DE", "city": "Berlin", "state": "Berlin", "country": "Deutschland", "formattedAddress": ["Hauptstra\u00dfe 9-10 (im Kaufland)", "13055 Berlin", "Deutschland"]}, "categories": [{"id": "4bf58dd8d48988d142941735", "name": "Asian Restaurant", "pluralName": "Asian Restaurants", "shortName": "Asian", "icon": {"prefix": "https://ss3.4sqi.net/img/categories_v2/food/asian_", "suffix": ".png"}, "primary": true}], "photos": {"count": 0, "groups": []}}, "referralId": "e-0-509a589fe4b09409671a264b-12"}, {"reasons": {"count": 0, "items": [{"summary": "This spot is popular", "type": "general", "reasonName": "globalInteractionReason"}]}, "venue": {"id": "4d78848910936dcbe7b14789", "name": "APONEO Apotheke", "location": {"address": "Frankfurter Alle 241", "crossStreet": "Siegfriedstra\u00dfe", "lat": 52.545863418289066, "lng": 13.513256486084927, "labeledLatLngs": [{"label": "display", "lat": 52.545863418289066, "lng": 13.513256486084927}], "distance": 581, "postalCode": "10365", "cc": "DE", "city": "Berlin", "state": "Berlin", "country": "Deutschland", "formattedAddress": ["Frankfurter Alle 241 (Siegfriedstra\u00dfe)", "10365 Berlin", "Deutschland"]}, "categories": [{"id": "4bf58dd8d48988d10f951735", "name": "Pharmacy", "pluralName": "Pharmacies", "shortName": "Pharmacy", "icon": {"prefix": "https://ss3.4sqi.net/img/categories_v2/shops/pharmacy_", "suffix": ".png"}, "primary": true}], "photos": {"count": 0, "groups": []}}, "referralId": "e-0-4d78848910936dcbe7b14789-13"}, {"reasons": {"count": 0, "items": [{"summary": "This spot is popular", "type": "general", "reasonName": "globalInteractionReason"}]}, "venue": {"id": "4db157db5da32cf2df5955e1", "name": "Caf\u00e9 K3", "location": {"address": "Konrad-Wolf-Str. 3", "lat": 52.5484310180344, "lng": 13.501651332911933, "labeledLatLngs": [{"label": "display", "lat": 52.5484310180344, "lng": 13.501651332911933}], "distance": 680, "postalCode": "13055", "cc": "DE", "city": "Berlin", "state": "Berlin", "country": "Deutschland", "formattedAddress": ["Konrad-Wolf-Str. 3", "13055 Berlin", "Deutschland"]}, "categories": [{"id": "4bf58dd8d48988d1e0931735", "name": "Coffee Shop", "pluralName": "Coffee Shops", "shortName": "Coffee Shop", "icon": {"prefix": "https://ss3.4sqi.net/img/categories_v2/food/coffeeshop_", "suffix": ".png"}, "primary": true}], "photos": {"count": 0, "groups": []}}, "referralId": "e-0-4db157db5da32cf2df5955e1-14"}, {"reasons": {"count": 0, "items": [{"summary": "This spot is popular", "type": "general", "reasonName": "globalInteractionReason"}]}, "venue": {"id": "4b56b544f964a520251928e3", "name": "Netto Deutschland - schwarz-gelber Discounter mit dem Scottie", "location": {"address": "Malchower Weg 51", "lat": 52.554293909825695, "lng": 13.502240180969238, "labeledLatLngs": [{"label": "display", "lat": 52.554293909825695, "lng": 13.502240180969238}], "distance": 696, "postalCode": "13053", "cc": "DE", "city": "Berlin", "state": "Berlin", "country": "Deutschland", "formattedAddress": ["Malchower Weg 51", "13053 Berlin", "Deutschland"]}, "categories": [{"id": "52dea92d3cf9994f4e043dbb", "name": "Discount Store", "pluralName": "Discount Stores", "shortName": "Discount Store", "icon": {"prefix": "https://ss3.4sqi.net/img/categories_v2/shops/discountstore_", "suffix": ".png"}, "primary": true}], "photos": {"count": 0, "groups": []}, "venuePage": {"id": "455531008"}}, "referralId": "e-0-4b56b544f964a520251928e3-15"}, {"reasons": {"count": 0, "items": [{"summary": "This spot is popular", "type": "general", "reasonName": "globalInteractionReason"}]}, "venue": {"id": "4b7ae23ff964a52095432fe3", "name": "Mobicart", "location": {"address": "Plauener Str 161 Marzahn", "lat": 52.54380486839234, "lng": 13.515397091353297, "labeledLatLngs": [{"label": "display", "lat": 52.54380486839234, "lng": 13.515397091353297}], "distance": 845, "cc": "DE", "city": "Berlin", "state": "Berlin", "country": "Deutschland", "formattedAddress": ["Plauener Str 161 Marzahn", "Berlin", "Deutschland"]}, "categories": [{"id": "52e81612bcbc57f1066b79ea", "name": "Go Kart Track", "pluralName": "Go Kart Tracks", "shortName": "Go Kart", "icon": {"prefix": "https://ss3.4sqi.net/img/categories_v2/arts_entertainment/racetrack_", "suffix": ".png"}, "primary": true}], "photos": {"count": 0, "groups": []}}, "referralId": "e-0-4b7ae23ff964a52095432fe3-16"}]