[{"reasons": {"count": 0, "items": [{"summary": "This spot is popular", "type": "general", "reasonName": "globalInteractionReason"}]}, "venue": {"id": "4e99a4cdb8f77b7a9944c5ca", "name": "Landschaftspark Herzberge", "location": {"address": "Herzbergstr.", "crossStreet": "Gotlindestr.", "lat": 52.5236631699408, "lng": 13.506231307983398, "labeledLatLngs": [{"label": "display", "lat": 52.5236631699408, "lng": 13.506231307983398}], "distance": 507, "postalCode": "10365", "cc": "DE", "city": "Berlin", "state": "Berlin", "country": "Deutschland", "formattedAddress": ["Herzbergstr. (Gotlindestr.)", "10365 Berlin", "Deutschland"]}, "categories": [{"id": "4bf58dd8d48988d163941735", "name": "Park", "pluralName": "Parks", "shortName": "Park", "icon": {"prefix": "https://ss3.4sqi.net/img/categories_v2/parks_outdoors/park_", "suffix": ".png"}, "primary": true}], "photos": {"count": 0, "groups": []}}, "referralId": "e-0-4e99a4cdb8f77b7a9944c5ca-0"}, {"reasons": {"count": 0, "items": [{"summary": "This spot is popular", "type": "general", "reasonName": "globalInteractionReason"}]}, "venue": {"id": "4de1201a22713271e2c4f41f", "name": "Big Bowl", "location": {"address": "Bornitzstr. 105", "lat": 52.5206512900636, "lng": 13.497169553665536, "labeledLatLngs": [{"label": "display", "lat": 52.5206512900636, "lng": 13.497169553665536}], "distance": 293, "postalCode": "10365", "cc": "DE", "city": "Berlin", "state": "Berlin", "country": "Deutschland", "formattedAddress": ["Bornitzstr. 105", "10365 Berlin", "Deutschland"]}, "categories": [{"id": "4bf58dd8d48988d1e4931735", "name": "Bowling Alley", "pluralName": "Bowling Alleys", "shortName": "Bowling Alley", "icon": {"prefix": "https://ss3.4sqi.net/img/categories_v2/arts_entertainment/bowling_", "suffix": ".png"}, "primary": true}], "photos": {"count": 0, "groups": []}}, "referralId": "e-0-4de1201a22713271e2c4f41f-1"}, {"reasons": {"count": 0, "items": [{"summary": "This spot is popular", "type": "general", "reasonName": "globalInteractionReason"}]}, "venue": {"id": "4c2c46b057a9c9b6313ef767", "name": "Louis MEGAShop", "location": {"address": "Siegfriedstr. 65", "crossStreet": "Herzbergstr.", "lat": 52.52719799308137, "lng": 13.500088721838953, "labeledLatLngs": [{"label": "display", "lat": 52.52719799308137, "lng": 13.500088721838953}], "distance": 464, "postalCode": "10365", "cc": "DE", "city": "Berlin", "state": "Berlin", "country": "Deutschland", "formattedAddress": ["Siegfriedstr. 65 (Herzbergstr.)", "10365 Berlin", "Deutschland"]}, "categories": [{"id": "5032833091d4c4b30a586d60", "name": "Motorcycle Shop", "pluralName": "Motorcycle Shops", "shortName": "Motorcycle Shop", "icon": {"prefix": "https://ss3.4sqi.net/img/categories_v2/shops/motorcycle_", "suffix": ".png"}, "primary": true}], "photos": {"count": 0, "groups": []}}, "referralId": "e-0-4c2c46b057a9c9b6313ef767-2"}, {"reasons": {"count": 0, "items": [{"summary": "This spot is popular", "type": "general", "reasonName": "globalInteractionReason"}]}, "venue": {"id": "4b255dddf964a520bd7024e3", "name": "Squash House", "location": {"address": "Vulkanstr. 3", "crossStreet": "Josef-Orlopp-Str.", "lat": 52.52440733120216, "lng": 13.486254215240479, "labeledLatLngs": [{"label": "display", "lat": 52.52440733120216, "lng": 13.486254215240479}], "distance": 861, "postalCode": "10367", "cc": "DE", "city": "Berlin", "state": "Berlin", "country": "Deutschland", "formattedAddress": ["Vulkanstr. 3 (Josef-Orlopp-Str.)", "10367 Berlin", "Deutschland"]}, "categories": [{"id": "52e81612bcbc57f1066b7a2d", "name": "Squash Court", "pluralName": "Squash Courts", "shortName": "Squash Court", "icon": {"prefix": "https://ss3.4sqi.net/img/categories_v2/arts_entertainment/stadium_tennis_", "suffix": ".png"}, "primary": true}], "photos": {"count": 0, "groups": []}}, "referralId": "e-0-4b255dddf964a520bd7024e3-3"}, {"reasons": {"count": 0, "items": [{"summary": "This spot is popular", "type": "general", "reasonName": "globalInteractionReason"}]}, "venue": {"id": "54a986b1498ed3ace1dc936f", "name": "\u0110\u1ed3ng Xu\u00e2n Qu\u00e1n", "location": {"address": "Herzbergstr. 128-139", "crossStreet": "Halle  1", "lat": 52.52771421379017, "lng": 13.490311397224591, "labeledLatLngs": [{"label": "display", "lat": 52.52771421379017, "lng": 13.490311397224591}], "distance": 770, "postalCode": "10365", "cc": "DE", "city": "Berlin", "state": "Berlin", "country": "Deutschland", "formattedAddress": ["Herzbergstr. 128-139 (Halle  1)", "10365 Berlin", "Deutschland"]}, "categories": [{"id": "4bf58dd8d48988d14a941735", "name": "Vietnamese Restaurant", "pluralName": "Vietnamese Restaurants", "shortName": "Vietnamese", "icon": {"prefix": "https://ss3.4sqi.net/img/categories_v2/food/vietnamese_", "suffix": ".png"}, "primary": true}], "photos": {"count": 0, "groups": []}}, "referralId": "e-0-54a986b1498ed3ace1dc936f-4"}, {"reasons": {"count": 0, "items": [{"summary": "This spot is popular", "type": "general", "reasonName": "globalInteractionReason"}]}, "venue": {"id": "4eaad5d761af01ea2a85ab77", "name": "Duc Anh Quan", "location": {"address": "Herzbergstr. 128", "crossStreet": "Halle 3", "lat": 52.52776546588698, "lng": 13.48860968164961, "labeledLatLngs": [{"label": "display", "lat": 52.52776546588698, "lng": 13.48860968164961}], "distance": 863, "postalCode": "10365", "cc": "DE", "neighborhood": "Lichtenberg, Berlin", "city": "Berlin", "state": "Berlin", "country": "Deutschland", "formattedAddress": ["Herzbergstr. 128 (Halle 3)", "10365 Berlin", "Deutschland"]}, "categories": [{"id": "4bf58dd8d48988d14a941735", "name": "Vietnamese Restaurant", "pluralName": "Vietnamese Restaurants", "shortName": "Vietnamese", "icon": {"prefix": "https://ss3.4sqi.net/img/categories_v2/food/vietnamese_", "suffix": ".png"}, "primary": true}], "photos": {"count": 0, "groups": []}, "venuePage": {"id": "497936921"}}, "referralId": "e-0-4eaad5d761af01ea2a85ab77-5"}, {"reasons": {"count": 0, "items": [{"summary": "This spot is popular", "type": "general", "reasonName": "globalInteractionReason"}]}, "venue": {"id": "4bba391f935e952168e42790", "name": "McFIT", "location": {"address": "Siegfriedstra\u00dfe 177", "lat": 52.52182555984336, "lng": 13.498887419700623, "labeledLatLngs": [{"label": "display", "lat": 52.52182555984336, "lng": 13.498887419700623}], "distance": 141, "postalCode": "10365", "cc": "DE", "city": "Berlin", "state": "Berlin", "country": "Deutschland", "formattedAddress": ["Siegfriedstra\u00dfe 177", "10365 Berlin", "Deutschland"]}, "categories": [{"id": "4bf58dd8d48988d175941735", "name": "Gym / Fitness Center", "pluralName": "Gyms or Fitness Centers", "shortName": "Gym / Fitness", "icon": {"prefix": "https://ss3.4sqi.net/img/categories_v2/building/gym_", "suffix": ".png"}, "primary": true}], "photos": {"count": 0, "groups": []}}, "referralId": "e-0-4bba391f935e952168e42790-6"}, {"reasons": {"count": 0, "items": [{"summary": "This spot is popular", "type": "general", "reasonName": "globalInteractionReason"}]}, "venue": {"id": "4f4375bae4b05efae836fba3", "name": "Freiaplatz", "location": {"lat": 52.51580436440169, "lng": 13.49850037381606, "labeledLatLngs": [{"label": "display", "lat": 52.51580436440169, "lng": 13.49850037381606}], "distance": 812, "cc": "DE", "city": "Berlin", "state": "Berlin", "country": "Deutschland", "formattedAddress": ["Berlin", "Deutschland"]}, "categories": [{"id": "4bf58dd8d48988d163941735", "name": "Park", "pluralName": "Parks", "shortName": "Park", "icon": {"prefix": "https://ss3.4sqi.net/img/categories_v2/parks_outdoors/park_", "suffix": ".png"}, "primary": true}], "photos": {"count": 0, "groups": []}}, "referralId": "e-0-4f4375bae4b05efae836fba3-7"}, {"reasons": {"count": 0, "items": [{"summary": "This spot is popular", "type": "general", "reasonName": "globalInteractionReason"}]}, "venue": {"id": "4c98e2db7b9d37040106e285", "name": "Prober\u00e4ume Herzbergstrasse", "location": {"address": "Herzbergstrasse 100", "lat": 52.52698629287679, "lng": 13.499298986250079, "labeledLatLngs": [{"label": "display", "lat": 52.52698629287679, "lng": 13.499298986250079}], "distance": 434, "cc": "DE", "city": "Berlin", "state": "Berlin", "country": "Deutschland", "formattedAddress": ["Herzbergstrasse 100", "Berlin", "Deutschland"]}, "categories": [{"id": "4bf58dd8d48988d1e5931735", "name": "Music Venue", "pluralName": "Music Venues", "shortName": "Music Venue", "icon": {"prefix": "https://ss3.4sqi.net/img/categories_v2/arts_entertainment/musicvenue_", "suffix": ".png"}, "primary": true}], "photos": {"count": 0, "groups": []}}, "referralId": "e-0-4c98e2db7b9d37040106e285-8"}, {"reasons": {"count": 0, "items": [{"summary": "This spot is popular", "type": "general", "reasonName": "globalInteractionReason"}]}, "venue": {"id": "4babc9b3f964a5208ac93ae3", "name": "Dong Xuan Center", "location": {"address": "Herzbergstr. 128 - 139", "lat": 52.52760577553211, "lng": 13.489837646484375, "labeledLatLngs": [{"label": "display", "lat": 52.52760577553211, "lng": 13.489837646484375}], "distance": 787, "postalCode": "10365", "cc": "DE", "city": "Berlin", "state": "Berlin", "country": "Deutschland", "formattedAddress": ["Herzbergstr. 128 - 139", "10365 Berlin", "Deutschland"]}, "categories": [{"id": "50be8ee891d4fa8dcc7199a7", "name": "Market", "pluralName": "Markets", "shortName": "Market", "icon": {"prefix": "https://ss3.4sqi.net/img/categories_v2/shops/market_", "suffix": ".png"}, "primary": true}], "photos": {"count": 0, "groups": []}}, "referralId": "e-0-4babc9b3f964a5208ac93ae3-9"}, {"reasons": {"count": 0, "items": [{"summary": "This spot is popular", "type": "general", "reasonName": "globalInteractionReason"}]}, "venue": {"id": "4bffe476c30a2d7f189b111d", "name": "Lidl", "location": {"address": "Ruschestr. 64-70", "crossStreet": "Bornitzstr.", "lat": 52.52134736796758, "lng": 13.486827177909845, "labeledLatLngs": [{"label": "display", "lat": 52.52134736796758, "lng": 13.486827177909845}], "distance": 833, "postalCode": "10365", "cc": "DE", "city": "Berlin", "state": "Berlin", "country": "Deutschland", "formattedAddress": ["Ruschestr. 64-70 (Bornitzstr.)", "10365 Berlin-Lichtenberg", "Deutschland"]}, "categories": [{"id": "52f2ab2ebcbc57f1066b8b46", "name": "Supermarket", "pluralName": "Supermarkets", "shortName": "Supermarket", "icon": {"prefix": "https://ss3.4sqi.net/img/categories_v2/shops/food_grocery_", "suffix": ".png"}, "primary": true}], "photos": {"count": 0, "groups": []}}, "referralId": "e-0-4bffe476c30a2d7f189b111d-10"}, {"reasons": {"count": 0, "items": [{"summary": "This spot is popular", "type": "general", "reasonName": "globalInteractionReason"}]}, "venue": {"id": "4f59c125e4b072fe9d66ed40", "name": "Hotel Siegfriedshof", "location": {"address": "Siegfriedstr. 204b", "lat": 52.515035957642965, "lng": 13.497475616723198, "labeledLatLngs": [{"label": "display", "lat": 52.515035957642965, "lng": 13.497475616723198}], "distance": 901, "postalCode": "10365", "cc": "DE", "city": "Berlin", "state": "Berlin", "country": "Deutschland", "formattedAddress": ["Siegfriedstr. 204b", "10365 Berlin", "Deutschland"]}, "categories": [{"id": "4bf58dd8d48988d1fa931735", "name": "Hotel", "pluralName": "Hotels", "shortName": "Hotel", "icon": {"prefix": "https://ss3.4sqi.net/img/categories_v2/travel/hotel_", "suffix": ".png"}, "primary": true}], "photos": {"count": 0, "groups": []}}, "referralId": "e-0-4f59c125e4b072fe9d66ed40-11"}, {"reasons": {"count": 0, "items": [{"summary": "This spot is popular", "type": "general", "reasonName": "globalInteractionReason"}]}, "venue": {"id": "52c6aefb498ea20ecffcdc2b", "name": "Vi\u00eat Ph\u00f4", "location": {"address": "Herzbergstr. 128", "lat": 52.527611209663704, "lng": 13.489330591754674, "labeledLatLngs": [{"label": "display", "lat": 52.527611209663704, "lng": 13.489330591754674}], "distance": 814, "postalCode": "10365", "cc": "DE", "city": "Berlin", "state": "Berlin", "country": "Deutschland", "formattedAddress": ["Herzbergstr. 128", "10365 Berlin", "Deutschland"]}, "categories": [{"id": "4bf58dd8d48988d14a941735", "name": "Vietnamese Restaurant", "pluralName": "Vietnamese Restaurants", "shortName": "Vietnamese", "icon": {"prefix": "https://ss3.4sqi.net/img/categories_v2/food/vietnamese_", "suffix": ".png"}, "primary": true}], "photos": {"count": 0, "groups": []}}, "referralId": "e-0-52c6aefb498ea20ecffcdc2b-12"}, {"reasons": {"count": 0, "items": [{"summary": "This spot is popular", "type": "general", "reasonName": "globalInteractionReason"}]}, "venue": {"id": "528fa58c11d28b2ac04a617e", "name": "Epirus", "location": {"address": "Ruschestr. 64", "lat": 52.52172992555171, "lng": 13.48644891427383, "labeledLatLngs": [{"label": "display", "lat": 52.52172992555171, "lng": 13.48644891427383}], "distance": 849, "postalCode": "10365", "cc": "DE", "neighborhood": "Herzbergstra\u00dfe", "city": "Berlin", "state": "Berlin", "country": "Deutschland", "formattedAddress": ["Ruschestr. 64", "10365 Berlin", "Deutschland"]}, "categories": [{"id": "4bf58dd8d48988d10e941735", "name": "Greek Restaurant", "pluralName": "Greek Restaurants", "shortName": "Greek", "icon": {"prefix": "https://ss3.4sqi.net/img/categories_v2/food/greek_", "suffix": ".png"}, "primary": true}], "photos": {"count": 0, "groups": []}}, "referralId": "e-0-528fa58c11d28b2ac04a617e-13"}, {"reasons": {"count": 0, "items": [{"summary": "This spot is popular", "type": "general", "reasonName": "globalInteractionReason"}]}, "venue": {"id": "4c7f399bd51ea143d6295a9f", "name": "H Siegfriedstra\u00dfe / Josef-Orlopp-Stra\u00dfe", "location": {"address": "Siegfriedstra\u00dfe", "crossStreet": "Josef-Orlopp Stra\u00dfe", "lat": 52.52299733075757, "lng": 13.499579429626465, "labeledLatLngs": [{"label": "display", "lat": 52.52299733075757, "lng": 13.499579429626465}], "distance": 54, "postalCode": "10365", "cc": "DE", "city": "Berlin", "state": "Berlin", "country": "Deutschland", "formattedAddress": ["Siegfriedstra\u00dfe (Josef-Orlopp Stra\u00dfe)", "10365 Berlin", "Deutschland"]}, "categories": [{"id": "52f2ab2ebcbc57f1066b8b51", "name": "Tram Station", "pluralName": "Tram Stations", "shortName": "Tram", "icon": {"prefix": "https://ss3.4sqi.net/img/categories_v2/travel/trainstation_", "suffix": ".png"}, "primary": true}], "photos": {"count": 0, "groups": []}}, "referralId": "e-0-4c7f399bd51ea143d6295a9f-14"}, {"reasons": {"count": 0, "items": [{"summary": "This spot is popular", "type": "general", "reasonName": "globalInteractionReason"}]}, "venue": {"id": "4e882d4a55038d62cd679d7e", "name": "SIXT rent a car", "location": {"address": "Herzbergstr. 87-99", "lat": 52.52629434270014, "lng": 13.500279288008976, "labeledLatLngs": [{"label": "display", "lat": 52.52629434270014, "lng": 13.500279288008976}], "distance": 369, "postalCode": "10365", "cc": "DE", "city": "Berlin", "state": "Berlin", "country": "Deutschland", "formattedAddress": ["Herzbergstr. 87-99", "10365 Berlin-Lichtenberg", "Deutschland"]}, "categories": [{"id": "4bf58dd8d48988d1ef941735", "name": "Rental Car Location", "pluralName": "Rental Car Locations", "shortName": "Rental Car", "icon": {"prefix": "https://ss3.4sqi.net/img/categories_v2/shops/airport_rentalcar_", "suffix": ".png"}, "primary": true}], "photos": {"count": 0, "groups": []}}, "referralId": "e-0-4e882d4a55038d62cd679d7e-15"}, {"reasons": {"count": 0, "items": [{"summary": "This spot is popular", "type": "general", "reasonName": "globalInteractionReason"}]}, "venue": {"id": "4eb6952a2c5b53141ace21bc", "name": "H Evangelisches Krankenhaus KEH", "location": {"address": "Herzbergstr.", "crossStreet": "Allee der Kosmonauten", "lat": 52.524136002660015, "lng": 13.51259231297131, "labeledLatLngs": [{"label": "display", "lat": 52.524136002660015, "lng": 13.51259231297131}], "distance": 941, "postalCode": "10365", "cc": "DE", "city": "Berlin", "state": "Berlin", "country": "Deutschland", "formattedAddress": ["Herzbergstr. (Allee der Kosmonauten)", "10365 Berlin", "Deutschland"]}, "categories": [{"id": "52f2ab2ebcbc57f1066b8b51", "name": "Tram Station", "pluralName": "Tram Stations", "shortName": "Tram", "icon": {"prefix": "https://ss3.4sqi.net/img/categories_v2/travel/trainstation_", "suffix": ".png"}, "primary": true}], "photos": {"count": 0, "groups": []}}, "referralId": "e-0-4eb6952a2c5b53141ace21bc-16"}, {"reasons": {"count": 0, "items": [{"summary": "This spot is popular", "type": "general", "reasonName": "globalInteractionReason"}]}, "venue": {"id": "4fd2fab3e4b0d45a95189df3", "name": "Sportplatz Bornitzstra\u00dfe", "location": {"address": "Bornitzstr. 83", "lat": 52.520733469355136, "lng": 13.492183288782396, "labeledLatLngs": [{"label": "display", "lat": 52.520733469355136, "lng": 13.492183288782396}], "distance": 519, "postalCode": "10365", "cc": "DE", "city": "Berlin", "state": "Berlin", "country": "Deutschland", "formattedAddress": ["Bornitzstr. 83", "10365 Berlin", "Deutschland"]}, "categories": [{"id": "4cce455aebf7b749d5e191f5", "name": "Soccer Field", "pluralName": "Soccer Fields", "shortName": "Soccer Field", "icon": {"prefix": "https://ss3.4sqi.net/img/categories_v2/arts_entertainment/stadium_soccer_", "suffix": ".png"}, "primary": true}], "photos": {"count": 0, "groups": []}}, "referralId": "e-0-4fd2fab3e4b0d45a95189df3-17"}, {"reasons": {"count": 0, "items": [{"summary": "This spot is popular", "type": "general", "reasonName": "globalInteractionReason"}]}, "venue": {"id": "59f3513bc0f16338d72665ee", "name": "H24 Hotel Berlin Lichtenberg", "location": {"lat": 52.526774, "lng": 13.488006, "labeledLatLngs": [{"label": "display", "lat": 52.526774, "lng": 13.488006}], "distance": 837, "cc": "DE", "city": "Berlin", "state": "Berlin", "country": "Deutschland", "formattedAddress": ["Berlin", "Deutschland"]}, "categories": [{"id": "4bf58dd8d48988d1fa931735", "name": "Hotel", "pluralName": "Hotels", "shortName": "Hotel", "icon": {"prefix": "https://ss3.4sqi.net/img/categories_v2/travel/hotel_", "suffix": ".png"}, "primary": true}], "photos": {"count": 0, "groups": []}}, "referralId": "e-0-59f3513bc0f16338d72665ee-18"}, {"reasons": {"count": 0, "items": [{"summary": "This spot is popular", "type": "general", "reasonName": "globalInteractionReason"}]}, "venue": {"id": "5a196bf1fdb9a744f4a2a109", "name": "Stadtfarm", "location": {"address": "Allee der Kosmonauten 16", "lat": 52.520021, "lng": 13.511002, "labeledLatLngs": [{"label": "display", "lat": 52.520021, "lng": 13.511002}], "distance": 894, "postalCode": "10315", "cc": "DE", "city": "Berlin", "state": "Berlin", "country": "Deutschland", "formattedAddress": ["Allee der Kosmonauten 16", "10315 Berlin", "Deutschland"]}, "categories": [{"id": "4bf58dd8d48988d1f9941735", "name": "Food & Drink Shop", "pluralName": "Food & Drink Shops", "shortName": "Food & Drink", "icon": {"prefix": "https://ss3.4sqi.net/img/categories_v2/shops/foodanddrink_", "suffix": ".png"}, "primary": true}], "photos": {"count": 0, "groups": []}}, "referralId": "e-0-5a196bf1fdb9a744f4a2a109-19"}]