[{"reasons": {"count": 0, "items": [{"summary": "This spot is popular", "type": "general", "reasonName": "globalInteractionReason"}]}, "venue": {"id": "4bb4b800f1b976b0be321f20", "name": "REWE", "location": {"address": "Sch\u00f6nefelder Chaussee 1", "lat": 52.41806814577532, "lng": 13.536962044179518, "labeledLatLngs": [{"label": "display", "lat": 52.41806814577532, "lng": 13.536962044179518}], "distance": 621, "postalCode": "12524", "cc": "DE", "city": "Berlin", "state": "Berlin", "country": "Deutschland", "formattedAddress": ["Sch\u00f6nefelder Chaussee 1", "12524 Berlin", "Deutschland"]}, "categories": [{"id": "52f2ab2ebcbc57f1066b8b46", "name": "Supermarket", "pluralName": "Supermarkets", "shortName": "Supermarket", "icon": {"prefix": "https://ss3.4sqi.net/img/categories_v2/shops/food_grocery_", "suffix": ".png"}, "primary": true}], "photos": {"count": 0, "groups": []}, "venuePage": {"id": "560613128"}}, "referralId": "e-0-4bb4b800f1b976b0be321f20-0"}, {"reasons": {"count": 0, "items": [{"summary": "This spot is popular", "type": "general", "reasonName": "globalInteractionReason"}]}, "venue": {"id": "57fb886b498eb0c4e993f07a", "name": "Dennes Dominik - Schwer- & Tiefladertransporte", "location": {"address": "Mohnweg 103", "lat": 52.40802, "lng": 13.54552, "labeledLatLngs": [{"label": "display", "lat": 52.40802, "lng": 13.54552}], "distance": 641, "postalCode": "12524", "cc": "DE", "city": "Berlin", "state": "Berlin", "country": "Deutschland", "formattedAddress": ["Mohnweg 103", "12524 Berlin", "Deutschland"]}, "categories": [{"id": "52f2ab2ebcbc57f1066b8b1f", "name": "Shipping Store", "pluralName": "Shipping Stores", "shortName": "Shipping Store", "icon": {"prefix": "https://ss3.4sqi.net/img/categories_v2/shops/default_", "suffix": ".png"}, "primary": true}], "photos": {"count": 0, "groups": []}, "venuePage": {"id": "349046929"}}, "referralId": "e-0-57fb886b498eb0c4e993f07a-1"}, {"reasons": {"count": 0, "items": [{"summary": "This spot is popular", "type": "general", "reasonName": "globalInteractionReason"}]}, "venue": {"id": "4e3c311b1495bf24a5c9ae9c", "name": "Netto Filiale", "location": {"address": "K\u00f6penicker Str. 27", "lat": 52.4190144, "lng": 13.537369, "labeledLatLngs": [{"label": "display", "lat": 52.4190144, "lng": 13.537369}], "distance": 710, "postalCode": "12524", "cc": "DE", "city": "Berlin", "state": "Berlin", "country": "Deutschland", "formattedAddress": ["K\u00f6penicker Str. 27", "12524 Berlin", "Deutschland"]}, "categories": [{"id": "52f2ab2ebcbc57f1066b8b46", "name": "Supermarket", "pluralName": "Supermarkets", "shortName": "Supermarket", "icon": {"prefix": "https://ss3.4sqi.net/img/categories_v2/shops/food_grocery_", "suffix": ".png"}, "primary": true}], "photos": {"count": 0, "groups": []}, "venuePage": {"id": "555579867"}}, "referralId": "e-0-4e3c311b1495bf24a5c9ae9c-2"}, {"reasons": {"count": 0, "items": [{"summary": "This spot is popular", "type": "general", "reasonName": "globalInteractionReason"}]}, "venue": {"id": "4da1c614d686b60cf685ab28", "name": "Restaurant Delphi", "location": {"address": "Rapunzelstr. 49", "lat": 52.41733956456272, "lng": 13.52952134515134, "labeledLatLngs": [{"label": "display", "lat": 52.41733956456272, "lng": 13.52952134515134}], "distance": 898, "postalCode": "12524", "cc": "DE", "city": "Berlin", "state": "Berlin", "country": "Deutschland", "formattedAddress": ["Rapunzelstr. 49", "12524 Berlin", "Deutschland"]}, "categories": [{"id": "4bf58dd8d48988d10e941735", "name": "Greek Restaurant", "pluralName": "Greek Restaurants", "shortName": "Greek", "icon": {"prefix": "https://ss3.4sqi.net/img/categories_v2/food/greek_", "suffix": ".png"}, "primary": true}], "photos": {"count": 0, "groups": []}}, "referralId": "e-0-4da1c614d686b60cf685ab28-3"}, {"reasons": {"count": 0, "items": [{"summary": "This spot is popular", "type": "general", "reasonName": "globalInteractionReason"}]}, "venue": {"id": "57128ba0498e1bdf3707530c", "name": "Netto Filiale", "location": {"address": "Ortolfstr. 149", "lat": 52.4058406, "lng": 13.532665, "labeledLatLngs": [{"label": "display", "lat": 52.4058406, "lng": 13.532665}], "distance": 958, "postalCode": "12524", "cc": "DE", "city": "Berlin", "state": "Berlin", "country": "Deutschland", "formattedAddress": ["Ortolfstr. 149", "12524 Berlin", "Deutschland"]}, "categories": [{"id": "52f2ab2ebcbc57f1066b8b46", "name": "Supermarket", "pluralName": "Supermarkets", "shortName": "Supermarket", "icon": {"prefix": "https://ss3.4sqi.net/img/categories_v2/shops/food_grocery_", "suffix": ".png"}, "primary": true}], "photos": {"count": 0, "groups": []}, "venuePage": {"id": "537531607"}}, "referralId": "e-0-57128ba0498e1bdf3707530c-4"}]