[{"reasons": {"count": 0, "items": [{"summary": "This spot is popular", "type": "general", "reasonName": "globalInteractionReason"}]}, "venue": {"id": "58a04ec901f0772d803c209d", "name": "Bahadur", "location": {"address": "Sigmaringer Str. 36", "lat": 52.48779080041393, "lng": 13.319594974738457, "labeledLatLngs": [{"label": "display", "lat": 52.48779080041393, "lng": 13.319594974738457}], "distance": 455, "postalCode": "10713", "cc": "DE", "city": "Berlin", "state": "Berlin", "country": "Deutschland", "formattedAddress": ["Sigmaringer Str. 36", "10713 Berlin", "Deutschland"]}, "categories": [{"id": "4bf58dd8d48988d10f941735", "name": "Indian Restaurant", "pluralName": "Indian Restaurants", "shortName": "Indian", "icon": {"prefix": "https://ss3.4sqi.net/img/categories_v2/food/indian_", "suffix": ".png"}, "primary": true}], "photos": {"count": 0, "groups": []}}, "referralId": "e-0-58a04ec901f0772d803c209d-0"}, {"reasons": {"count": 0, "items": [{"summary": "This spot is popular", "type": "general", "reasonName": "globalInteractionReason"}]}, "venue": {"id": "5c3f5bb37c891c002d9a7a5e", "name": "Thai-Art", "location": {"address": "Berliner Stra\u00dfe 42A", "lat": 52.486654, "lng": 13.319444, "labeledLatLngs": [{"label": "display", "lat": 52.486654, "lng": 13.319444}], "distance": 378, "postalCode": "10713", "cc": "DE", "city": "Berlin", "state": "Berlin", "country": "Deutschland", "formattedAddress": ["Berliner Stra\u00dfe 42A", "10713 Berlin", "Deutschland"]}, "categories": [{"id": "4bf58dd8d48988d149941735", "name": "Thai Restaurant", "pluralName": "Thai Restaurants", "shortName": "Thai", "icon": {"prefix": "https://ss3.4sqi.net/img/categories_v2/food/thai_", "suffix": ".png"}, "primary": true}], "photos": {"count": 0, "groups": []}}, "referralId": "e-0-5c3f5bb37c891c002d9a7a5e-1"}, {"reasons": {"count": 0, "items": [{"summary": "This spot is popular", "type": "general", "reasonName": "globalInteractionReason"}]}, "venue": {"id": "56670809498eba82ce7def90", "name": "Genazvale", "location": {"address": "Hohenzollerndamm 33", "crossStreet": "Ruhrstr.", "lat": 52.48980267116557, "lng": 13.312003992147847, "labeledLatLngs": [{"label": "display", "lat": 52.48980267116557, "lng": 13.312003992147847}], "distance": 538, "postalCode": "10713", "cc": "DE", "neighborhood": "Fehrbelliner Platz", "city": "Berlin", "state": "Berlin", "country": "Deutschland", "formattedAddress": ["Hohenzollerndamm 33 (Ruhrstr.)", "10713 Berlin", "Deutschland"]}, "categories": [{"id": "5293a7d53cf9994f4e043a45", "name": "Caucasian Restaurant", "pluralName": "Caucasian Restaurants", "shortName": "Caucasian", "icon": {"prefix": "https://ss3.4sqi.net/img/categories_v2/food/caucasian_", "suffix": ".png"}, "primary": true}], "photos": {"count": 0, "groups": []}}, "referralId": "e-0-56670809498eba82ce7def90-2"}, {"reasons": {"count": 0, "items": [{"summary": "This spot is popular", "type": "general", "reasonName": "globalInteractionReason"}]}, "venue": {"id": "4adcda8bf964a520ee4921e3", "name": "EVA Lichtspiele", "location": {"address": "Blissestr. 18", "lat": 52.48464151811313, "lng": 13.320160541709342, "labeledLatLngs": [{"label": "display", "lat": 52.48464151811313, "lng": 13.320160541709342}], "distance": 395, "postalCode": "10713", "cc": "DE", "city": "Berlin", "state": "Berlin", "country": "Deutschland", "formattedAddress": ["Blissestr. 18", "10713 Berlin", "Deutschland"]}, "categories": [{"id": "4bf58dd8d48988d17e941735", "name": "Indie Movie Theater", "pluralName": "Indie Movie Theaters", "shortName": "Indie Movies", "icon": {"prefix": "https://ss3.4sqi.net/img/categories_v2/arts_entertainment/movietheater_", "suffix": ".png"}, "primary": true}], "photos": {"count": 0, "groups": []}}, "referralId": "e-0-4adcda8bf964a520ee4921e3-3"}, {"reasons": {"count": 0, "items": [{"summary": "This spot is popular", "type": "general", "reasonName": "globalInteractionReason"}]}, "venue": {"id": "55634df8498ec487d918a30e", "name": "Trattoria Acquolina", "location": {"address": "Hildegardstr. 17a", "lat": 52.481967, "lng": 13.320852, "labeledLatLngs": [{"label": "display", "lat": 52.481967, "lng": 13.320852}], "distance": 565, "postalCode": "10715", "cc": "DE", "city": "Berlin", "state": "Berlin", "country": "Deutschland", "formattedAddress": ["Hildegardstr. 17a", "10715 Berlin", "Deutschland"]}, "categories": [{"id": "55a5a1ebe4b013909087cb7f", "name": "Trattoria/Osteria", "pluralName": "Trattorias/Osterias", "shortName": "Trattoria/Osteria", "icon": {"prefix": "https://ss3.4sqi.net/img/categories_v2/food/italian_", "suffix": ".png"}, "primary": true}], "photos": {"count": 0, "groups": []}}, "referralId": "e-0-55634df8498ec487d918a30e-4"}, {"reasons": {"count": 0, "items": [{"summary": "This spot is popular", "type": "general", "reasonName": "globalInteractionReason"}]}, "venue": {"id": "58ca4103a8b759134ed01b17", "name": "BIO COMPANY", "location": {"address": "Uhlandstr. 103", "lat": 52.48570423099271, "lng": 13.32251556908651, "labeledLatLngs": [{"label": "display", "lat": 52.48570423099271, "lng": 13.32251556908651}], "distance": 552, "postalCode": "10715", "cc": "DE", "city": "Berlin", "state": "Berlin", "country": "Deutschland", "formattedAddress": ["Uhlandstr. 103", "10715 Berlin", "Deutschland"]}, "categories": [{"id": "52f2ab2ebcbc57f1066b8b45", "name": "Organic Grocery", "pluralName": "Organic Groceries", "shortName": "Organic Grocery", "icon": {"prefix": "https://ss3.4sqi.net/img/categories_v2/shops/food_grocery_", "suffix": ".png"}, "primary": true}], "photos": {"count": 0, "groups": []}}, "referralId": "e-0-58ca4103a8b759134ed01b17-5"}, {"reasons": {"count": 0, "items": [{"summary": "This spot is popular", "type": "general", "reasonName": "globalInteractionReason"}]}, "venue": {"id": "4c57ce9dd12a20a10c9567bd", "name": "Rossmann", "location": {"address": "Berliner Str. 132", "lat": 52.48644727236808, "lng": 13.321676651243681, "labeledLatLngs": [{"label": "display", "lat": 52.48644727236808, "lng": 13.321676651243681}], "distance": 512, "postalCode": "10715", "cc": "DE", "city": "Berlin", "state": "Berlin", "country": "Deutschland", "formattedAddress": ["Berliner Str. 132", "10715 Berlin", "Deutschland"]}, "categories": [{"id": "5745c2e4498e11e7bccabdbd", "name": "Drugstore", "pluralName": "Drugstores", "shortName": "Drugstore", "icon": {"prefix": "https://ss3.4sqi.net/img/categories_v2/shops/pharmacy_", "suffix": ".png"}, "primary": true}], "photos": {"count": 0, "groups": []}}, "referralId": "e-0-4c57ce9dd12a20a10c9567bd-6"}, {"reasons": {"count": 0, "items": [{"summary": "This spot is popular", "type": "general", "reasonName": "globalInteractionReason"}]}, "venue": {"id": "4d9a03ab61a3a1cd227cf142", "name": "Yoshioka", "location": {"address": "Brandenburgische Str. 77", "lat": 52.487989721940565, "lng": 13.317926134259867, "labeledLatLngs": [{"label": "display", "lat": 52.487989721940565, "lng": 13.317926134259867}], "distance": 392, "postalCode": "10713", "cc": "DE", "city": "Berlin", "state": "Berlin", "country": "Deutschland", "formattedAddress": ["Brandenburgische Str. 77", "10713 Berlin", "Deutschland"]}, "categories": [{"id": "4bf58dd8d48988d111941735", "name": "Japanese Restaurant", "pluralName": "Japanese Restaurants", "shortName": "Japanese", "icon": {"prefix": "https://ss3.4sqi.net/img/categories_v2/food/japanese_", "suffix": ".png"}, "primary": true}], "photos": {"count": 0, "groups": []}}, "referralId": "e-0-4d9a03ab61a3a1cd227cf142-7"}, {"reasons": {"count": 0, "items": [{"summary": "This spot is popular", "type": "general", "reasonName": "globalInteractionReason"}]}, "venue": {"id": "4c4c7d8642b4d13a15412c80", "name": "Bistro Katis", "location": {"address": "Blissestr. 33", "crossStreet": "Hildegardstr.", "lat": 52.48191245632279, "lng": 13.3204895384666, "labeledLatLngs": [{"label": "display", "lat": 52.48191245632279, "lng": 13.3204895384666}], "distance": 551, "postalCode": "10713", "cc": "DE", "city": "Berlin", "state": "Berlin", "country": "Deutschland", "formattedAddress": ["Blissestr. 33 (Hildegardstr.)", "10713 Berlin", "Deutschland"]}, "categories": [{"id": "4bf58dd8d48988d16e941735", "name": "Fast Food Restaurant", "pluralName": "Fast Food Restaurants", "shortName": "Fast Food", "icon": {"prefix": "https://ss3.4sqi.net/img/categories_v2/food/fastfood_", "suffix": ".png"}, "primary": true}], "photos": {"count": 0, "groups": []}}, "referralId": "e-0-4c4c7d8642b4d13a15412c80-8"}, {"reasons": {"count": 0, "items": [{"summary": "This spot is popular", "type": "general", "reasonName": "globalInteractionReason"}]}, "venue": {"id": "4c07aad90ed3c928b0d6797d", "name": "Thaiwiese im Preu\u00dfenpark", "location": {"address": "Pommersche Str.", "crossStreet": "W\u00fcrttembergische Str.", "lat": 52.493177777374655, "lng": 13.31206873172159, "labeledLatLngs": [{"label": "display", "lat": 52.493177777374655, "lng": 13.31206873172159}], "distance": 902, "postalCode": "10707", "cc": "DE", "neighborhood": "Fehrbelliner Platz", "city": "Berlin", "state": "Berlin", "country": "Deutschland", "formattedAddress": ["Pommersche Str. (W\u00fcrttembergische Str.)", "10707 Berlin", "Deutschland"]}, "categories": [{"id": "53e0feef498e5aac066fd8a9", "name": "Street Food Gathering", "pluralName": "Street Food Gatherings", "shortName": "Street Food Gathering", "icon": {"prefix": "https://ss3.4sqi.net/img/categories_v2/food/streetfood_", "suffix": ".png"}, "primary": true}], "photos": {"count": 0, "groups": []}}, "referralId": "e-0-4c07aad90ed3c928b0d6797d-9"}, {"reasons": {"count": 0, "items": [{"summary": "This spot is popular", "type": "general", "reasonName": "globalInteractionReason"}]}, "venue": {"id": "4bc9cd37fb84c9b6539c1b3e", "name": "Volkspark Wilmersdorf", "location": {"address": "Bundesallee", "crossStreet": "Am Volkspark", "lat": 52.48327679259119, "lng": 13.327703475952148, "labeledLatLngs": [{"label": "display", "lat": 52.48327679259119, "lng": 13.327703475952148}], "distance": 926, "postalCode": "10713", "cc": "DE", "neighborhood": "Bundesplatz", "city": "Berlin", "state": "Berlin", "country": "Deutschland", "formattedAddress": ["Bundesallee (Am Volkspark)", "10713 Berlin", "Deutschland"]}, "categories": [{"id": "4bf58dd8d48988d163941735", "name": "Park", "pluralName": "Parks", "shortName": "Park", "icon": {"prefix": "https://ss3.4sqi.net/img/categories_v2/parks_outdoors/park_", "suffix": ".png"}, "primary": true}], "photos": {"count": 0, "groups": []}}, "referralId": "e-0-4bc9cd37fb84c9b6539c1b3e-10"}, {"reasons": {"count": 0, "items": [{"summary": "This spot is popular", "type": "general", "reasonName": "globalInteractionReason"}]}, "venue": {"id": "4bddb02b587b2d7f40ab5409", "name": "A Telha", "location": {"address": "Holsteinische Str. 17", "lat": 52.49052, "lng": 13.325013, "labeledLatLngs": [{"label": "display", "lat": 52.49052, "lng": 13.325013}], "distance": 932, "postalCode": "10717", "cc": "DE", "city": "Berlin", "state": "Berlin", "country": "Deutschland", "formattedAddress": ["Holsteinische Str. 17", "10717 Berlin", "Deutschland"]}, "categories": [{"id": "4bf58dd8d48988d1ce941735", "name": "Seafood Restaurant", "pluralName": "Seafood Restaurants", "shortName": "Seafood", "icon": {"prefix": "https://ss3.4sqi.net/img/categories_v2/food/seafood_", "suffix": ".png"}, "primary": true}], "photos": {"count": 0, "groups": []}}, "referralId": "e-0-4bddb02b587b2d7f40ab5409-11"}, {"reasons": {"count": 0, "items": [{"summary": "This spot is popular", "type": "general", "reasonName": "globalInteractionReason"}]}, "venue": {"id": "5563623e498efee5415f6a37", "name": "Francesco Forgione", "location": {"address": "Uhlandstr. 104", "lat": 52.48740268473961, "lng": 13.322821855545044, "labeledLatLngs": [{"label": "display", "lat": 52.48740268473961, "lng": 13.322821855545044}], "distance": 621, "postalCode": "10717", "cc": "DE", "neighborhood": "Hohenzollernplatz", "city": "Berlin", "state": "Berlin", "country": "Deutschland", "formattedAddress": ["Uhlandstr. 104", "10717 Berlin", "Deutschland"]}, "categories": [{"id": "4bf58dd8d48988d110941735", "name": "Italian Restaurant", "pluralName": "Italian Restaurants", "shortName": "Italian", "icon": {"prefix": "https://ss3.4sqi.net/img/categories_v2/food/italian_", "suffix": ".png"}, "primary": true}], "photos": {"count": 0, "groups": []}}, "referralId": "e-0-5563623e498efee5415f6a37-12"}, {"reasons": {"count": 0, "items": [{"summary": "This spot is popular", "type": "general", "reasonName": "globalInteractionReason"}]}, "venue": {"id": "4e628839d164ddd5e5d21463", "name": "Restaurant  Zum Hax'nwirt", "location": {"address": "Hohenzollerndamm 185", "lat": 52.49152434969363, "lng": 13.317789540479223, "labeledLatLngs": [{"label": "display", "lat": 52.49152434969363, "lng": 13.317789540479223}], "distance": 741, "postalCode": "10713", "cc": "DE", "city": "Berlin", "state": "Berlin", "country": "Deutschland", "formattedAddress": ["Hohenzollerndamm 185", "10713 Berlin", "Deutschland"]}, "categories": [{"id": "4bf58dd8d48988d10d941735", "name": "German Restaurant", "pluralName": "German Restaurants", "shortName": "German", "icon": {"prefix": "https://ss3.4sqi.net/img/categories_v2/food/german_", "suffix": ".png"}, "primary": true}], "photos": {"count": 0, "groups": []}}, "referralId": "e-0-4e628839d164ddd5e5d21463-13"}, {"reasons": {"count": 0, "items": [{"summary": "This spot is popular", "type": "general", "reasonName": "globalInteractionReason"}]}, "venue": {"id": "4c4c0b349c8d2d7fcf4fd96b", "name": "Stadion Wilmersdorf", "location": {"address": "Fritz-Wildung-Str. 5-19", "lat": 52.48463449704732, "lng": 13.302413019894047, "labeledLatLngs": [{"label": "display", "lat": 52.48463449704732, "lng": 13.302413019894047}], "distance": 815, "postalCode": "14199", "cc": "DE", "city": "Berlin", "state": "Berlin", "country": "Deutschland", "formattedAddress": ["Fritz-Wildung-Str. 5-19", "14199 Berlin", "Deutschland"]}, "categories": [{"id": "4bf58dd8d48988d189941735", "name": "Football Stadium", "pluralName": "Football Stadiums", "shortName": "Football", "icon": {"prefix": "https://ss3.4sqi.net/img/categories_v2/arts_entertainment/stadium_football_", "suffix": ".png"}, "primary": true}], "photos": {"count": 0, "groups": []}}, "referralId": "e-0-4c4c0b349c8d2d7fcf4fd96b-14"}, {"reasons": {"count": 0, "items": [{"summary": "This spot is popular", "type": "general", "reasonName": "globalInteractionReason"}]}, "venue": {"id": "4db1891d6e81a2637eed52fd", "name": "Les 3 veuves de Wilmersdorf", "location": {"address": "Fechnerstr. 30", "lat": 52.489290357815726, "lng": 13.319579852846745, "labeledLatLngs": [{"label": "display", "lat": 52.489290357815726, "lng": 13.319579852846745}], "distance": 575, "postalCode": "10717", "cc": "DE", "city": "Berlin", "state": "Berlin", "country": "Deutschland", "formattedAddress": ["Fechnerstr. 30", "10717 Berlin", "Deutschland"]}, "categories": [{"id": "4bf58dd8d48988d10c941735", "name": "French Restaurant", "pluralName": "French Restaurants", "shortName": "French", "icon": {"prefix": "https://ss3.4sqi.net/img/categories_v2/food/french_", "suffix": ".png"}, "primary": true}], "photos": {"count": 0, "groups": []}}, "referralId": "e-0-4db1891d6e81a2637eed52fd-15"}, {"reasons": {"count": 0, "items": [{"summary": "This spot is popular", "type": "general", "reasonName": "globalInteractionReason"}]}, "venue": {"id": "4f903487e4b04cce8a47a160", "name": "Lucas-Tierwelt.de", "location": {"address": "Forckenbeckstr. 95", "lat": 52.478808923788954, "lng": 13.308287298915925, "labeledLatLngs": [{"label": "display", "lat": 52.478808923788954, "lng": 13.308287298915925}], "distance": 822, "postalCode": "14199", "cc": "DE", "city": "Berlin", "state": "Berlin", "country": "Deutschland", "formattedAddress": ["Forckenbeckstr. 95", "14199 Berlin", "Deutschland"]}, "categories": [{"id": "4bf58dd8d48988d100951735", "name": "Pet Store", "pluralName": "Pet Stores", "shortName": "Pet Store", "icon": {"prefix": "https://ss3.4sqi.net/img/categories_v2/shops/pet_store_", "suffix": ".png"}, "primary": true}], "photos": {"count": 0, "groups": []}}, "referralId": "e-0-4f903487e4b04cce8a47a160-16"}, {"reasons": {"count": 0, "items": [{"summary": "This spot is popular", "type": "general", "reasonName": "globalInteractionReason"}]}, "venue": {"id": "555b276b498eae864bc2cf97", "name": "BIO COMPANY", "location": {"address": "Fehrbelliner Platz 5", "lat": 52.49062387825447, "lng": 13.313468848806771, "labeledLatLngs": [{"label": "display", "lat": 52.49062387825447, "lng": 13.313468848806771}], "distance": 607, "postalCode": "10707", "cc": "DE", "city": "Berlin", "state": "Berlin", "country": "Deutschland", "formattedAddress": ["Fehrbelliner Platz 5", "10707 Berlin", "Deutschland"]}, "categories": [{"id": "52f2ab2ebcbc57f1066b8b45", "name": "Organic Grocery", "pluralName": "Organic Groceries", "shortName": "Organic Grocery", "icon": {"prefix": "https://ss3.4sqi.net/img/categories_v2/shops/food_grocery_", "suffix": ".png"}, "primary": true}], "photos": {"count": 0, "groups": []}, "venuePage": {"id": "453038825"}}, "referralId": "e-0-555b276b498eae864bc2cf97-17"}, {"reasons": {"count": 0, "items": [{"summary": "This spot is popular", "type": "general", "reasonName": "globalInteractionReason"}]}, "venue": {"id": "4d315d87eefa8cfa3bab2ab3", "name": "Weichardt Brot", "location": {"address": "Mehlitzstr. 7", "lat": 52.48595180187414, "lng": 13.32616546826688, "labeledLatLngs": [{"label": "display", "lat": 52.48595180187414, "lng": 13.32616546826688}], "distance": 801, "postalCode": "10715", "cc": "DE", "city": "Berlin", "state": "Berlin", "country": "Deutschland", "formattedAddress": ["Mehlitzstr. 7", "10715 Berlin", "Deutschland"]}, "categories": [{"id": "4bf58dd8d48988d16a941735", "name": "Bakery", "pluralName": "Bakeries", "shortName": "Bakery", "icon": {"prefix": "https://ss3.4sqi.net/img/categories_v2/food/bakery_", "suffix": ".png"}, "primary": true}], "photos": {"count": 0, "groups": []}}, "referralId": "e-0-4d315d87eefa8cfa3bab2ab3-18"}, {"reasons": {"count": 0, "items": [{"summary": "This spot is popular", "type": "general", "reasonName": "globalInteractionReason"}]}, "venue": {"id": "4b3b66b2f964a520577325e3", "name": "Preu\u00dfenpark", "location": {"address": "Brandenburgische Str.", "crossStreet": "W\u00fcrttembergische Str.", "lat": 52.49274801972638, "lng": 13.31295132637024, "labeledLatLngs": [{"label": "display", "lat": 52.49274801972638, "lng": 13.31295132637024}], "distance": 846, "postalCode": "10707", "cc": "DE", "city": "Berlin", "state": "Berlin", "country": "Deutschland", "formattedAddress": ["Brandenburgische Str. (W\u00fcrttembergische Str.)", "10707 Berlin", "Deutschland"]}, "categories": [{"id": "4bf58dd8d48988d163941735", "name": "Park", "pluralName": "Parks", "shortName": "Park", "icon": {"prefix": "https://ss3.4sqi.net/img/categories_v2/parks_outdoors/park_", "suffix": ".png"}, "primary": true}], "photos": {"count": 0, "groups": []}}, "referralId": "e-0-4b3b66b2f964a520577325e3-19"}, {"reasons": {"count": 0, "items": [{"summary": "This spot is popular", "type": "general", "reasonName": "globalInteractionReason"}]}, "venue": {"id": "4e3cf9e6a809ba757c03e266", "name": "Back-Art 132", "location": {"address": "Berliner Str. 132 - 134", "lat": 52.486433610055, "lng": 13.321500226419456, "labeledLatLngs": [{"label": "display", "lat": 52.486433610055, "lng": 13.321500226419456}], "distance": 500, "postalCode": "10715", "cc": "DE", "city": "Berlin", "state": "Berlin", "country": "Deutschland", "formattedAddress": ["Berliner Str. 132 - 134", "10715 Berlin", "Deutschland"]}, "categories": [{"id": "4bf58dd8d48988d16a941735", "name": "Bakery", "pluralName": "Bakeries", "shortName": "Bakery", "icon": {"prefix": "https://ss3.4sqi.net/img/categories_v2/food/bakery_", "suffix": ".png"}, "primary": true}], "photos": {"count": 0, "groups": []}}, "referralId": "e-0-4e3cf9e6a809ba757c03e266-20"}, {"reasons": {"count": 0, "items": [{"summary": "This spot is popular", "type": "general", "reasonName": "globalInteractionReason"}]}, "venue": {"id": "4c66e091e75ac92853cff8da", "name": "Paracas", "location": {"address": "G\u00fcntzelstr. 37a", "lat": 52.491891, "lng": 13.321121, "labeledLatLngs": [{"label": "display", "lat": 52.491891, "lng": 13.321121}], "distance": 873, "postalCode": "10717", "cc": "DE", "city": "Berlin", "state": "Berlin", "country": "Deutschland", "formattedAddress": ["G\u00fcntzelstr. 37a", "10717 Berlin", "Deutschland"]}, "categories": [{"id": "4bf58dd8d48988d1be941735", "name": "Latin American Restaurant", "pluralName": "Latin American Restaurants", "shortName": "Latin American", "icon": {"prefix": "https://ss3.4sqi.net/img/categories_v2/food/latinamerican_", "suffix": ".png"}, "primary": true}], "photos": {"count": 0, "groups": []}}, "referralId": "e-0-4c66e091e75ac92853cff8da-21"}, {"reasons": {"count": 0, "items": [{"summary": "This spot is popular", "type": "general", "reasonName": "globalInteractionReason"}]}, "venue": {"id": "586fe4c4cc05d163d8f13975", "name": "ANH BA", "location": {"address": "Nassauische Str. 36", "crossStreet": "Gasteiner Str.", "lat": 52.487191, "lng": 13.326351, "labeledLatLngs": [{"label": "display", "lat": 52.487191, "lng": 13.326351}], "distance": 839, "postalCode": "10717", "cc": "DE", "city": "Berlin", "state": "Berlin", "country": "Deutschland", "formattedAddress": ["Nassauische Str. 36 (Gasteiner Str.)", "10717 Berlin", "Deutschland"]}, "categories": [{"id": "4bf58dd8d48988d14a941735", "name": "Vietnamese Restaurant", "pluralName": "Vietnamese Restaurants", "shortName": "Vietnamese", "icon": {"prefix": "https://ss3.4sqi.net/img/categories_v2/food/vietnamese_", "suffix": ".png"}, "primary": true}], "photos": {"count": 0, "groups": []}}, "referralId": "e-0-586fe4c4cc05d163d8f13975-22"}, {"reasons": {"count": 0, "items": [{"summary": "This spot is popular", "type": "general", "reasonName": "globalInteractionReason"}]}, "venue": {"id": "5237587511d2f43dc4943f47", "name": "LEDO", "location": {"address": "Forckenbeckstr. 1", "lat": 52.47940310104326, "lng": 13.309858221350758, "labeledLatLngs": [{"label": "display", "lat": 52.47940310104326, "lng": 13.309858221350758}], "distance": 714, "postalCode": "14199", "cc": "DE", "city": "Berlin", "state": "Berlin", "country": "Deutschland", "formattedAddress": ["Forckenbeckstr. 1", "14199 Berlin", "Deutschland"]}, "categories": [{"id": "4bf58dd8d48988d118951735", "name": "Grocery Store", "pluralName": "Grocery Stores", "shortName": "Grocery Store", "icon": {"prefix": "https://ss3.4sqi.net/img/categories_v2/shops/food_grocery_", "suffix": ".png"}, "primary": true}], "photos": {"count": 0, "groups": []}}, "referralId": "e-0-5237587511d2f43dc4943f47-23"}, {"reasons": {"count": 0, "items": [{"summary": "This spot is popular", "type": "general", "reasonName": "globalInteractionReason"}]}, "venue": {"id": "4b6dc6d2f964a520c58e2ce3", "name": "Badenscher Hof", "location": {"address": "Badensche Str. 29", "lat": 52.48638842419361, "lng": 13.32775270543339, "labeledLatLngs": [{"label": "display", "lat": 52.48638842419361, "lng": 13.32775270543339}], "distance": 914, "postalCode": "10715", "cc": "DE", "city": "Berlin", "state": "Berlin", "country": "Deutschland", "formattedAddress": ["Badensche Str. 29", "10715 Berlin", "Deutschland"]}, "categories": [{"id": "4bf58dd8d48988d1e7931735", "name": "Jazz Club", "pluralName": "Jazz Clubs", "shortName": "Jazz Club", "icon": {"prefix": "https://ss3.4sqi.net/img/categories_v2/arts_entertainment/musicvenue_jazzclub_", "suffix": ".png"}, "primary": true}], "photos": {"count": 0, "groups": []}}, "referralId": "e-0-4b6dc6d2f964a520c58e2ce3-24"}, {"reasons": {"count": 0, "items": [{"summary": "This spot is popular", "type": "general", "reasonName": "globalInteractionReason"}]}, "venue": {"id": "4c0a39d2a1b32d7f7bee98f0", "name": "Sommerbad Wilmersdorf", "location": {"address": "Forckenbeckstr. 14", "lat": 52.48181926989956, "lng": 13.303370787799956, "labeledLatLngs": [{"label": "display", "lat": 52.48181926989956, "lng": 13.303370787799956}], "distance": 836, "postalCode": "14199", "cc": "DE", "city": "Berlin", "state": "Berlin", "country": "Deutschland", "formattedAddress": ["Forckenbeckstr. 14", "14199 Berlin", "Deutschland"]}, "categories": [{"id": "4bf58dd8d48988d15e941735", "name": "Pool", "pluralName": "Pools", "shortName": "Pool", "icon": {"prefix": "https://ss3.4sqi.net/img/categories_v2/parks_outdoors/pool_", "suffix": ".png"}, "primary": true}], "photos": {"count": 0, "groups": []}}, "referralId": "e-0-4c0a39d2a1b32d7f7bee98f0-25"}, {"reasons": {"count": 0, "items": [{"summary": "This spot is popular", "type": "general", "reasonName": "globalInteractionReason"}]}, "venue": {"id": "4bf405d498ac0f47257963a8", "name": "La Mia Toscana", "location": {"address": "Mecklenburgische Str. 85", "lat": 52.48208670761737, "lng": 13.31670713079665, "labeledLatLngs": [{"label": "display", "lat": 52.48208670761737, "lng": 13.31670713079665}], "distance": 379, "postalCode": "10713", "cc": "DE", "city": "Berlin", "state": "Berlin", "country": "Deutschland", "formattedAddress": ["Mecklenburgische Str. 85", "10713 Berlin", "Deutschland"]}, "categories": [{"id": "4bf58dd8d48988d110941735", "name": "Italian Restaurant", "pluralName": "Italian Restaurants", "shortName": "Italian", "icon": {"prefix": "https://ss3.4sqi.net/img/categories_v2/food/italian_", "suffix": ".png"}, "primary": true}], "photos": {"count": 0, "groups": []}}, "referralId": "e-0-4bf405d498ac0f47257963a8-26"}, {"reasons": {"count": 0, "items": [{"summary": "This spot is popular", "type": "general", "reasonName": "globalInteractionReason"}]}, "venue": {"id": "4b6c7850f964a520b33c2ce3", "name": "Trattoria Vale Un Peccato", "location": {"address": "A\u00dfmannshauser Str. 26", "lat": 52.47809217479529, "lng": 13.312870105720377, "labeledLatLngs": [{"label": "display", "lat": 52.47809217479529, "lng": 13.312870105720377}], "distance": 797, "postalCode": "14197", "cc": "DE", "city": "Berlin", "state": "Berlin", "country": "Deutschland", "formattedAddress": ["A\u00dfmannshauser Str. 26", "14197 Berlin", "Deutschland"]}, "categories": [{"id": "55a5a1ebe4b013909087cb7f", "name": "Trattoria/Osteria", "pluralName": "Trattorias/Osterias", "shortName": "Trattoria/Osteria", "icon": {"prefix": "https://ss3.4sqi.net/img/categories_v2/food/italian_", "suffix": ".png"}, "primary": true}], "photos": {"count": 0, "groups": []}}, "referralId": "e-0-4b6c7850f964a520b33c2ce3-27"}, {"reasons": {"count": 0, "items": [{"summary": "This spot is popular", "type": "general", "reasonName": "globalInteractionReason"}]}, "venue": {"id": "4c613d1854ac0f47ef5db721", "name": "Les Baguettes", "location": {"address": "Berliner Str. 22", "lat": 52.4866644300123, "lng": 13.326319456100464, "labeledLatLngs": [{"label": "display", "lat": 52.4866644300123, "lng": 13.326319456100464}], "distance": 824, "postalCode": "10715", "cc": "DE", "city": "Berlin", "state": "Berlin", "country": "Deutschland", "formattedAddress": ["Berliner Str. 22", "10715 Berlin", "Deutschland"]}, "categories": [{"id": "4bf58dd8d48988d16a941735", "name": "Bakery", "pluralName": "Bakeries", "shortName": "Bakery", "icon": {"prefix": "https://ss3.4sqi.net/img/categories_v2/food/bakery_", "suffix": ".png"}, "primary": true}], "photos": {"count": 0, "groups": []}}, "referralId": "e-0-4c613d1854ac0f47ef5db721-28"}, {"reasons": {"count": 0, "items": [{"summary": "This spot is popular", "type": "general", "reasonName": "globalInteractionReason"}]}, "venue": {"id": "52694cf711d20a81bd1c1560", "name": "Vino y Mar", "location": {"address": "Gasteiner Str. 11", "lat": 52.487628, "lng": 13.321613, "labeledLatLngs": [{"label": "display", "lat": 52.487628, "lng": 13.321613}], "distance": 558, "postalCode": "10717", "cc": "DE", "city": "Berlin", "state": "Berlin", "country": "Deutschland", "formattedAddress": ["Gasteiner Str. 11", "10717 Berlin", "Deutschland"]}, "categories": [{"id": "4bf58dd8d48988d1db931735", "name": "Tapas Restaurant", "pluralName": "Tapas Restaurants", "shortName": "Tapas", "icon": {"prefix": "https://ss3.4sqi.net/img/categories_v2/food/tapas_", "suffix": ".png"}, "primary": true}], "photos": {"count": 0, "groups": []}}, "referralId": "e-0-52694cf711d20a81bd1c1560-29"}, {"reasons": {"count": 0, "items": [{"summary": "This spot is popular", "type": "general", "reasonName": "globalInteractionReason"}]}, "venue": {"id": "4a1c69dff964a5203c7b1fe3", "name": "EDEKA", "location": {"address": "Berliner Str. 24-25", "lat": 52.4867891, "lng": 13.3255348, "labeledLatLngs": [{"label": "display", "lat": 52.4867891, "lng": 13.3255348}], "distance": 775, "postalCode": "10715", "cc": "DE", "city": "Berlin", "state": "Berlin", "country": "Deutschland", "formattedAddress": ["Berliner Str. 24-25", "10715 Berlin", "Deutschland"]}, "categories": [{"id": "52f2ab2ebcbc57f1066b8b46", "name": "Supermarket", "pluralName": "Supermarkets", "shortName": "Supermarket", "icon": {"prefix": "https://ss3.4sqi.net/img/categories_v2/shops/food_grocery_", "suffix": ".png"}, "primary": true}], "photos": {"count": 0, "groups": []}, "venuePage": {"id": "556704673"}}, "referralId": "e-0-4a1c69dff964a5203c7b1fe3-30"}, {"reasons": {"count": 0, "items": [{"summary": "This spot is popular", "type": "general", "reasonName": "globalInteractionReason"}]}, "venue": {"id": "4d7a0c0bb39b2c0f76e8ea90", "name": "Tegernseer T\u00f6nnchen", "location": {"address": "Berliner Str. 118", "lat": 52.486439541927645, "lng": 13.31753238293806, "labeledLatLngs": [{"label": "display", "lat": 52.486439541927645, "lng": 13.31753238293806}], "distance": 253, "cc": "DE", "city": "Berlin", "state": "Berlin", "country": "Deutschland", "formattedAddress": ["Berliner Str. 118", "Berlin", "Deutschland"]}, "categories": [{"id": "56aa371ce4b08b9a8d573572", "name": "Bavarian Restaurant", "pluralName": "Bavarian Restaurants", "shortName": "Bavarian", "icon": {"prefix": "https://ss3.4sqi.net/img/categories_v2/food/german_", "suffix": ".png"}, "primary": true}], "photos": {"count": 0, "groups": []}}, "referralId": "e-0-4d7a0c0bb39b2c0f76e8ea90-31"}, {"reasons": {"count": 0, "items": [{"summary": "This spot is popular", "type": "general", "reasonName": "globalInteractionReason"}]}, "venue": {"id": "4adcda76f964a520c94521e3", "name": "Stra\u00dfenbahn Kneipenkollektiv", "location": {"address": "Laubacher Str. 29", "lat": 52.47721302162901, "lng": 13.320579528808592, "labeledLatLngs": [{"label": "display", "lat": 52.47721302162901, "lng": 13.320579528808592}], "distance": 982, "postalCode": "14197", "cc": "DE", "city": "Berlin", "state": "Berlin", "country": "Deutschland", "formattedAddress": ["Laubacher Str. 29", "14197 Berlin", "Deutschland"]}, "categories": [{"id": "4bf58dd8d48988d11b941735", "name": "Pub", "pluralName": "Pubs", "shortName": "Pub", "icon": {"prefix": "https://ss3.4sqi.net/img/categories_v2/nightlife/pub_", "suffix": ".png"}, "primary": true}], "photos": {"count": 0, "groups": []}}, "referralId": "e-0-4adcda76f964a520c94521e3-32"}, {"reasons": {"count": 0, "items": [{"summary": "This spot is popular", "type": "general", "reasonName": "globalInteractionReason"}]}, "venue": {"id": "4b07cb4ef964a520140023e3", "name": "Horst-Dohm-Eisstadion", "location": {"address": "Fritz-Wildung-Stra\u00dfe 9", "lat": 52.48450857726302, "lng": 13.30111431543289, "labeledLatLngs": [{"label": "display", "lat": 52.48450857726302, "lng": 13.30111431543289}], "distance": 904, "postalCode": "14199", "cc": "DE", "city": "Berlin", "state": "Berlin", "country": "Deutschland", "formattedAddress": ["Fritz-Wildung-Stra\u00dfe 9", "14199 Berlin", "Deutschland"]}, "categories": [{"id": "4bf58dd8d48988d168941735", "name": "Skating Rink", "pluralName": "Skating Rinks", "shortName": "Skating Rink", "icon": {"prefix": "https://ss3.4sqi.net/img/categories_v2/parks_outdoors/skatingrink_", "suffix": ".png"}, "primary": true}], "photos": {"count": 0, "groups": []}}, "referralId": "e-0-4b07cb4ef964a520140023e3-33"}, {"reasons": {"count": 0, "items": [{"summary": "This spot is popular", "type": "general", "reasonName": "globalInteractionReason"}]}, "venue": {"id": "4e9d6933754ae3862f1d1467", "name": "Aral", "location": {"address": "Blissestr. 21", "lat": 52.48427111, "lng": 13.32072707, "labeledLatLngs": [{"label": "display", "lat": 52.48427111, "lng": 13.32072707}], "distance": 440, "postalCode": "10713", "cc": "DE", "city": "Berlin", "state": "Berlin", "country": "Deutschland", "formattedAddress": ["Blissestr. 21", "10713 Berlin", "Deutschland"]}, "categories": [{"id": "4bf58dd8d48988d113951735", "name": "Gas Station", "pluralName": "Gas Stations", "shortName": "Gas Station", "icon": {"prefix": "https://ss3.4sqi.net/img/categories_v2/shops/gas_", "suffix": ".png"}, "primary": true}], "photos": {"count": 0, "groups": []}, "venuePage": {"id": "588447911"}}, "referralId": "e-0-4e9d6933754ae3862f1d1467-34"}, {"reasons": {"count": 0, "items": [{"summary": "This spot is popular", "type": "general", "reasonName": "globalInteractionReason"}]}, "venue": {"id": "4bd09e151f89ce7230bd67ea", "name": "Hotel Villa Konstanz", "location": {"address": "Konstanzer Str. 30", "lat": 52.48933225682555, "lng": 13.307978958739126, "labeledLatLngs": [{"label": "display", "lat": 52.48933225682555, "lng": 13.307978958739126}], "distance": 633, "postalCode": "10709", "cc": "DE", "city": "Berlin", "state": "Berlin", "country": "Deutschland", "formattedAddress": ["Konstanzer Str. 30", "10709 Berlin", "Deutschland"]}, "categories": [{"id": "4bf58dd8d48988d1fa931735", "name": "Hotel", "pluralName": "Hotels", "shortName": "Hotel", "icon": {"prefix": "https://ss3.4sqi.net/img/categories_v2/travel/hotel_", "suffix": ".png"}, "primary": true}], "photos": {"count": 0, "groups": []}}, "referralId": "e-0-4bd09e151f89ce7230bd67ea-35"}, {"reasons": {"count": 0, "items": [{"summary": "This spot is popular", "type": "general", "reasonName": "globalInteractionReason"}]}, "venue": {"id": "4b1cd5e3f964a5200e0a24e3", "name": "Jebens Conditorei & Caf\u00e9", "location": {"address": "Hohenzollerndamm 47a", "crossStreet": "Seesener Str.", "lat": 52.488710717261064, "lng": 13.30157850626352, "labeledLatLngs": [{"label": "display", "lat": 52.488710717261064, "lng": 13.30157850626352}], "distance": 953, "cc": "DE", "city": "Berlin", "state": "Berlin", "country": "Deutschland", "formattedAddress": ["Hohenzollerndamm 47a (Seesener Str.)", "Berlin", "Deutschland"]}, "categories": [{"id": "4bf58dd8d48988d1d0941735", "name": "Dessert Shop", "pluralName": "Dessert Shops", "shortName": "Desserts", "icon": {"prefix": "https://ss3.4sqi.net/img/categories_v2/food/dessert_", "suffix": ".png"}, "primary": true}], "photos": {"count": 0, "groups": []}}, "referralId": "e-0-4b1cd5e3f964a5200e0a24e3-36"}, {"reasons": {"count": 0, "items": [{"summary": "This spot is popular", "type": "general", "reasonName": "globalInteractionReason"}]}, "venue": {"id": "5226ef4211d2409098d50feb", "name": "Happiness-Heart CAFE", "location": {"address": "G\u00fcntzelstr. 22", "crossStreet": "Holsteinische Str.", "lat": 52.49130580181417, "lng": 13.324930078719861, "labeledLatLngs": [{"label": "display", "lat": 52.49130580181417, "lng": 13.324930078719861}], "distance": 985, "postalCode": "10717", "cc": "DE", "city": "Berlin", "state": "Berlin", "country": "Deutschland", "formattedAddress": ["G\u00fcntzelstr. 22 (Holsteinische Str.)", "10717 Berlin", "Deutschland"]}, "categories": [{"id": "4bf58dd8d48988d1e0931735", "name": "Coffee Shop", "pluralName": "Coffee Shops", "shortName": "Coffee Shop", "icon": {"prefix": "https://ss3.4sqi.net/img/categories_v2/food/coffeeshop_", "suffix": ".png"}, "primary": true}], "photos": {"count": 0, "groups": []}}, "referralId": "e-0-5226ef4211d2409098d50feb-37"}, {"reasons": {"count": 0, "items": [{"summary": "This spot is popular", "type": "general", "reasonName": "globalInteractionReason"}]}, "venue": {"id": "4d7a0000ceaa224bce640271", "name": "AssaTir", "location": {"address": "Uhlandstr. 83", "lat": 52.48943090490464, "lng": 13.32280384030698, "labeledLatLngs": [{"label": "display", "lat": 52.48943090490464, "lng": 13.32280384030698}], "distance": 739, "postalCode": "10717", "cc": "DE", "city": "Berlin", "state": "Berlin", "country": "Deutschland", "formattedAddress": ["Uhlandstr. 83", "10717 Berlin", "Deutschland"]}, "categories": [{"id": "4bf58dd8d48988d10b941735", "name": "Falafel Restaurant", "pluralName": "Falafel Restaurants", "shortName": "Falafel", "icon": {"prefix": "https://ss3.4sqi.net/img/categories_v2/food/falafel_", "suffix": ".png"}, "primary": true}], "photos": {"count": 0, "groups": []}}, "referralId": "e-0-4d7a0000ceaa224bce640271-38"}, {"reasons": {"count": 0, "items": [{"summary": "This spot is popular", "type": "general", "reasonName": "globalInteractionReason"}]}, "venue": {"id": "4ba4ef9bf964a5204fc538e3", "name": "Monheim", "location": {"address": "Blissestr. 12", "lat": 52.48514046140478, "lng": 13.320466553424968, "labeledLatLngs": [{"label": "display", "lat": 52.48514046140478, "lng": 13.320466553424968}], "distance": 411, "postalCode": "10713", "cc": "DE", "city": "Berlin", "state": "Berlin", "country": "Deutschland", "formattedAddress": ["Blissestr. 12", "10713 Berlin", "Deutschland"]}, "categories": [{"id": "4bf58dd8d48988d1c9941735", "name": "Ice Cream Shop", "pluralName": "Ice Cream Shops", "shortName": "Ice Cream", "icon": {"prefix": "https://ss3.4sqi.net/img/categories_v2/food/icecream_", "suffix": ".png"}, "primary": true}], "photos": {"count": 0, "groups": []}}, "referralId": "e-0-4ba4ef9bf964a5204fc538e3-39"}, {"reasons": {"count": 0, "items": [{"summary": "This spot is popular", "type": "general", "reasonName": "globalInteractionReason"}]}, "venue": {"id": "4b7adc45f964a520ad412fe3", "name": "Sushi Miyabi", "location": {"address": "Uhlandstr. 104-105", "lat": 52.48713535160029, "lng": 13.322618868340347, "labeledLatLngs": [{"label": "display", "lat": 52.48713535160029, "lng": 13.322618868340347}], "distance": 597, "postalCode": "10717", "cc": "DE", "city": "Berlin", "state": "Berlin", "country": "Deutschland", "formattedAddress": ["Uhlandstr. 104-105", "10717 Berlin", "Deutschland"]}, "categories": [{"id": "4bf58dd8d48988d1d2941735", "name": "Sushi Restaurant", "pluralName": "Sushi Restaurants", "shortName": "Sushi", "icon": {"prefix": "https://ss3.4sqi.net/img/categories_v2/food/sushi_", "suffix": ".png"}, "primary": true}], "photos": {"count": 0, "groups": []}}, "referralId": "e-0-4b7adc45f964a520ad412fe3-40"}, {"reasons": {"count": 0, "items": [{"summary": "This spot is popular", "type": "general", "reasonName": "globalInteractionReason"}]}, "venue": {"id": "4b576f57f964a520843728e3", "name": "Gar\u00e7on", "location": {"address": "Fechnerstr. 30", "crossStreet": "Sigmaringerstr. 8", "lat": 52.489348197760535, "lng": 13.319556529543785, "labeledLatLngs": [{"label": "display", "lat": 52.489348197760535, "lng": 13.319556529543785}], "distance": 579, "postalCode": "10717", "cc": "DE", "city": "Berlin", "state": "Berlin", "country": "Deutschland", "formattedAddress": ["Fechnerstr. 30 (Sigmaringerstr. 8)", "10717 Berlin", "Deutschland"]}, "categories": [{"id": "4bf58dd8d48988d10c941735", "name": "French Restaurant", "pluralName": "French Restaurants", "shortName": "French", "icon": {"prefix": "https://ss3.4sqi.net/img/categories_v2/food/french_", "suffix": ".png"}, "primary": true}], "photos": {"count": 0, "groups": []}}, "referralId": "e-0-4b576f57f964a520843728e3-41"}, {"reasons": {"count": 0, "items": [{"summary": "This spot is popular", "type": "general", "reasonName": "globalInteractionReason"}]}, "venue": {"id": "5489852d498e22e197dc574d", "name": "Rossmann", "location": {"address": "Fehrbelliner Platz 5", "lat": 52.49009175363009, "lng": 13.312969906389956, "labeledLatLngs": [{"label": "display", "lat": 52.49009175363009, "lng": 13.312969906389956}], "distance": 553, "postalCode": "10707", "cc": "DE", "city": "Berlin", "state": "Berlin", "country": "Deutschland", "formattedAddress": ["Fehrbelliner Platz 5", "10707 Berlin", "Deutschland"]}, "categories": [{"id": "5745c2e4498e11e7bccabdbd", "name": "Drugstore", "pluralName": "Drugstores", "shortName": "Drugstore", "icon": {"prefix": "https://ss3.4sqi.net/img/categories_v2/shops/pharmacy_", "suffix": ".png"}, "primary": true}], "photos": {"count": 0, "groups": []}}, "referralId": "e-0-5489852d498e22e197dc574d-42"}, {"reasons": {"count": 0, "items": [{"summary": "This spot is popular", "type": "general", "reasonName": "globalInteractionReason"}]}, "venue": {"id": "549078d4498e8b52351ff93a", "name": "Bobsek Burger", "location": {"address": "Berliner Str. 30-31", "lat": 52.486797012275915, "lng": 13.323886164039473, "labeledLatLngs": [{"label": "display", "lat": 52.486797012275915, "lng": 13.323886164039473}], "distance": 667, "postalCode": "10717", "cc": "DE", "city": "Berlin", "state": "Berlin", "country": "Deutschland", "formattedAddress": ["Berliner Str. 30-31", "10717 Berlin", "Deutschland"]}, "categories": [{"id": "4bf58dd8d48988d16c941735", "name": "Burger Joint", "pluralName": "Burger Joints", "shortName": "Burgers", "icon": {"prefix": "https://ss3.4sqi.net/img/categories_v2/food/burger_", "suffix": ".png"}, "primary": true}], "photos": {"count": 0, "groups": []}}, "referralId": "e-0-549078d4498e8b52351ff93a-43"}, {"reasons": {"count": 0, "items": [{"summary": "This spot is popular", "type": "general", "reasonName": "globalInteractionReason"}]}, "venue": {"id": "51407012e4b062f6259011b8", "name": "West Burger", "location": {"address": "Uhlandstr. 104", "lat": 52.48686340440469, "lng": 13.322549768532516, "labeledLatLngs": [{"label": "display", "lat": 52.48686340440469, "lng": 13.322549768532516}], "distance": 582, "postalCode": "10717", "cc": "DE", "city": "Berlin", "state": "Berlin", "country": "Deutschland", "formattedAddress": ["Uhlandstr. 104", "10717 Berlin", "Deutschland"]}, "categories": [{"id": "4bf58dd8d48988d16c941735", "name": "Burger Joint", "pluralName": "Burger Joints", "shortName": "Burgers", "icon": {"prefix": "https://ss3.4sqi.net/img/categories_v2/food/burger_", "suffix": ".png"}, "primary": true}], "photos": {"count": 0, "groups": []}}, "referralId": "e-0-51407012e4b062f6259011b8-44"}, {"reasons": {"count": 0, "items": [{"summary": "This spot is popular", "type": "general", "reasonName": "globalInteractionReason"}]}, "venue": {"id": "4d5eabf0d7206ea8949fdff1", "name": "Getr\u00e4nke Hoffmann", "location": {"address": "Westf\u00e4lische Str. 85", "crossStreet": "Bl\u00fcthgenstr.", "lat": 52.49231872052013, "lng": 13.307482308615704, "labeledLatLngs": [{"label": "display", "lat": 52.49231872052013, "lng": 13.307482308615704}], "distance": 921, "postalCode": "10709", "cc": "DE", "city": "Berlin", "state": "Berlin", "country": "Deutschland", "formattedAddress": ["Westf\u00e4lische Str. 85 (Bl\u00fcthgenstr.)", "10709 Berlin", "Deutschland"]}, "categories": [{"id": "4bf58dd8d48988d1f9941735", "name": "Food & Drink Shop", "pluralName": "Food & Drink Shops", "shortName": "Food & Drink", "icon": {"prefix": "https://ss3.4sqi.net/img/categories_v2/shops/foodanddrink_", "suffix": ".png"}, "primary": true}], "photos": {"count": 0, "groups": []}}, "referralId": "e-0-4d5eabf0d7206ea8949fdff1-45"}, {"reasons": {"count": 0, "items": [{"summary": "This spot is popular", "type": "general", "reasonName": "globalInteractionReason"}]}, "venue": {"id": "4c29e7dc9fb5d13a62c79b57", "name": "Berliner Hof", "location": {"address": "Hildegardstrasse 14", "lat": 52.481947, "lng": 13.322407, "labeledLatLngs": [{"label": "display", "lat": 52.481947, "lng": 13.322407}], "distance": 652, "postalCode": "10715", "cc": "DE", "city": "Berlin", "state": "Berlin", "country": "Deutschland", "formattedAddress": ["Hildegardstrasse 14", "10715 Berlin", "Deutschland"]}, "categories": [{"id": "4bf58dd8d48988d10d941735", "name": "German Restaurant", "pluralName": "German Restaurants", "shortName": "German", "icon": {"prefix": "https://ss3.4sqi.net/img/categories_v2/food/german_", "suffix": ".png"}, "primary": true}], "photos": {"count": 0, "groups": []}}, "referralId": "e-0-4c29e7dc9fb5d13a62c79b57-46"}, {"reasons": {"count": 0, "items": [{"summary": "This spot is popular", "type": "general", "reasonName": "globalInteractionReason"}]}, "venue": {"id": "516c237ee4b056efa6de5558", "name": "Istanbul Grill", "location": {"address": "Brandenburgische Str. 1", "lat": 52.486741701588656, "lng": 13.320035683184551, "labeledLatLngs": [{"label": "display", "lat": 52.486741701588656, "lng": 13.320035683184551}], "distance": 418, "postalCode": "10713", "cc": "DE", "city": "Berlin", "state": "Berlin", "country": "Deutschland", "formattedAddress": ["Brandenburgische Str. 1", "10713 Berlin", "Deutschland"]}, "categories": [{"id": "5283c7b4e4b094cb91ec88d8", "name": "Doner Restaurant", "pluralName": "Doner Restaurants", "shortName": "Doner", "icon": {"prefix": "https://ss3.4sqi.net/img/categories_v2/food/turkish_", "suffix": ".png"}, "primary": true}], "photos": {"count": 0, "groups": []}}, "referralId": "e-0-516c237ee4b056efa6de5558-47"}, {"reasons": {"count": 0, "items": [{"summary": "This spot is popular", "type": "general", "reasonName": "globalInteractionReason"}]}, "venue": {"id": "4b60a1faf964a52067f129e3", "name": "Tulum", "location": {"address": "Am Volkspark 85", "lat": 52.4830587748448, "lng": 13.320454716849786, "labeledLatLngs": [{"label": "display", "lat": 52.4830587748448, "lng": 13.320454716849786}], "distance": 474, "postalCode": "10715", "cc": "DE", "city": "Berlin", "state": "Berlin", "country": "Deutschland", "formattedAddress": ["Am Volkspark 85", "10715 Berlin", "Deutschland"]}, "categories": [{"id": "4bf58dd8d48988d1c1941735", "name": "Mexican Restaurant", "pluralName": "Mexican Restaurants", "shortName": "Mexican", "icon": {"prefix": "https://ss3.4sqi.net/img/categories_v2/food/mexican_", "suffix": ".png"}, "primary": true}], "photos": {"count": 0, "groups": []}}, "referralId": "e-0-4b60a1faf964a52067f129e3-48"}, {"reasons": {"count": 0, "items": [{"summary": "This spot is popular", "type": "general", "reasonName": "globalInteractionReason"}]}, "venue": {"id": "525ada06498e016c56120d89", "name": "Salumeria Veneto", "location": {"address": "Fechnerstr. 30", "lat": 52.4894177089186, "lng": 13.319841167621245, "labeledLatLngs": [{"label": "display", "lat": 52.4894177089186, "lng": 13.319841167621245}], "distance": 597, "postalCode": "10717", "cc": "DE", "city": "Berlin", "state": "Berlin", "country": "Deutschland", "formattedAddress": ["Fechnerstr. 30", "10717 Berlin", "Deutschland"]}, "categories": [{"id": "4bf58dd8d48988d110941735", "name": "Italian Restaurant", "pluralName": "Italian Restaurants", "shortName": "Italian", "icon": {"prefix": "https://ss3.4sqi.net/img/categories_v2/food/italian_", "suffix": ".png"}, "primary": true}], "photos": {"count": 0, "groups": []}}, "referralId": "e-0-525ada06498e016c56120d89-49"}, {"reasons": {"count": 0, "items": [{"summary": "This spot is popular", "type": "general", "reasonName": "globalInteractionReason"}]}, "venue": {"id": "4cae032c2303a143f45eebf0", "name": "Rabab", "location": {"address": "Blissestr. 44", "lat": 52.48109057820265, "lng": 13.320329658713403, "labeledLatLngs": [{"label": "display", "lat": 52.48109057820265, "lng": 13.320329658713403}], "distance": 608, "postalCode": "10713", "cc": "DE", "city": "Berlin", "state": "Berlin", "country": "Deutschland", "formattedAddress": ["Blissestr. 44", "10713 Berlin", "Deutschland"]}, "categories": [{"id": "4bf58dd8d48988d119941735", "name": "Hookah Bar", "pluralName": "Hookah Bars", "shortName": "Hookah Bar", "icon": {"prefix": "https://ss3.4sqi.net/img/categories_v2/nightlife/hookahbar_", "suffix": ".png"}, "primary": true}], "photos": {"count": 0, "groups": []}}, "referralId": "e-0-4cae032c2303a143f45eebf0-50"}, {"reasons": {"count": 0, "items": [{"summary": "This spot is popular", "type": "general", "reasonName": "globalInteractionReason"}]}, "venue": {"id": "52a317d211d2f2843a65bcbe", "name": "Chuchich\u00e4schtli", "location": {"address": "Holsteinische Str. 19", "crossStreet": "G\u00fcntzelstr.", "lat": 52.49098258260592, "lng": 13.32471586220561, "labeledLatLngs": [{"label": "display", "lat": 52.49098258260592, "lng": 13.32471586220561}], "distance": 950, "postalCode": "10717", "cc": "DE", "city": "Berlin", "state": "Berlin", "country": "Deutschland", "formattedAddress": ["Holsteinische Str. 19 (G\u00fcntzelstr.)", "10717 Berlin", "Deutschland"]}, "categories": [{"id": "4bf58dd8d48988d1f5941735", "name": "Gourmet Shop", "pluralName": "Gourmet Shops", "shortName": "Gourmet", "icon": {"prefix": "https://ss3.4sqi.net/img/categories_v2/shops/food_gourmet_", "suffix": ".png"}, "primary": true}], "photos": {"count": 0, "groups": []}, "venuePage": {"id": "88777410"}}, "referralId": "e-0-52a317d211d2f2843a65bcbe-51"}, {"reasons": {"count": 0, "items": [{"summary": "This spot is popular", "type": "general", "reasonName": "globalInteractionReason"}]}, "venue": {"id": "4fd72d35e4b0ac0b1e89e0ec", "name": "Caf\u00e9 am Volkspark", "location": {"address": "Livl\u00e4ndische Stra\u00dfe 2", "crossStreet": "Am Volkspark", "lat": 52.482662612451534, "lng": 13.325965404510498, "labeledLatLngs": [{"label": "display", "lat": 52.482662612451534, "lng": 13.325965404510498}], "distance": 833, "postalCode": "10715", "cc": "DE", "city": "Berlin", "state": "Berlin", "country": "Deutschland", "formattedAddress": ["Livl\u00e4ndische Stra\u00dfe 2 (Am Volkspark)", "10715 Berlin", "Deutschland"]}, "categories": [{"id": "4bf58dd8d48988d16d941735", "name": "Caf\u00e9", "pluralName": "Caf\u00e9s", "shortName": "Caf\u00e9", "icon": {"prefix": "https://ss3.4sqi.net/img/categories_v2/food/cafe_", "suffix": ".png"}, "primary": true}], "photos": {"count": 0, "groups": []}}, "referralId": "e-0-4fd72d35e4b0ac0b1e89e0ec-52"}, {"reasons": {"count": 0, "items": [{"summary": "This spot is popular", "type": "general", "reasonName": "globalInteractionReason"}]}, "venue": {"id": "4bcf5fb80ffdce721668b2c0", "name": "enjoy hotel Berlin City Messe", "location": {"address": "Rudolst\u00e4dter Str. 42", "lat": 52.4843407926377, "lng": 13.308096955788326, "labeledLatLngs": [{"label": "display", "lat": 52.4843407926377, "lng": 13.308096955788326}], "distance": 437, "postalCode": "10713", "cc": "DE", "city": "Berlin", "state": "Berlin", "country": "Deutschland", "formattedAddress": ["Rudolst\u00e4dter Str. 42", "10713 Berlin", "Deutschland"]}, "categories": [{"id": "4bf58dd8d48988d1fa931735", "name": "Hotel", "pluralName": "Hotels", "shortName": "Hotel", "icon": {"prefix": "https://ss3.4sqi.net/img/categories_v2/travel/hotel_", "suffix": ".png"}, "primary": true}], "photos": {"count": 0, "groups": []}, "venuePage": {"id": "90131754"}}, "referralId": "e-0-4bcf5fb80ffdce721668b2c0-53"}, {"reasons": {"count": 0, "items": [{"summary": "This spot is popular", "type": "general", "reasonName": "globalInteractionReason"}]}, "venue": {"id": "4b23bf6ef964a520fc5824e3", "name": "ALDI NORD", "location": {"address": "Mecklenburgische Str. 23a-24", "lat": 52.47957801341511, "lng": 13.310664306322076, "labeledLatLngs": [{"label": "display", "lat": 52.47957801341511, "lng": 13.310664306322076}], "distance": 674, "postalCode": "14197", "cc": "DE", "city": "Berlin", "state": "Berlin", "country": "Deutschland", "formattedAddress": ["Mecklenburgische Str. 23a-24", "14197 Berlin", "Deutschland"]}, "categories": [{"id": "52f2ab2ebcbc57f1066b8b46", "name": "Supermarket", "pluralName": "Supermarkets", "shortName": "Supermarket", "icon": {"prefix": "https://ss3.4sqi.net/img/categories_v2/shops/food_grocery_", "suffix": ".png"}, "primary": true}], "photos": {"count": 0, "groups": []}}, "referralId": "e-0-4b23bf6ef964a520fc5824e3-54"}, {"reasons": {"count": 0, "items": [{"summary": "This spot is popular", "type": "general", "reasonName": "globalInteractionReason"}]}, "venue": {"id": "4c5e7e2bd25320a15900c97a", "name": "Boulderworx", "location": {"address": "Berliner Str. 46", "lat": 52.48688055342877, "lng": 13.318214828154577, "labeledLatLngs": [{"label": "display", "lat": 52.48688055342877, "lng": 13.318214828154577}], "distance": 319, "postalCode": "10713", "cc": "DE", "city": "Berlin", "state": "Berlin", "country": "Deutschland", "formattedAddress": ["Berliner Str. 46", "10713 Berlin", "Deutschland"]}, "categories": [{"id": "503289d391d4c4b30a586d6a", "name": "Climbing Gym", "pluralName": "Climbing Gyms", "shortName": "Climbing Gym", "icon": {"prefix": "https://ss3.4sqi.net/img/categories_v2/building/gym_", "suffix": ".png"}, "primary": true}], "photos": {"count": 0, "groups": []}}, "referralId": "e-0-4c5e7e2bd25320a15900c97a-55"}, {"reasons": {"count": 0, "items": [{"summary": "This spot is popular", "type": "general", "reasonName": "globalInteractionReason"}]}, "venue": {"id": "4e317fd4ae6085c3ad1b4fe7", "name": "Lidl", "location": {"address": "Berliner Str. 26/27", "lat": 52.48676769999999, "lng": 13.3249204, "labeledLatLngs": [{"label": "display", "lat": 52.48676769999999, "lng": 13.3249204}], "distance": 734, "postalCode": "10715", "cc": "DE", "city": "Berlin", "state": "Berlin", "country": "Deutschland", "formattedAddress": ["Berliner Str. 26/27", "10715 Berlin", "Deutschland"]}, "categories": [{"id": "52f2ab2ebcbc57f1066b8b46", "name": "Supermarket", "pluralName": "Supermarkets", "shortName": "Supermarket", "icon": {"prefix": "https://ss3.4sqi.net/img/categories_v2/shops/food_grocery_", "suffix": ".png"}, "primary": true}], "photos": {"count": 0, "groups": []}, "venuePage": {"id": "577268411"}}, "referralId": "e-0-4e317fd4ae6085c3ad1b4fe7-56"}, {"reasons": {"count": 0, "items": [{"summary": "This spot is popular", "type": "general", "reasonName": "globalInteractionReason"}]}, "venue": {"id": "51b1b6fa498e38fa1c8773ab", "name": "Pho Bay", "location": {"address": "Berliner Str. 32", "lat": 52.48650761242479, "lng": 13.32309816502988, "labeledLatLngs": [{"label": "display", "lat": 52.48650761242479, "lng": 13.32309816502988}], "distance": 607, "postalCode": "10715", "cc": "DE", "city": "Berlin", "state": "Berlin", "country": "Deutschland", "formattedAddress": ["Berliner Str. 32", "10715 Berlin", "Deutschland"]}, "categories": [{"id": "4bf58dd8d48988d14a941735", "name": "Vietnamese Restaurant", "pluralName": "Vietnamese Restaurants", "shortName": "Vietnamese", "icon": {"prefix": "https://ss3.4sqi.net/img/categories_v2/food/vietnamese_", "suffix": ".png"}, "primary": true}], "photos": {"count": 0, "groups": []}}, "referralId": "e-0-51b1b6fa498e38fa1c8773ab-57"}, {"reasons": {"count": 0, "items": [{"summary": "This spot is popular", "type": "general", "reasonName": "globalInteractionReason"}]}, "venue": {"id": "4ba5ee8af964a520f72939e3", "name": "Flohmarkt am Fehrbelliner Platz", "location": {"address": "Fehrbelliner Platz 1", "crossStreet": "Hohenzollerndamm", "lat": 52.49076702278101, "lng": 13.314293645977358, "labeledLatLngs": [{"label": "display", "lat": 52.49076702278101, "lng": 13.314293645977358}], "distance": 620, "postalCode": "10707", "cc": "DE", "city": "Berlin", "state": "Berlin", "country": "Deutschland", "formattedAddress": ["Fehrbelliner Platz 1 (Hohenzollerndamm)", "10707 Berlin", "Deutschland"]}, "categories": [{"id": "4bf58dd8d48988d1f7941735", "name": "Flea Market", "pluralName": "Flea Markets", "shortName": "Flea Market", "icon": {"prefix": "https://ss3.4sqi.net/img/categories_v2/shops/fleamarket_", "suffix": ".png"}, "primary": true}], "photos": {"count": 0, "groups": []}}, "referralId": "e-0-4ba5ee8af964a520f72939e3-58"}, {"reasons": {"count": 0, "items": [{"summary": "This spot is popular", "type": "general", "reasonName": "globalInteractionReason"}]}, "venue": {"id": "4bc7790b93bdeee1006c37ae", "name": "Hotel-Pension Gasteiner Hof", "location": {"address": "Gasteiner Str. 8", "lat": 52.48731670631572, "lng": 13.323412853587271, "labeledLatLngs": [{"label": "display", "lat": 52.48731670631572, "lng": 13.323412853587271}], "distance": 654, "postalCode": "10717", "cc": "DE", "city": "Berlin", "state": "Berlin", "country": "Deutschland", "formattedAddress": ["Gasteiner Str. 8", "10717 Berlin", "Deutschland"]}, "categories": [{"id": "4bf58dd8d48988d1fa931735", "name": "Hotel", "pluralName": "Hotels", "shortName": "Hotel", "icon": {"prefix": "https://ss3.4sqi.net/img/categories_v2/travel/hotel_", "suffix": ".png"}, "primary": true}], "photos": {"count": 0, "groups": []}}, "referralId": "e-0-4bc7790b93bdeee1006c37ae-59"}, {"reasons": {"count": 0, "items": [{"summary": "This spot is popular", "type": "general", "reasonName": "globalInteractionReason"}]}, "venue": {"id": "4c3c793c7c1ee21ebf928c71", "name": "McFIT", "location": {"address": "Berliner Stra\u00dfe 148", "lat": 52.486647, "lng": 13.32839, "labeledLatLngs": [{"label": "display", "lat": 52.486647, "lng": 13.32839}], "distance": 961, "postalCode": "10715", "cc": "DE", "city": "Berlin", "state": "Berlin", "country": "Deutschland", "formattedAddress": ["Berliner Stra\u00dfe 148", "10715 Berlin", "Deutschland"]}, "categories": [{"id": "4bf58dd8d48988d175941735", "name": "Gym / Fitness Center", "pluralName": "Gyms or Fitness Centers", "shortName": "Gym / Fitness", "icon": {"prefix": "https://ss3.4sqi.net/img/categories_v2/building/gym_", "suffix": ".png"}, "primary": true}], "photos": {"count": 0, "groups": []}}, "referralId": "e-0-4c3c793c7c1ee21ebf928c71-60"}, {"reasons": {"count": 0, "items": [{"summary": "This spot is popular", "type": "general", "reasonName": "globalInteractionReason"}]}, "venue": {"id": "4b0919a7f964a5203d1423e3", "name": "Parkcaf\u00e9 Berlin", "location": {"address": "Fehrbelliner Platz 8", "lat": 52.4909664790174, "lng": 13.314368867516636, "labeledLatLngs": [{"label": "display", "lat": 52.4909664790174, "lng": 13.314368867516636}], "distance": 642, "postalCode": "10707", "cc": "DE", "city": "Berlin", "state": "Berlin", "country": "Deutschland", "formattedAddress": ["Fehrbelliner Platz 8", "10707 Berlin", "Deutschland"]}, "categories": [{"id": "4bf58dd8d48988d16d941735", "name": "Caf\u00e9", "pluralName": "Caf\u00e9s", "shortName": "Caf\u00e9", "icon": {"prefix": "https://ss3.4sqi.net/img/categories_v2/food/cafe_", "suffix": ".png"}, "primary": true}], "photos": {"count": 0, "groups": []}}, "referralId": "e-0-4b0919a7f964a5203d1423e3-61"}, {"reasons": {"count": 0, "items": [{"summary": "This spot is popular", "type": "general", "reasonName": "globalInteractionReason"}]}, "venue": {"id": "4b7eac00f964a5205ff82fe3", "name": "Aral", "location": {"address": "Westf\u00e4lische Str. 9-10", "lat": 52.49217209300279, "lng": 13.309260688346846, "labeledLatLngs": [{"label": "display", "lat": 52.49217209300279, "lng": 13.309260688346846}], "distance": 851, "postalCode": "10709", "cc": "DE", "city": "Berlin", "state": "Berlin", "country": "Deutschland", "formattedAddress": ["Westf\u00e4lische Str. 9-10", "10709 Berlin", "Deutschland"]}, "categories": [{"id": "4bf58dd8d48988d113951735", "name": "Gas Station", "pluralName": "Gas Stations", "shortName": "Gas Station", "icon": {"prefix": "https://ss3.4sqi.net/img/categories_v2/shops/gas_", "suffix": ".png"}, "primary": true}], "photos": {"count": 0, "groups": []}, "venuePage": {"id": "585448271"}}, "referralId": "e-0-4b7eac00f964a5205ff82fe3-62"}, {"reasons": {"count": 0, "items": [{"summary": "This spot is popular", "type": "general", "reasonName": "globalInteractionReason"}]}, "venue": {"id": "4caef836c5e6a1cd62b6c8f6", "name": "Thoben's Backwaren", "location": {"address": "Berliner Str. 30-31", "lat": 52.486632426429786, "lng": 13.323771254471179, "labeledLatLngs": [{"label": "display", "lat": 52.486632426429786, "lng": 13.323771254471179}], "distance": 654, "postalCode": "10715", "cc": "DE", "city": "Berlin", "state": "Berlin", "country": "Deutschland", "formattedAddress": ["Berliner Str. 30-31", "10715 Berlin", "Deutschland"]}, "categories": [{"id": "4bf58dd8d48988d16a941735", "name": "Bakery", "pluralName": "Bakeries", "shortName": "Bakery", "icon": {"prefix": "https://ss3.4sqi.net/img/categories_v2/food/bakery_", "suffix": ".png"}, "primary": true}], "photos": {"count": 0, "groups": []}}, "referralId": "e-0-4caef836c5e6a1cd62b6c8f6-63"}, {"reasons": {"count": 0, "items": [{"summary": "This spot is popular", "type": "general", "reasonName": "globalInteractionReason"}]}, "venue": {"id": "4adcda7ef964a520d24721e3", "name": "Stadtbad Wilmersdorf I", "location": {"address": "Mecklenburgische Str. 80", "lat": 52.48098077283274, "lng": 13.31439455529988, "labeledLatLngs": [{"label": "display", "lat": 52.48098077283274, "lng": 13.31439455529988}], "distance": 469, "postalCode": "10713", "cc": "DE", "city": "Berlin", "state": "Berlin", "country": "Deutschland", "formattedAddress": ["Mecklenburgische Str. 80", "10713 Berlin", "Deutschland"]}, "categories": [{"id": "4bf58dd8d48988d160941735", "name": "Hot Spring", "pluralName": "Hot Springs", "shortName": "Hot Spring", "icon": {"prefix": "https://ss3.4sqi.net/img/categories_v2/parks_outdoors/hotspring_", "suffix": ".png"}, "primary": true}], "photos": {"count": 0, "groups": []}}, "referralId": "e-0-4adcda7ef964a520d24721e3-64"}, {"reasons": {"count": 0, "items": [{"summary": "This spot is popular", "type": "general", "reasonName": "globalInteractionReason"}]}, "venue": {"id": "4af2ddaef964a520d9e821e3", "name": "Heidelbeere", "location": {"address": "Heidelberger Platz 1", "lat": 52.47908975103695, "lng": 13.310323907580896, "labeledLatLngs": [{"label": "display", "lat": 52.47908975103695, "lng": 13.310323907580896}], "distance": 733, "cc": "DE", "city": "Berlin", "state": "Berlin", "country": "Deutschland", "formattedAddress": ["Heidelberger Platz 1", "Berlin", "Deutschland"]}, "categories": [{"id": "4bf58dd8d48988d11b941735", "name": "Pub", "pluralName": "Pubs", "shortName": "Pub", "icon": {"prefix": "https://ss3.4sqi.net/img/categories_v2/nightlife/pub_", "suffix": ".png"}, "primary": true}], "photos": {"count": 0, "groups": []}}, "referralId": "e-0-4af2ddaef964a520d9e821e3-65"}, {"reasons": {"count": 0, "items": [{"summary": "This spot is popular", "type": "general", "reasonName": "globalInteractionReason"}]}, "venue": {"id": "5279219c11d2cc5ace40b6ca", "name": "Max & Moritz", "location": {"address": "Uhlandstr. 104", "lat": 52.48670680811843, "lng": 13.322523863397299, "labeledLatLngs": [{"label": "display", "lat": 52.48670680811843, "lng": 13.322523863397299}], "distance": 575, "postalCode": "10713", "cc": "DE", "city": "Berlin", "state": "Berlin", "country": "Deutschland", "formattedAddress": ["Uhlandstr. 104", "10713 Berlin", "Deutschland"]}, "categories": [{"id": "5283c7b4e4b094cb91ec88d8", "name": "Doner Restaurant", "pluralName": "Doner Restaurants", "shortName": "Doner", "icon": {"prefix": "https://ss3.4sqi.net/img/categories_v2/food/turkish_", "suffix": ".png"}, "primary": true}], "photos": {"count": 0, "groups": []}}, "referralId": "e-0-5279219c11d2cc5ace40b6ca-66"}, {"reasons": {"count": 0, "items": [{"summary": "This spot is popular", "type": "general", "reasonName": "globalInteractionReason"}]}, "venue": {"id": "507d3e3e498ec32f6e5c6c75", "name": "Heidelberger Platz", "location": {"address": "Heidelberger Platz", "crossStreet": "Mecklenburgische Str.", "lat": 52.48096205136068, "lng": 13.312152292283908, "labeledLatLngs": [{"label": "display", "lat": 52.48096205136068, "lng": 13.312152292283908}], "distance": 495, "postalCode": "14197", "cc": "DE", "city": "Berlin", "state": "Berlin", "country": "Deutschland", "formattedAddress": ["Heidelberger Platz (Mecklenburgische Str.)", "14197 Berlin", "Deutschland"]}, "categories": [{"id": "4bf58dd8d48988d164941735", "name": "Plaza", "pluralName": "Plazas", "shortName": "Plaza", "icon": {"prefix": "https://ss3.4sqi.net/img/categories_v2/parks_outdoors/plaza_", "suffix": ".png"}, "primary": true}], "photos": {"count": 0, "groups": []}}, "referralId": "e-0-507d3e3e498ec32f6e5c6c75-67"}, {"reasons": {"count": 0, "items": [{"summary": "This spot is popular", "type": "general", "reasonName": "globalInteractionReason"}]}, "venue": {"id": "4bc7795593bdeee12b6c37ae", "name": "Ibis Berlin City West", "location": {"address": "Brandenburgische Strasse 11", "lat": 52.48911863352239, "lng": 13.316606958228704, "labeledLatLngs": [{"label": "display", "lat": 52.48911863352239, "lng": 13.316606958228704}], "distance": 461, "postalCode": "10713", "cc": "DE", "city": "Berlin-Wilmersdorf", "state": "Berlin", "country": "Deutschland", "formattedAddress": ["Brandenburgische Strasse 11", "10713 Berlin-Wilmersdorf", "Deutschland"]}, "categories": [{"id": "4bf58dd8d48988d1fa931735", "name": "Hotel", "pluralName": "Hotels", "shortName": "Hotel", "icon": {"prefix": "https://ss3.4sqi.net/img/categories_v2/travel/hotel_", "suffix": ".png"}, "primary": true}], "photos": {"count": 0, "groups": []}, "venuePage": {"id": "130937909"}}, "referralId": "e-0-4bc7795593bdeee12b6c37ae-68"}, {"reasons": {"count": 0, "items": [{"summary": "This spot is popular", "type": "general", "reasonName": "globalInteractionReason"}]}, "venue": {"id": "56efb379cd10a1d585443f03", "name": "Bus Tour Thomas More", "location": {"lat": 52.48409388037996, "lng": 13.308222283399846, "labeledLatLngs": [{"label": "display", "lat": 52.48409388037996, "lng": 13.308222283399846}], "distance": 436, "cc": "DE", "city": "Berlin", "state": "Berlin", "country": "Deutschland", "formattedAddress": ["Berlin", "Deutschland"]}, "categories": [{"id": "4f2a23984b9023bd5841ed2c", "name": "Moving Target", "pluralName": "Moving Targets", "shortName": "Moving Target", "icon": {"prefix": "https://ss3.4sqi.net/img/categories_v2/travel/movingtarget_", "suffix": ".png"}, "primary": true}], "photos": {"count": 0, "groups": []}}, "referralId": "e-0-56efb379cd10a1d585443f03-69"}, {"reasons": {"count": 0, "items": [{"summary": "This spot is popular", "type": "general", "reasonName": "globalInteractionReason"}]}, "venue": {"id": "4c613f7d924b76b00784fab9", "name": "Reitsport-Center Hoffschild", "location": {"address": "Hohenzollerndamm 34", "lat": 52.48967969919962, "lng": 13.311304417925559, "labeledLatLngs": [{"label": "display", "lat": 52.48967969919962, "lng": 13.311304417925559}], "distance": 541, "postalCode": "10713", "cc": "DE", "city": "Berlin", "state": "Berlin", "country": "Deutschland", "formattedAddress": ["Hohenzollerndamm 34", "10713 Berlin", "Deutschland"]}, "categories": [{"id": "4bf58dd8d48988d102951735", "name": "Accessories Store", "pluralName": "Accessories Stores", "shortName": "Accessories", "icon": {"prefix": "https://ss3.4sqi.net/img/categories_v2/shops/apparel_accessories_", "suffix": ".png"}, "primary": true}], "photos": {"count": 0, "groups": []}}, "referralId": "e-0-4c613f7d924b76b00784fab9-70"}, {"reasons": {"count": 0, "items": [{"summary": "This spot is popular", "type": "general", "reasonName": "globalInteractionReason"}]}, "venue": {"id": "500e7a42e4b0a57241d8b10f", "name": "Truc-xinh", "location": {"lat": 52.49015, "lng": 13.314045, "labeledLatLngs": [{"label": "display", "lat": 52.49015, "lng": 13.314045}], "distance": 552, "cc": "DE", "city": "Berlin", "state": "Berlin", "country": "Deutschland", "formattedAddress": ["Berlin", "Deutschland"]}, "categories": [{"id": "4bf58dd8d48988d149941735", "name": "Thai Restaurant", "pluralName": "Thai Restaurants", "shortName": "Thai", "icon": {"prefix": "https://ss3.4sqi.net/img/categories_v2/food/thai_", "suffix": ".png"}, "primary": true}], "photos": {"count": 0, "groups": []}}, "referralId": "e-0-500e7a42e4b0a57241d8b10f-71"}, {"reasons": {"count": 0, "items": [{"summary": "This spot is popular", "type": "general", "reasonName": "globalInteractionReason"}]}, "venue": {"id": "4e257ee6d4c0d18a28a669aa", "name": "Lakritz! Schwarzes Gold", "location": {"address": "Uhlandstr. 98", "lat": 52.486166572825674, "lng": 13.322474803938547, "labeledLatLngs": [{"label": "display", "lat": 52.486166572825674, "lng": 13.322474803938547}], "distance": 557, "postalCode": "10715", "cc": "DE", "city": "Berlin", "state": "Berlin", "country": "Deutschland", "formattedAddress": ["Uhlandstr. 98", "10715 Berlin", "Deutschland"]}, "categories": [{"id": "4bf58dd8d48988d117951735", "name": "Candy Store", "pluralName": "Candy Stores", "shortName": "Candy Store", "icon": {"prefix": "https://ss3.4sqi.net/img/categories_v2/shops/candystore_", "suffix": ".png"}, "primary": true}], "photos": {"count": 0, "groups": []}}, "referralId": "e-0-4e257ee6d4c0d18a28a669aa-72"}, {"reasons": {"count": 0, "items": [{"summary": "This spot is popular", "type": "general", "reasonName": "globalInteractionReason"}]}, "venue": {"id": "4cd00297f6378cfae914b2d6", "name": "Fehrbelliner Platz", "location": {"address": "Hohenzollerndamm", "crossStreet": "Brandenburgische Str.", "lat": 52.490442524085424, "lng": 13.314216067276945, "labeledLatLngs": [{"label": "display", "lat": 52.490442524085424, "lng": 13.314216067276945}], "distance": 584, "postalCode": "10707", "cc": "DE", "city": "Berlin", "state": "Berlin", "country": "Deutschland", "formattedAddress": ["Hohenzollerndamm (Brandenburgische Str.)", "10707 Berlin", "Deutschland"]}, "categories": [{"id": "4bf58dd8d48988d164941735", "name": "Plaza", "pluralName": "Plazas", "shortName": "Plaza", "icon": {"prefix": "https://ss3.4sqi.net/img/categories_v2/parks_outdoors/plaza_", "suffix": ".png"}, "primary": true}], "photos": {"count": 0, "groups": []}}, "referralId": "e-0-4cd00297f6378cfae914b2d6-73"}, {"reasons": {"count": 0, "items": [{"summary": "This spot is popular", "type": "general", "reasonName": "globalInteractionReason"}]}, "venue": {"id": "52d95a19498eeda897b5e5c1", "name": "H S+U Heidelberger Platz", "location": {"address": "Mecklenburgische Str.", "crossStreet": "Rudolst\u00e4dter Str.", "lat": 52.48021589005243, "lng": 13.312407364457949, "labeledLatLngs": [{"label": "display", "lat": 52.48021589005243, "lng": 13.312407364457949}], "distance": 570, "postalCode": "14197", "cc": "DE", "city": "Berlin", "state": "Berlin", "country": "Deutschland", "formattedAddress": ["Mecklenburgische Str. (Rudolst\u00e4dter Str.)", "14197 Berlin", "Deutschland"]}, "categories": [{"id": "52f2ab2ebcbc57f1066b8b4f", "name": "Bus Stop", "pluralName": "Bus Stops", "shortName": "Bus Stop", "icon": {"prefix": "https://ss3.4sqi.net/img/categories_v2/travel/busstation_", "suffix": ".png"}, "primary": true}], "photos": {"count": 0, "groups": []}}, "referralId": "e-0-52d95a19498eeda897b5e5c1-74"}, {"reasons": {"count": 0, "items": [{"summary": "This spot is popular", "type": "general", "reasonName": "globalInteractionReason"}]}, "venue": {"id": "51609609e4b06cc90c05e40a", "name": "Uhland-Eck", "location": {"address": "Berliner Str. 33", "lat": 52.486541592643604, "lng": 13.322584305934102, "labeledLatLngs": [{"label": "display", "lat": 52.486541592643604, "lng": 13.322584305934102}], "distance": 574, "postalCode": "10715", "cc": "DE", "city": "Berlin", "state": "Berlin", "country": "Deutschland", "formattedAddress": ["Berliner Str. 33", "10715 Berlin", "Deutschland"]}, "categories": [{"id": "4bf58dd8d48988d116941735", "name": "Bar", "pluralName": "Bars", "shortName": "Bar", "icon": {"prefix": "https://ss3.4sqi.net/img/categories_v2/nightlife/pub_", "suffix": ".png"}, "primary": true}], "photos": {"count": 0, "groups": []}}, "referralId": "e-0-51609609e4b06cc90c05e40a-75"}, {"reasons": {"count": 0, "items": [{"summary": "This spot is popular", "type": "general", "reasonName": "globalInteractionReason"}]}, "venue": {"id": "572b72eb498e2eec03922dde", "name": "Amoroso Eis", "location": {"lat": 52.489191622041126, "lng": 13.319804521943128, "labeledLatLngs": [{"label": "display", "lat": 52.489191622041126, "lng": 13.319804521943128}], "distance": 576, "cc": "DE", "city": "Berlin", "state": "Berlin", "country": "Deutschland", "formattedAddress": ["Berlin", "Deutschland"]}, "categories": [{"id": "4bf58dd8d48988d1c9941735", "name": "Ice Cream Shop", "pluralName": "Ice Cream Shops", "shortName": "Ice Cream", "icon": {"prefix": "https://ss3.4sqi.net/img/categories_v2/food/icecream_", "suffix": ".png"}, "primary": true}], "photos": {"count": 0, "groups": []}}, "referralId": "e-0-572b72eb498e2eec03922dde-76"}, {"reasons": {"count": 0, "items": [{"summary": "This spot is popular", "type": "general", "reasonName": "globalInteractionReason"}]}, "venue": {"id": "4d728cf55838a093d7e60cdb", "name": "H U Fehrbelliner Platz", "location": {"address": "Brandenburgische Str.", "crossStreet": "Hohenzollerndamm", "lat": 52.49039314212804, "lng": 13.31411496007313, "labeledLatLngs": [{"label": "display", "lat": 52.49039314212804, "lng": 13.31411496007313}], "distance": 578, "postalCode": "10707", "cc": "DE", "city": "Berlin", "state": "Berlin", "country": "Deutschland", "formattedAddress": ["Brandenburgische Str. (Hohenzollerndamm)", "10707 Berlin", "Deutschland"]}, "categories": [{"id": "52f2ab2ebcbc57f1066b8b4f", "name": "Bus Stop", "pluralName": "Bus Stops", "shortName": "Bus Stop", "icon": {"prefix": "https://ss3.4sqi.net/img/categories_v2/travel/busstation_", "suffix": ".png"}, "primary": true}], "photos": {"count": 0, "groups": []}}, "referralId": "e-0-4d728cf55838a093d7e60cdb-77"}, {"reasons": {"count": 0, "items": [{"summary": "This spot is popular", "type": "general", "reasonName": "globalInteractionReason"}]}, "venue": {"id": "4c94de6d82b56dcbd000d3aa", "name": "Kieser Training", "location": {"address": "Forckenbeckstr. 9-13", "lat": 52.48002824895229, "lng": 13.305574988395296, "labeledLatLngs": [{"label": "display", "lat": 52.48002824895229, "lng": 13.305574988395296}], "distance": 830, "postalCode": "14199", "cc": "DE", "city": "Berlin", "state": "Berlin", "country": "Deutschland", "formattedAddress": ["Forckenbeckstr. 9-13", "14199 Berlin", "Deutschland"]}, "categories": [{"id": "4bf58dd8d48988d176941735", "name": "Gym", "pluralName": "Gyms", "shortName": "Gym", "icon": {"prefix": "https://ss3.4sqi.net/img/categories_v2/building/gym_", "suffix": ".png"}, "primary": true}], "photos": {"count": 0, "groups": []}, "venuePage": {"id": "580276748"}}, "referralId": "e-0-4c94de6d82b56dcbd000d3aa-78"}, {"reasons": {"count": 0, "items": [{"summary": "This spot is popular", "type": "general", "reasonName": "globalInteractionReason"}]}, "venue": {"id": "4bb74d65ef159c7494fe76f7", "name": "Sprintout", "location": {"address": "Uhlandstr. 106", "lat": 52.48760688421682, "lng": 13.32275891074349, "labeledLatLngs": [{"label": "display", "lat": 52.48760688421682, "lng": 13.32275891074349}], "distance": 626, "postalCode": "10717", "cc": "DE", "city": "Berlin", "state": "Berlin", "country": "Deutschland", "formattedAddress": ["Uhlandstr. 106", "10717 Berlin", "Deutschland"]}, "categories": [{"id": "52f2ab2ebcbc57f1066b8b28", "name": "Print Shop", "pluralName": "Print Shops", "shortName": "Print Shop", "icon": {"prefix": "https://ss3.4sqi.net/img/categories_v2/shops/default_", "suffix": ".png"}, "primary": true}], "photos": {"count": 0, "groups": []}}, "referralId": "e-0-4bb74d65ef159c7494fe76f7-79"}, {"reasons": {"count": 0, "items": [{"summary": "This spot is popular", "type": "general", "reasonName": "globalInteractionReason"}]}, "venue": {"id": "4cd48fe7a76c5941c3207005", "name": "SUNPOINT Solarium & WELLMAXX Bodyforming", "location": {"address": "Uhlandstr. 88-90", "lat": 52.487980747814, "lng": 13.32262287562259, "labeledLatLngs": [{"label": "display", "lat": 52.487980747814, "lng": 13.32262287562259}], "distance": 637, "postalCode": "10717", "cc": "DE", "city": "Berlin", "state": "Berlin", "country": "Deutschland", "formattedAddress": ["Uhlandstr. 88-90", "10717 Berlin", "Deutschland"]}, "categories": [{"id": "4d1cf8421a97d635ce361c31", "name": "Tanning Salon", "pluralName": "Tanning Salons", "shortName": "Tanning Salon", "icon": {"prefix": "https://ss3.4sqi.net/img/categories_v2/shops/tanning_salon_", "suffix": ".png"}, "primary": true}], "photos": {"count": 0, "groups": []}}, "referralId": "e-0-4cd48fe7a76c5941c3207005-80"}, {"reasons": {"count": 0, "items": [{"summary": "This spot is popular", "type": "general", "reasonName": "globalInteractionReason"}]}, "venue": {"id": "4b23bf99f964a520ff5824e3", "name": "NETTO", "location": {"address": "Mecklenburgische Str. 27", "crossStreet": "Forckenbeckstr", "lat": 52.4791791, "lng": 13.308348, "labeledLatLngs": [{"label": "display", "lat": 52.4791791, "lng": 13.308348}], "distance": 785, "postalCode": "14197", "cc": "DE", "city": "Berlin", "state": "Berlin", "country": "Deutschland", "formattedAddress": ["Mecklenburgische Str. 27 (Forckenbeckstr)", "14197 Berlin", "Deutschland"]}, "categories": [{"id": "52f2ab2ebcbc57f1066b8b46", "name": "Supermarket", "pluralName": "Supermarkets", "shortName": "Supermarket", "icon": {"prefix": "https://ss3.4sqi.net/img/categories_v2/shops/food_grocery_", "suffix": ".png"}, "primary": true}], "photos": {"count": 0, "groups": []}, "venuePage": {"id": "454782272"}}, "referralId": "e-0-4b23bf99f964a520ff5824e3-81"}, {"reasons": {"count": 0, "items": [{"summary": "This spot is popular", "type": "general", "reasonName": "globalInteractionReason"}]}, "venue": {"id": "4f648f2fe4b0fb96f5e4363b", "name": "Stadtbad Wilmersdorf II", "location": {"lat": 52.48202808867926, "lng": 13.304027760481418, "labeledLatLngs": [{"label": "display", "lat": 52.48202808867926, "lng": 13.304027760481418}], "distance": 786, "cc": "DE", "city": "Berlin", "state": "Berlin", "country": "Deutschland", "formattedAddress": ["Berlin", "Deutschland"]}, "categories": [{"id": "4bf58dd8d48988d15e941735", "name": "Pool", "pluralName": "Pools", "shortName": "Pool", "icon": {"prefix": "https://ss3.4sqi.net/img/categories_v2/parks_outdoors/pool_", "suffix": ".png"}, "primary": true}], "photos": {"count": 0, "groups": []}}, "referralId": "e-0-4f648f2fe4b0fb96f5e4363b-82"}, {"reasons": {"count": 0, "items": [{"summary": "This spot is popular", "type": "general", "reasonName": "globalInteractionReason"}]}, "venue": {"id": "51821fe3498e6bbc092d85d3", "name": "Getr\u00e4nke Hoffmann", "location": {"address": "Uhlandstr. 123", "lat": 52.49048299195884, "lng": 13.323310752769999, "labeledLatLngs": [{"label": "display", "lat": 52.49048299195884, "lng": 13.323310752769999}], "distance": 843, "postalCode": "10717", "cc": "DE", "city": "Berlin", "state": "Berlin", "country": "Deutschland", "formattedAddress": ["Uhlandstr. 123", "10717 Berlin", "Deutschland"]}, "categories": [{"id": "4bf58dd8d48988d186941735", "name": "Liquor Store", "pluralName": "Liquor Stores", "shortName": "Liquor Store", "icon": {"prefix": "https://ss3.4sqi.net/img/categories_v2/shops/food_liquor_", "suffix": ".png"}, "primary": true}], "photos": {"count": 0, "groups": []}}, "referralId": "e-0-51821fe3498e6bbc092d85d3-83"}, {"reasons": {"count": 0, "items": [{"summary": "This spot is popular", "type": "general", "reasonName": "globalInteractionReason"}]}, "venue": {"id": "52244df511d2ebf3dcb14339", "name": "Brotmeisterei Steinecke", "location": {"lat": 52.49148511663836, "lng": 13.321580048063197, "labeledLatLngs": [{"label": "display", "lat": 52.49148511663836, "lng": 13.321580048063197}], "distance": 852, "cc": "DE", "city": "Berlin", "state": "Berlin", "country": "Deutschland", "formattedAddress": ["Berlin", "Deutschland"]}, "categories": [{"id": "4bf58dd8d48988d16a941735", "name": "Bakery", "pluralName": "Bakeries", "shortName": "Bakery", "icon": {"prefix": "https://ss3.4sqi.net/img/categories_v2/food/bakery_", "suffix": ".png"}, "primary": true}], "photos": {"count": 0, "groups": []}}, "referralId": "e-0-52244df511d2ebf3dcb14339-84"}, {"reasons": {"count": 0, "items": [{"summary": "This spot is popular", "type": "general", "reasonName": "globalInteractionReason"}]}, "venue": {"id": "5801ec6938fa1d71343245f3", "name": "Nah und Gut Voelker", "location": {"address": "G\u00fcntzelstr. 40", "lat": 52.4914418, "lng": 13.3227236, "labeledLatLngs": [{"label": "display", "lat": 52.4914418, "lng": 13.3227236}], "distance": 895, "postalCode": "10717", "cc": "DE", "city": "Berlin", "state": "Berlin", "country": "Deutschland", "formattedAddress": ["G\u00fcntzelstr. 40", "10717 Berlin", "Deutschland"]}, "categories": [{"id": "52f2ab2ebcbc57f1066b8b46", "name": "Supermarket", "pluralName": "Supermarkets", "shortName": "Supermarket", "icon": {"prefix": "https://ss3.4sqi.net/img/categories_v2/shops/food_grocery_", "suffix": ".png"}, "primary": true}], "photos": {"count": 0, "groups": []}, "venuePage": {"id": "550979396"}}, "referralId": "e-0-5801ec6938fa1d71343245f3-85"}, {"reasons": {"count": 0, "items": [{"summary": "This spot is popular", "type": "general", "reasonName": "globalInteractionReason"}]}, "venue": {"id": "50f31e06e4b09c9ac3e461fa", "name": "H G\u00fcntzelstra\u00dfe / Uhlandstra\u00dfe", "location": {"address": "Uhlandstr.", "crossStreet": "G\u00fcntzelstr.", "lat": 52.491482461958796, "lng": 13.323240280151367, "labeledLatLngs": [{"label": "display", "lat": 52.491482461958796, "lng": 13.323240280151367}], "distance": 921, "postalCode": "10717", "cc": "DE", "city": "Berlin", "state": "Berlin", "country": "Deutschland", "formattedAddress": ["Uhlandstr. (G\u00fcntzelstr.)", "10717 Berlin", "Deutschland"]}, "categories": [{"id": "52f2ab2ebcbc57f1066b8b4f", "name": "Bus Stop", "pluralName": "Bus Stops", "shortName": "Bus Stop", "icon": {"prefix": "https://ss3.4sqi.net/img/categories_v2/travel/busstation_", "suffix": ".png"}, "primary": true}], "photos": {"count": 0, "groups": []}}, "referralId": "e-0-50f31e06e4b09c9ac3e461fa-86"}, {"reasons": {"count": 0, "items": [{"summary": "This spot is popular", "type": "general", "reasonName": "globalInteractionReason"}]}, "venue": {"id": "4b140547f964a520e29b23e3", "name": "McDonald's", "location": {"address": "Mecklenburgischestr. 65-68", "lat": 52.47734935846621, "lng": 13.307913367796267, "labeledLatLngs": [{"label": "display", "lat": 52.47734935846621, "lng": 13.307913367796267}], "distance": 977, "postalCode": "14197", "cc": "DE", "city": "Berlin", "state": "Berlin", "country": "Deutschland", "formattedAddress": ["Mecklenburgischestr. 65-68", "14197 Berlin", "Deutschland"]}, "categories": [{"id": "4bf58dd8d48988d16e941735", "name": "Fast Food Restaurant", "pluralName": "Fast Food Restaurants", "shortName": "Fast Food", "icon": {"prefix": "https://ss3.4sqi.net/img/categories_v2/food/fastfood_", "suffix": ".png"}, "primary": true}], "photos": {"count": 0, "groups": []}}, "referralId": "e-0-4b140547f964a520e29b23e3-87"}, {"reasons": {"count": 0, "items": [{"summary": "This spot is popular", "type": "general", "reasonName": "globalInteractionReason"}]}, "venue": {"id": "55d77191498ef332ed6bd543", "name": "Trattoria Milano", "location": {"address": "Berliner Str. 18", "lat": 52.486829213845844, "lng": 13.328104815357072, "labeledLatLngs": [{"label": "display", "lat": 52.486829213845844, "lng": 13.328104815357072}], "distance": 946, "postalCode": "10715", "cc": "DE", "neighborhood": "Hohenzollernplatz", "city": "Berlin Wilmersdorf", "state": "Berlin", "country": "Deutschland", "formattedAddress": ["Berliner Str. 18", "10715 Berlin-Wilmersdorf", "Deutschland"]}, "categories": [{"id": "55a5a1ebe4b013909087cb7f", "name": "Trattoria/Osteria", "pluralName": "Trattorias/Osterias", "shortName": "Trattoria/Osteria", "icon": {"prefix": "https://ss3.4sqi.net/img/categories_v2/food/italian_", "suffix": ".png"}, "primary": true}], "photos": {"count": 0, "groups": []}}, "referralId": "e-0-55d77191498ef332ed6bd543-88"}, {"reasons": {"count": 0, "items": [{"summary": "This spot is popular", "type": "general", "reasonName": "globalInteractionReason"}]}, "venue": {"id": "529875a611d2d6649f1fb289", "name": "B\u00e4ckerei Hillmann", "location": {"address": "G\u00fcntzelstr. 41", "lat": 52.49168759923547, "lng": 13.323631399473683, "labeledLatLngs": [{"label": "display", "lat": 52.49168759923547, "lng": 13.323631399473683}], "distance": 955, "postalCode": "10717", "cc": "DE", "city": "Berlin", "state": "Berlin", "country": "Deutschland", "formattedAddress": ["G\u00fcntzelstr. 41", "10717 Berlin", "Deutschland"]}, "categories": [{"id": "4bf58dd8d48988d16a941735", "name": "Bakery", "pluralName": "Bakeries", "shortName": "Bakery", "icon": {"prefix": "https://ss3.4sqi.net/img/categories_v2/food/bakery_", "suffix": ".png"}, "primary": true}], "photos": {"count": 0, "groups": []}}, "referralId": "e-0-529875a611d2d6649f1fb289-89"}, {"reasons": {"count": 0, "items": [{"summary": "This spot is popular", "type": "general", "reasonName": "globalInteractionReason"}]}, "venue": {"id": "4b1c1cc4f964a5205c0224e3", "name": "TSB City-Sports", "location": {"address": "Brandenburgische Str. 53", "lat": 52.493647552854014, "lng": 13.309682606218853, "labeledLatLngs": [{"label": "display", "lat": 52.493647552854014, "lng": 13.309682606218853}], "distance": 993, "postalCode": "10707", "cc": "DE", "city": "Berlin", "state": "Berlin", "country": "Deutschland", "formattedAddress": ["Brandenburgische Str. 53", "10707 Berlin", "Deutschland"]}, "categories": [{"id": "4bf58dd8d48988d176941735", "name": "Gym", "pluralName": "Gyms", "shortName": "Gym", "icon": {"prefix": "https://ss3.4sqi.net/img/categories_v2/building/gym_", "suffix": ".png"}, "primary": true}], "photos": {"count": 0, "groups": []}}, "referralId": "e-0-4b1c1cc4f964a5205c0224e3-90"}]