[{"reasons": {"count": 0, "items": [{"summary": "This spot is popular", "type": "general", "reasonName": "globalInteractionReason"}]}, "venue": {"id": "4f2cf696e4b0118a85496977", "name": "K\u00f6nigsheide", "location": {"address": "K\u00f6nigsheideweg", "crossStreet": "S\u00fcdostallee", "lat": 52.4536557092085, "lng": 13.489623069763184, "labeledLatLngs": [{"label": "display", "lat": 52.4536557092085, "lng": 13.489623069763184}], "distance": 695, "cc": "DE", "city": "Berlin", "state": "Berlin", "country": "Deutschland", "formattedAddress": ["K\u00f6nigsheideweg (S\u00fcdostallee)", "Berlin", "Deutschland"]}, "categories": [{"id": "52e81612bcbc57f1066b7a23", "name": "Forest", "pluralName": "Forests", "shortName": "Forest", "icon": {"prefix": "https://ss3.4sqi.net/img/categories_v2/parks_outdoors/default_", "suffix": ".png"}, "primary": true}], "photos": {"count": 0, "groups": []}}, "referralId": "e-0-4f2cf696e4b0118a85496977-0"}, {"reasons": {"count": 0, "items": [{"summary": "This spot is popular", "type": "general", "reasonName": "globalInteractionReason"}]}, "venue": {"id": "4e33e657091af7ec2c0baea3", "name": "Sp\u00e4th\u00b4sche Baumschulen", "location": {"address": "Sp\u00e4thstr. 80/81", "lat": 52.45272727725721, "lng": 13.473014831542969, "labeledLatLngs": [{"label": "display", "lat": 52.45272727725721, "lng": 13.473014831542969}], "distance": 726, "postalCode": "12437", "cc": "DE", "city": "Berlin", "state": "Berlin", "country": "Deutschland", "formattedAddress": ["Sp\u00e4thstr. 80/81", "12437 Berlin", "Deutschland"]}, "categories": [{"id": "4eb1c0253b7b52c0e1adc2e9", "name": "Garden Center", "pluralName": "Garden Centers", "shortName": "Garden Center", "icon": {"prefix": "https://ss3.4sqi.net/img/categories_v2/parks_outdoors/gardencenter_", "suffix": ".png"}, "primary": true}], "photos": {"count": 0, "groups": []}}, "referralId": "e-0-4e33e657091af7ec2c0baea3-1"}, {"reasons": {"count": 0, "items": [{"summary": "This spot is popular", "type": "general", "reasonName": "globalInteractionReason"}]}, "venue": {"id": "5904b90b8f2c1a069317074a", "name": "EDEKA", "location": {"address": "Baumschulenstr. 31", "lat": 52.4638978, "lng": 13.4857741, "labeledLatLngs": [{"label": "display", "lat": 52.4638978, "lng": 13.4857741}], "distance": 826, "postalCode": "12437", "cc": "DE", "neighborhood": "Baumschulenweg", "city": "Berlin", "state": "Berlin", "country": "Deutschland", "formattedAddress": ["Baumschulenstr. 31", "12437 Berlin", "Deutschland"]}, "categories": [{"id": "52f2ab2ebcbc57f1066b8b46", "name": "Supermarket", "pluralName": "Supermarkets", "shortName": "Supermarket", "icon": {"prefix": "https://ss3.4sqi.net/img/categories_v2/shops/food_grocery_", "suffix": ".png"}, "primary": true}], "photos": {"count": 0, "groups": []}, "venuePage": {"id": "552451366"}}, "referralId": "e-0-5904b90b8f2c1a069317074a-2"}, {"reasons": {"count": 0, "items": [{"summary": "This spot is popular", "type": "general", "reasonName": "globalInteractionReason"}]}, "venue": {"id": "50cf0ea1e4b03ff34bee3dec", "name": "dm-drogerie markt", "location": {"address": "Baumschulenstra\u00dfe 86", "lat": 52.46523136834527, "lng": 13.486048372953519, "labeledLatLngs": [{"label": "display", "lat": 52.46523136834527, "lng": 13.486048372953519}], "distance": 971, "postalCode": "12437", "cc": "DE", "city": "Berlin", "state": "Berlin", "country": "Deutschland", "formattedAddress": ["Baumschulenstra\u00dfe 86", "12437 Berlin", "Deutschland"]}, "categories": [{"id": "5745c2e4498e11e7bccabdbd", "name": "Drugstore", "pluralName": "Drugstores", "shortName": "Drugstore", "icon": {"prefix": "https://ss3.4sqi.net/img/categories_v2/shops/pharmacy_", "suffix": ".png"}, "primary": true}], "photos": {"count": 0, "groups": []}, "venuePage": {"id": "455781297"}}, "referralId": "e-0-50cf0ea1e4b03ff34bee3dec-3"}, {"reasons": {"count": 0, "items": [{"summary": "This spot is popular", "type": "general", "reasonName": "globalInteractionReason"}]}, "venue": {"id": "4dfc8398b61c84188eecf1e9", "name": "Hofcaf\u00e9 Sp\u00e4th", "location": {"address": "Sp\u00e4thstr. 80-81", "lat": 52.453262768297606, "lng": 13.473861221850658, "labeledLatLngs": [{"label": "display", "lat": 52.453262768297606, "lng": 13.473861221850658}], "distance": 643, "postalCode": "12437", "cc": "DE", "city": "Berlin", "state": "Berlin", "country": "Deutschland", "formattedAddress": ["Sp\u00e4thstr. 80-81", "12437 Berlin", "Deutschland"]}, "categories": [{"id": "4bf58dd8d48988d16d941735", "name": "Caf\u00e9", "pluralName": "Caf\u00e9s", "shortName": "Caf\u00e9", "icon": {"prefix": "https://ss3.4sqi.net/img/categories_v2/food/cafe_", "suffix": ".png"}, "primary": true}], "photos": {"count": 0, "groups": []}}, "referralId": "e-0-4dfc8398b61c84188eecf1e9-4"}, {"reasons": {"count": 0, "items": [{"summary": "This spot is popular", "type": "general", "reasonName": "globalInteractionReason"}]}, "venue": {"id": "4de89996b0fbcb7c9ac6eeee", "name": "Lidl", "location": {"address": "Kiefholzstr. 189", "lat": 52.4638832, "lng": 13.4872421, "labeledLatLngs": [{"label": "display", "lat": 52.4638832, "lng": 13.4872421}], "distance": 869, "postalCode": "12437", "cc": "DE", "city": "Berlin", "state": "Berlin", "country": "Deutschland", "formattedAddress": ["Kiefholzstr. 189", "12437 Berlin-treptow-k\u00f6penick", "Deutschland"]}, "categories": [{"id": "52f2ab2ebcbc57f1066b8b46", "name": "Supermarket", "pluralName": "Supermarkets", "shortName": "Supermarket", "icon": {"prefix": "https://ss3.4sqi.net/img/categories_v2/shops/food_grocery_", "suffix": ".png"}, "primary": true}], "photos": {"count": 0, "groups": []}, "venuePage": {"id": "579270889"}}, "referralId": "e-0-4de89996b0fbcb7c9ac6eeee-5"}, {"reasons": {"count": 0, "items": [{"summary": "This spot is popular", "type": "general", "reasonName": "globalInteractionReason"}]}, "venue": {"id": "58cf9bf0084be50860f395b4", "name": "K\u00f6nigsheide / K\u00f6nigsheideweg", "location": {"address": "K\u00f6nigsheideweg", "lat": 52.454647, "lng": 13.48418, "labeledLatLngs": [{"label": "display", "lat": 52.454647, "lng": 13.48418}], "distance": 343, "postalCode": "12437", "cc": "DE", "city": "Berlin", "state": "Berlin", "country": "Deutschland", "formattedAddress": ["K\u00f6nigsheideweg", "12437 Berlin", "Deutschland"]}, "categories": [{"id": "52e81612bcbc57f1066b7a23", "name": "Forest", "pluralName": "Forests", "shortName": "Forest", "icon": {"prefix": "https://ss3.4sqi.net/img/categories_v2/parks_outdoors/default_", "suffix": ".png"}, "primary": true}], "photos": {"count": 0, "groups": []}}, "referralId": "e-0-58cf9bf0084be50860f395b4-6"}, {"reasons": {"count": 0, "items": [{"summary": "This spot is popular", "type": "general", "reasonName": "globalInteractionReason"}]}, "venue": {"id": "519a0a82498ef136e765c617", "name": "Sp\u00e4th-Arboretum der Humboldt-Universit\u00e4t", "location": {"address": "Sp\u00e4thstr. 80", "lat": 52.4549502506641, "lng": 13.47498893737793, "labeledLatLngs": [{"label": "display", "lat": 52.4549502506641, "lng": 13.47498893737793}], "distance": 471, "postalCode": "12437", "cc": "DE", "city": "Berlin", "state": "Berlin", "country": "Deutschland", "formattedAddress": ["Sp\u00e4thstr. 80", "12437 Berlin", "Deutschland"]}, "categories": [{"id": "52e81612bcbc57f1066b7a22", "name": "Botanical Garden", "pluralName": "Botanical Gardens", "shortName": "Botanical Garden", "icon": {"prefix": "https://ss3.4sqi.net/img/categories_v2/parks_outdoors/botanicalgarden_", "suffix": ".png"}, "primary": true}], "photos": {"count": 0, "groups": []}}, "referralId": "e-0-519a0a82498ef136e765c617-7"}, {"reasons": {"count": 0, "items": [{"summary": "This spot is popular", "type": "general", "reasonName": "globalInteractionReason"}]}, "venue": {"id": "537b7d36498ee27a2f7a8bff", "name": "Eiscaf\u00e9 Alfima", "location": {"address": "Baumschulenstr. 72", "lat": 52.46248209521513, "lng": 13.483125802324558, "labeledLatLngs": [{"label": "display", "lat": 52.46248209521513, "lng": 13.483125802324558}], "distance": 620, "postalCode": "12437", "cc": "DE", "city": "Berlin", "state": "Berlin", "country": "Deutschland", "formattedAddress": ["Baumschulenstr. 72", "12437 Berlin", "Deutschland"]}, "categories": [{"id": "4bf58dd8d48988d1c9941735", "name": "Ice Cream Shop", "pluralName": "Ice Cream Shops", "shortName": "Ice Cream", "icon": {"prefix": "https://ss3.4sqi.net/img/categories_v2/food/icecream_", "suffix": ".png"}, "primary": true}], "photos": {"count": 0, "groups": []}}, "referralId": "e-0-537b7d36498ee27a2f7a8bff-8"}, {"reasons": {"count": 0, "items": [{"summary": "This spot is popular", "type": "general", "reasonName": "globalInteractionReason"}]}, "venue": {"id": "4e341dfbfa76f00388c86ff5", "name": "il nuovo", "location": {"address": "Baumschulenstr. 69", "lat": 52.46256017977545, "lng": 13.482950868843567, "labeledLatLngs": [{"label": "display", "lat": 52.46256017977545, "lng": 13.482950868843567}], "distance": 626, "postalCode": "12437", "cc": "DE", "city": "Berlin", "state": "Berlin", "country": "Deutschland", "formattedAddress": ["Baumschulenstr. 69", "12437 Berlin", "Deutschland"]}, "categories": [{"id": "4bf58dd8d48988d110941735", "name": "Italian Restaurant", "pluralName": "Italian Restaurants", "shortName": "Italian", "icon": {"prefix": "https://ss3.4sqi.net/img/categories_v2/food/italian_", "suffix": ".png"}, "primary": true}], "photos": {"count": 0, "groups": []}}, "referralId": "e-0-4e341dfbfa76f00388c86ff5-9"}, {"reasons": {"count": 0, "items": [{"summary": "This spot is popular", "type": "general", "reasonName": "globalInteractionReason"}]}, "venue": {"id": "503bac19e4b0d0d56bdbc979", "name": "H Frauenlobstra\u00dfe", "location": {"address": "Baumschulenstr.", "crossStreet": "Frauenlobstr.", "lat": 52.4636497269391, "lng": 13.47395797979307, "labeledLatLngs": [{"label": "display", "lat": 52.4636497269391, "lng": 13.47395797979307}], "distance": 876, "postalCode": "12437", "cc": "DE", "city": "Berlin", "state": "Berlin", "country": "Deutschland", "formattedAddress": ["Baumschulenstr. (Frauenlobstr.)", "12437 Berlin", "Deutschland"]}, "categories": [{"id": "52f2ab2ebcbc57f1066b8b4f", "name": "Bus Stop", "pluralName": "Bus Stops", "shortName": "Bus Stop", "icon": {"prefix": "https://ss3.4sqi.net/img/categories_v2/travel/busstation_", "suffix": ".png"}, "primary": true}], "photos": {"count": 0, "groups": []}}, "referralId": "e-0-503bac19e4b0d0d56bdbc979-10"}, {"reasons": {"count": 0, "items": [{"summary": "This spot is popular", "type": "general", "reasonName": "globalInteractionReason"}]}, "venue": {"id": "4d038530347da1cd06e7258f", "name": "Sparda-Bank", "location": {"address": "Baumschulenstr. 84/85", "lat": 52.464983576849704, "lng": 13.486230904380385, "labeledLatLngs": [{"label": "display", "lat": 52.464983576849704, "lng": 13.486230904380385}], "distance": 950, "postalCode": "12437", "cc": "DE", "neighborhood": "Baumschulenweg", "city": "Berlin", "state": "Berlin", "country": "Deutschland", "formattedAddress": ["Baumschulenstr. 84/85", "12437 Berlin", "Deutschland"]}, "categories": [{"id": "5032850891d4c4b30a586d62", "name": "Credit Union", "pluralName": "Credit Unions", "shortName": "Credit Union", "icon": {"prefix": "https://ss3.4sqi.net/img/categories_v2/shops/financial_", "suffix": ".png"}, "primary": true}], "photos": {"count": 0, "groups": []}}, "referralId": "e-0-4d038530347da1cd06e7258f-11"}]