[{"reasons": {"count": 0, "items": [{"summary": "This spot is popular", "type": "general", "reasonName": "globalInteractionReason"}]}, "venue": {"id": "4da0787a3edff04de85d4199", "name": "Schloss Biesdorf", "location": {"address": "Alt-Biesdorf 55", "lat": 52.509887382703425, "lng": 13.557697534561157, "labeledLatLngs": [{"label": "display", "lat": 52.509887382703425, "lng": 13.557697534561157}], "distance": 296, "postalCode": "12683", "cc": "DE", "city": "Berlin", "state": "Berlin", "country": "Deutschland", "formattedAddress": ["Alt-Biesdorf 55", "12683 Berlin", "Deutschland"]}, "categories": [{"id": "52e81612bcbc57f1066b7a14", "name": "Palace", "pluralName": "Palaces", "shortName": "Palace", "icon": {"prefix": "https://ss3.4sqi.net/img/categories_v2/parks_outdoors/default_", "suffix": ".png"}, "primary": true}], "photos": {"count": 0, "groups": []}}, "referralId": "e-0-4da0787a3edff04de85d4199-0"}, {"reasons": {"count": 0, "items": [{"summary": "This spot is popular", "type": "general", "reasonName": "globalInteractionReason"}]}, "venue": {"id": "4c4166ddaf052d7f855d7d79", "name": "M\u00fcller", "location": {"address": "Wei\u00dfenh\u00f6her Str. 88", "lat": 52.506005564165356, "lng": 13.558594026940812, "labeledLatLngs": [{"label": "display", "lat": 52.506005564165356, "lng": 13.558594026940812}], "distance": 165, "postalCode": "12683", "cc": "DE", "city": "Berlin", "state": "Berlin", "country": "Deutschland", "formattedAddress": ["Wei\u00dfenh\u00f6her Str. 88", "12683 Berlin", "Deutschland"]}, "categories": [{"id": "5745c2e4498e11e7bccabdbd", "name": "Drugstore", "pluralName": "Drugstores", "shortName": "Drugstore", "icon": {"prefix": "https://ss3.4sqi.net/img/categories_v2/shops/pharmacy_", "suffix": ".png"}, "primary": true}], "photos": {"count": 0, "groups": []}, "venuePage": {"id": "449792090"}}, "referralId": "e-0-4c4166ddaf052d7f855d7d79-1"}, {"reasons": {"count": 0, "items": [{"summary": "This spot is popular", "type": "general", "reasonName": "globalInteractionReason"}]}, "venue": {"id": "4b2a905cf964a52074ab24e3", "name": "Kaufland", "location": {"address": "Wei\u00dfenh\u00f6her Str. 88-108", "lat": 52.507097297380184, "lng": 13.557968723139052, "labeledLatLngs": [{"label": "display", "lat": 52.507097297380184, "lng": 13.557968723139052}], "distance": 100, "postalCode": "12683", "cc": "DE", "city": "Berlin", "state": "Berlin", "country": "Deutschland", "formattedAddress": ["Wei\u00dfenh\u00f6her Str. 88-108", "12683 Berlin-Biesdorf", "Deutschland"]}, "categories": [{"id": "52f2ab2ebcbc57f1066b8b42", "name": "Big Box Store", "pluralName": "Big Box Stores", "shortName": "Big Box Store", "icon": {"prefix": "https://ss3.4sqi.net/img/categories_v2/shops/default_", "suffix": ".png"}, "primary": true}], "photos": {"count": 0, "groups": []}, "venuePage": {"id": "450565847"}}, "referralId": "e-0-4b2a905cf964a52074ab24e3-2"}, {"reasons": {"count": 0, "items": [{"summary": "This spot is popular", "type": "general", "reasonName": "globalInteractionReason"}]}, "venue": {"id": "4e21e201b0fbdf9ba7aea9a6", "name": "Rossini II", "location": {"address": "K\u00f6penicker Stra\u00dfe 25", "lat": 52.5050486198376, "lng": 13.561988924299433, "labeledLatLngs": [{"label": "display", "lat": 52.5050486198376, "lng": 13.561988924299433}], "distance": 319, "postalCode": "12683", "cc": "DE", "city": "Berlin", "state": "Berlin", "country": "Deutschland", "formattedAddress": ["K\u00f6penicker Stra\u00dfe 25", "12683 Berlin-Biesdorf", "Deutschland"]}, "categories": [{"id": "4bf58dd8d48988d110941735", "name": "Italian Restaurant", "pluralName": "Italian Restaurants", "shortName": "Italian", "icon": {"prefix": "https://ss3.4sqi.net/img/categories_v2/food/italian_", "suffix": ".png"}, "primary": true}], "photos": {"count": 0, "groups": []}}, "referralId": "e-0-4e21e201b0fbdf9ba7aea9a6-3"}, {"reasons": {"count": 0, "items": [{"summary": "This spot is popular", "type": "general", "reasonName": "globalInteractionReason"}]}, "venue": {"id": "4bed7af73372c928a2ad1114", "name": "D\u00e4nisches Bettenlager", "location": {"address": "Wei\u00dfenh\u00f6her Str. 108", "crossStreet": "Biesdorf-Center", "lat": 52.50657010254466, "lng": 13.559081554412842, "labeledLatLngs": [{"label": "display", "lat": 52.50657010254466, "lng": 13.559081554412842}], "distance": 96, "postalCode": "12683", "cc": "DE", "city": "Berlin", "state": "Berlin", "country": "Deutschland", "formattedAddress": ["Wei\u00dfenh\u00f6her Str. 108 (Biesdorf-Center)", "12683 Berlin", "Deutschland"]}, "categories": [{"id": "4bf58dd8d48988d1f8941735", "name": "Furniture / Home Store", "pluralName": "Furniture / Home Stores", "shortName": "Furniture / Home", "icon": {"prefix": "https://ss3.4sqi.net/img/categories_v2/shops/furniture_", "suffix": ".png"}, "primary": true}], "photos": {"count": 0, "groups": []}}, "referralId": "e-0-4bed7af73372c928a2ad1114-4"}, {"reasons": {"count": 0, "items": [{"summary": "This spot is popular", "type": "general", "reasonName": "globalInteractionReason"}]}, "venue": {"id": "4b438206f964a520fce125e3", "name": "DHL Packstation Biesdorf-S\u00fcd", "location": {"address": "Wei\u00dfenh\u00f6her Weg", "lat": 52.506840654696134, "lng": 13.559517702391553, "labeledLatLngs": [{"label": "display", "lat": 52.506840654696134, "lng": 13.559517702391553}], "distance": 66, "postalCode": "12683", "cc": "DE", "city": "Berlin", "state": "Berlin", "country": "Deutschland", "formattedAddress": ["Wei\u00dfenh\u00f6her Weg", "12683 Berlin", "Deutschland"]}, "categories": [{"id": "52f2ab2ebcbc57f1066b8b1f", "name": "Shipping Store", "pluralName": "Shipping Stores", "shortName": "Shipping Store", "icon": {"prefix": "https://ss3.4sqi.net/img/categories_v2/shops/default_", "suffix": ".png"}, "primary": true}], "photos": {"count": 0, "groups": []}}, "referralId": "e-0-4b438206f964a520fce125e3-5"}, {"reasons": {"count": 0, "items": [{"summary": "This spot is popular", "type": "general", "reasonName": "globalInteractionReason"}]}, "venue": {"id": "58507368c0df7655816147ca", "name": "BIO COMPANY Biesdorf Center", "location": {"address": "Wei\u00dfenh\u00f6her Str. 108", "lat": 52.5063164, "lng": 13.5590091, "labeledLatLngs": [{"label": "display", "lat": 52.5063164, "lng": 13.5590091}], "distance": 125, "postalCode": "12683", "cc": "DE", "city": "Berlin", "state": "Berlin", "country": "Deutschland", "formattedAddress": ["Wei\u00dfenh\u00f6her Str. 108", "12683 Berlin", "Deutschland"]}, "categories": [{"id": "52f2ab2ebcbc57f1066b8b46", "name": "Supermarket", "pluralName": "Supermarkets", "shortName": "Supermarket", "icon": {"prefix": "https://ss3.4sqi.net/img/categories_v2/shops/food_grocery_", "suffix": ".png"}, "primary": true}], "photos": {"count": 0, "groups": []}, "venuePage": {"id": "452542559"}}, "referralId": "e-0-58507368c0df7655816147ca-6"}, {"reasons": {"count": 0, "items": [{"summary": "This spot is popular", "type": "general", "reasonName": "globalInteractionReason"}]}, "venue": {"id": "5367a358498e4b8c5c8dda8c", "name": "Biesdorf Center", "location": {"address": "Wei\u00dfenh\u00f6her Str. 88", "lat": 52.506378, "lng": 13.558963, "labeledLatLngs": [{"label": "display", "lat": 52.506378, "lng": 13.558963}], "distance": 119, "postalCode": "12683", "cc": "DE", "city": "Berlin", "state": "Berlin", "country": "Deutschland", "formattedAddress": ["Wei\u00dfenh\u00f6her Str. 88", "12683 Berlin", "Deutschland"]}, "categories": [{"id": "4bf58dd8d48988d1fd941735", "name": "Shopping Mall", "pluralName": "Shopping Malls", "shortName": "Mall", "icon": {"prefix": "https://ss3.4sqi.net/img/categories_v2/shops/mall_", "suffix": ".png"}, "primary": true}], "photos": {"count": 0, "groups": []}}, "referralId": "e-0-5367a358498e4b8c5c8dda8c-7"}, {"reasons": {"count": 0, "items": [{"summary": "This spot is popular", "type": "general", "reasonName": "globalInteractionReason"}]}, "venue": {"id": "4c53008299ecc9b65667ad5b", "name": "DAS FUTTERHAUS", "location": {"address": "Wei\u00dfenh\u00f6her Str. 88-108", "lat": 52.50631749999999, "lng": 13.5590091, "labeledLatLngs": [{"label": "display", "lat": 52.50631749999999, "lng": 13.5590091}], "distance": 125, "postalCode": "12683", "cc": "DE", "city": "Berlin", "state": "Berlin", "country": "Deutschland", "formattedAddress": ["Wei\u00dfenh\u00f6her Str. 88-108", "12683 Berlin", "Deutschland"]}, "categories": [{"id": "4bf58dd8d48988d100951735", "name": "Pet Store", "pluralName": "Pet Stores", "shortName": "Pet Store", "icon": {"prefix": "https://ss3.4sqi.net/img/categories_v2/shops/pet_store_", "suffix": ".png"}, "primary": true}], "photos": {"count": 0, "groups": []}, "venuePage": {"id": "452113303"}}, "referralId": "e-0-4c53008299ecc9b65667ad5b-8"}, {"reasons": {"count": 0, "items": [{"summary": "This spot is popular", "type": "general", "reasonName": "globalInteractionReason"}]}, "venue": {"id": "4b3f4702f964a52025a525e3", "name": "U Elsterwerdaer Platz", "location": {"address": "K\u00f6penicker Str.", "crossStreet": "Elsterwerdaer Platz", "lat": 52.5053032011428, "lng": 13.56088399887085, "labeledLatLngs": [{"label": "display", "lat": 52.5053032011428, "lng": 13.56088399887085}], "distance": 258, "postalCode": "12683", "cc": "DE", "city": "Berlin", "state": "Berlin", "country": "Deutschland", "formattedAddress": ["K\u00f6penicker Str. (Elsterwerdaer Platz)", "12683 Berlin", "Deutschland"]}, "categories": [{"id": "4bf58dd8d48988d1fd931735", "name": "Metro Station", "pluralName": "Metro Stations", "shortName": "Metro", "icon": {"prefix": "https://ss3.4sqi.net/img/categories_v2/travel/subway_", "suffix": ".png"}, "primary": true}], "photos": {"count": 0, "groups": []}}, "referralId": "e-0-4b3f4702f964a52025a525e3-9"}, {"reasons": {"count": 0, "items": [{"summary": "This spot is popular", "type": "general", "reasonName": "globalInteractionReason"}]}, "venue": {"id": "53419c1c498ee4ab550d93c5", "name": "By Sultan's", "location": {"address": "Elsterwerdaer Platz", "lat": 52.50533501563435, "lng": 13.561436008676724, "labeledLatLngs": [{"label": "display", "lat": 52.50533501563435, "lng": 13.561436008676724}], "distance": 272, "postalCode": "12683", "cc": "DE", "city": "Berlin", "state": "Berlin", "country": "Deutschland", "formattedAddress": ["Elsterwerdaer Platz", "12683 Berlin", "Deutschland"]}, "categories": [{"id": "5283c7b4e4b094cb91ec88d8", "name": "Doner Restaurant", "pluralName": "Doner Restaurants", "shortName": "Doner", "icon": {"prefix": "https://ss3.4sqi.net/img/categories_v2/food/turkish_", "suffix": ".png"}, "primary": true}], "photos": {"count": 0, "groups": []}}, "referralId": "e-0-53419c1c498ee4ab550d93c5-10"}, {"reasons": {"count": 0, "items": [{"summary": "This spot is popular", "type": "general", "reasonName": "globalInteractionReason"}]}, "venue": {"id": "52e7ea0c11d22a783e64219e", "name": "Netto Filiale", "location": {"address": "Wulkower Str. 2", "crossStreet": "K\u00f6penicker Str.", "lat": 52.50445041, "lng": 13.5611684, "labeledLatLngs": [{"label": "display", "lat": 52.50445041, "lng": 13.5611684}], "distance": 353, "postalCode": "12683", "cc": "DE", "city": "Berlin", "state": "Berlin", "country": "Deutschland", "formattedAddress": ["Wulkower Str. 2 (K\u00f6penicker Str.)", "12683 Berlin", "Deutschland"]}, "categories": [{"id": "52f2ab2ebcbc57f1066b8b46", "name": "Supermarket", "pluralName": "Supermarkets", "shortName": "Supermarket", "icon": {"prefix": "https://ss3.4sqi.net/img/categories_v2/shops/food_grocery_", "suffix": ".png"}, "primary": true}], "photos": {"count": 0, "groups": []}, "venuePage": {"id": "540030534"}}, "referralId": "e-0-52e7ea0c11d22a783e64219e-11"}, {"reasons": {"count": 0, "items": [{"summary": "This spot is popular", "type": "general", "reasonName": "globalInteractionReason"}]}, "venue": {"id": "4adcda8bf964a520014a21e3", "name": "Biesdorfer Parkb\u00fchne", "location": {"address": "Nordpromenade 5", "lat": 52.511794052468275, "lng": 13.559049367904663, "labeledLatLngs": [{"label": "display", "lat": 52.511794052468275, "lng": 13.559049367904663}], "distance": 486, "postalCode": "12683", "cc": "DE", "city": "Berlin", "state": "Berlin", "country": "Deutschland", "formattedAddress": ["Nordpromenade 5", "12683 Berlin", "Deutschland"]}, "categories": [{"id": "56aa371be4b08b9a8d57356a", "name": "Outdoor Event Space", "pluralName": "Outdoor Event Spaces", "shortName": "Outdoor Event Space", "icon": {"prefix": "https://ss3.4sqi.net/img/categories_v2/building/eventspace_", "suffix": ".png"}, "primary": true}], "photos": {"count": 0, "groups": []}}, "referralId": "e-0-4adcda8bf964a520014a21e3-12"}, {"reasons": {"count": 0, "items": [{"summary": "This spot is popular", "type": "general", "reasonName": "globalInteractionReason"}]}, "venue": {"id": "4ccee0b3b571b60c82dde065", "name": "Fortuna Biesdorf Sportplatz", "location": {"address": "Am Grabensprung", "lat": 52.50543099569799, "lng": 13.552640745048407, "labeledLatLngs": [{"label": "display", "lat": 52.50543099569799, "lng": 13.552640745048407}], "distance": 505, "postalCode": "12683", "cc": "DE", "city": "Berlin", "state": "Berlin", "country": "Deutschland", "formattedAddress": ["Am Grabensprung", "12683 Berlin", "Deutschland"]}, "categories": [{"id": "4f4528bc4b90abdf24c9de85", "name": "Athletics & Sports", "pluralName": "Athletics & Sports", "shortName": "Athletics & Sports", "icon": {"prefix": "https://ss3.4sqi.net/img/categories_v2/shops/sports_outdoors_", "suffix": ".png"}, "primary": true}], "photos": {"count": 0, "groups": []}}, "referralId": "e-0-4ccee0b3b571b60c82dde065-13"}, {"reasons": {"count": 0, "items": [{"summary": "This spot is popular", "type": "general", "reasonName": "globalInteractionReason"}]}, "venue": {"id": "560270dc498e7347d23bb368", "name": "Netto Deutschland - schwarz-gelber Discounter mit dem Scottie", "location": {"address": "K\u00f6penicker Str. 45", "lat": 52.5028574, "lng": 13.5622756, "labeledLatLngs": [{"label": "display", "lat": 52.5028574, "lng": 13.5622756}], "distance": 545, "postalCode": "12683", "cc": "DE", "city": "Berlin", "state": "Berlin", "country": "Deutschland", "formattedAddress": ["K\u00f6penicker Str. 45", "12683 Berlin", "Deutschland"]}, "categories": [{"id": "52dea92d3cf9994f4e043dbb", "name": "Discount Store", "pluralName": "Discount Stores", "shortName": "Discount Store", "icon": {"prefix": "https://ss3.4sqi.net/img/categories_v2/shops/discountstore_", "suffix": ".png"}, "primary": true}], "photos": {"count": 0, "groups": []}, "venuePage": {"id": "453030299"}}, "referralId": "e-0-560270dc498e7347d23bb368-14"}, {"reasons": {"count": 0, "items": [{"summary": "This spot is popular", "type": "general", "reasonName": "globalInteractionReason"}]}, "venue": {"id": "5008c878e4b04e15476e755d", "name": "NETTO", "location": {"address": "K\u00f6penicker Str. 45", "lat": 52.502834597645005, "lng": 13.562230467796324, "labeledLatLngs": [{"label": "display", "lat": 52.502834597645005, "lng": 13.562230467796324}], "distance": 547, "postalCode": "12683", "cc": "DE", "city": "Berlin", "state": "Berlin", "country": "Deutschland", "formattedAddress": ["K\u00f6penicker Str. 45", "12683 Berlin", "Deutschland"]}, "categories": [{"id": "52f2ab2ebcbc57f1066b8b46", "name": "Supermarket", "pluralName": "Supermarkets", "shortName": "Supermarket", "icon": {"prefix": "https://ss3.4sqi.net/img/categories_v2/shops/food_grocery_", "suffix": ".png"}, "primary": true}], "photos": {"count": 0, "groups": []}}, "referralId": "e-0-5008c878e4b04e15476e755d-15"}, {"reasons": {"count": 0, "items": [{"summary": "This spot is popular", "type": "general", "reasonName": "globalInteractionReason"}]}, "venue": {"id": "4bdfc6036198c9b6af5c18ff", "name": "S Biesdorf", "location": {"address": "Wuhlgartenweg", "lat": 52.51316285245152, "lng": 13.555467425622808, "labeledLatLngs": [{"label": "display", "lat": 52.51316285245152, "lng": 13.555467425622808}], "distance": 690, "postalCode": "12683", "cc": "DE", "city": "Berlin", "state": "Berlin", "country": "Deutschland", "formattedAddress": ["Wuhlgartenweg", "12683 Berlin", "Deutschland"]}, "categories": [{"id": "4bf58dd8d48988d1fc931735", "name": "Light Rail Station", "pluralName": "Light Rail Stations", "shortName": "Light Rail", "icon": {"prefix": "https://ss3.4sqi.net/img/categories_v2/travel/lightrail_", "suffix": ".png"}, "primary": true}], "photos": {"count": 0, "groups": []}}, "referralId": "e-0-4bdfc6036198c9b6af5c18ff-16"}, {"reasons": {"count": 0, "items": [{"summary": "This spot is popular", "type": "general", "reasonName": "globalInteractionReason"}]}, "venue": {"id": "5845af24a19e9066cd1aa635", "name": "PENNY", "location": {"address": "Oberfeldstra\u00dfe 3", "lat": 52.514202737053566, "lng": 13.554336712235568, "labeledLatLngs": [{"label": "display", "lat": 52.514202737053566, "lng": 13.554336712235568}], "distance": 827, "postalCode": "12683", "cc": "DE", "city": "Berlin", "state": "Berlin", "country": "Deutschland", "formattedAddress": ["Oberfeldstra\u00dfe 3", "12683 Berlin", "Deutschland"]}, "categories": [{"id": "4bf58dd8d48988d186941735", "name": "Liquor Store", "pluralName": "Liquor Stores", "shortName": "Liquor Store", "icon": {"prefix": "https://ss3.4sqi.net/img/categories_v2/shops/food_liquor_", "suffix": ".png"}, "primary": true}], "photos": {"count": 0, "groups": []}, "venuePage": {"id": "565107128"}}, "referralId": "e-0-5845af24a19e9066cd1aa635-17"}, {"reasons": {"count": 0, "items": [{"summary": "This spot is popular", "type": "general", "reasonName": "globalInteractionReason"}]}, "venue": {"id": "4d1f0be8f7a9a1430ef7209f", "name": "Biesdorfer H\u00f6he", "location": {"address": "Alt-Biesdorf", "crossStreet": "Wuhletal-Wanderweg", "lat": 52.50658577964104, "lng": 13.57228047708184, "labeledLatLngs": [{"label": "display", "lat": 52.50658577964104, "lng": 13.57228047708184}], "distance": 881, "postalCode": "12683", "cc": "DE", "city": "Berlin", "state": "Berlin", "country": "Deutschland", "formattedAddress": ["Alt-Biesdorf (Wuhletal-Wanderweg)", "12683 Berlin", "Deutschland"]}, "categories": [{"id": "4bf58dd8d48988d165941735", "name": "Scenic Lookout", "pluralName": "Scenic Lookouts", "shortName": "Scenic Lookout", "icon": {"prefix": "https://ss3.4sqi.net/img/categories_v2/parks_outdoors/sceniclookout_", "suffix": ".png"}, "primary": true}], "photos": {"count": 0, "groups": []}}, "referralId": "e-0-4d1f0be8f7a9a1430ef7209f-18"}, {"reasons": {"count": 0, "items": [{"summary": "This spot is popular", "type": "general", "reasonName": "globalInteractionReason"}]}, "venue": {"id": "4e301f5b483b93c2f2e5fe03", "name": "Biesdorfer See", "location": {"lat": 52.50265015106972, "lng": 13.548734895913077, "labeledLatLngs": [{"label": "display", "lat": 52.50265015106972, "lng": 13.548734895913077}], "distance": 894, "cc": "DE", "city": "Berlin", "state": "Berlin", "country": "Deutschland", "formattedAddress": ["Berlin", "Deutschland"]}, "categories": [{"id": "4bf58dd8d48988d161941735", "name": "Lake", "pluralName": "Lakes", "shortName": "Lake", "icon": {"prefix": "https://ss3.4sqi.net/img/categories_v2/parks_outdoors/lake_", "suffix": ".png"}, "primary": true}], "photos": {"count": 0, "groups": []}}, "referralId": "e-0-4e301f5b483b93c2f2e5fe03-19"}]