[{"reasons": {"count": 0, "items": [{"summary": "This spot is popular", "type": "general", "reasonName": "globalInteractionReason"}]}, "venue": {"id": "4badfda2f964a5209b783be3", "name": "Golf Resort Berlin Pankow", "location": {"address": "Blankenburger Pflasterweg 40", "lat": 52.58471423967978, "lng": 13.469088077545164, "labeledLatLngs": [{"label": "display", "lat": 52.58471423967978, "lng": 13.469088077545164}], "distance": 582, "postalCode": "13129", "cc": "DE", "city": "Berlin", "state": "Berlin", "country": "Deutschland", "formattedAddress": ["Blankenburger Pflasterweg 40", "13129 Berlin", "Deutschland"]}, "categories": [{"id": "4bf58dd8d48988d1e6941735", "name": "Golf Course", "pluralName": "Golf Courses", "shortName": "Golf Course", "icon": {"prefix": "https://ss3.4sqi.net/img/categories_v2/parks_outdoors/golfcourse_", "suffix": ".png"}, "primary": true}], "photos": {"count": 0, "groups": []}}, "referralId": "e-0-4badfda2f964a5209b783be3-0"}, {"reasons": {"count": 0, "items": [{"summary": "This spot is popular", "type": "general", "reasonName": "globalInteractionReason"}]}, "venue": {"id": "4f474a65e4b03377e648b8de", "name": "H M\u00f6rderberg", "location": {"address": "Blankenburger Pflasterweg", "lat": 52.58503154904238, "lng": 13.460404297601565, "labeledLatLngs": [{"label": "display", "lat": 52.58503154904238, "lng": 13.460404297601565}], "distance": 153, "postalCode": "13129", "cc": "DE", "city": "Berlin", "state": "Berlin", "country": "Deutschland", "formattedAddress": ["Blankenburger Pflasterweg", "13129 Berlin", "Deutschland"]}, "categories": [{"id": "52f2ab2ebcbc57f1066b8b4f", "name": "Bus Stop", "pluralName": "Bus Stops", "shortName": "Bus Stop", "icon": {"prefix": "https://ss3.4sqi.net/img/categories_v2/travel/busstation_", "suffix": ".png"}, "primary": true}], "photos": {"count": 0, "groups": []}}, "referralId": "e-0-4f474a65e4b03377e648b8de-1"}, {"reasons": {"count": 0, "items": [{"summary": "This spot is popular", "type": "general", "reasonName": "globalInteractionReason"}]}, "venue": {"id": "577d5f6a498ee81e6c2f11d4", "name": "Cafe am Flie\u00df", "location": {"address": "Blankenburger Pflasterweg 40", "lat": 52.584677, "lng": 13.469133, "labeledLatLngs": [{"label": "display", "lat": 52.584677, "lng": 13.469133}], "distance": 584, "postalCode": "13129", "cc": "DE", "city": "Berlin", "state": "Berlin", "country": "Deutschland", "formattedAddress": ["Blankenburger Pflasterweg 40", "13129 Berlin", "Deutschland"]}, "categories": [{"id": "4bf58dd8d48988d1c4941735", "name": "Restaurant", "pluralName": "Restaurants", "shortName": "Restaurant", "icon": {"prefix": "https://ss3.4sqi.net/img/categories_v2/food/default_", "suffix": ".png"}, "primary": true}], "photos": {"count": 0, "groups": []}}, "referralId": "e-0-577d5f6a498ee81e6c2f11d4-2"}, {"reasons": {"count": 0, "items": [{"summary": "This spot is popular", "type": "general", "reasonName": "globalInteractionReason"}]}, "venue": {"id": "536e24da498edac104415a6f", "name": "KGA M\u00e4rchenland", "location": {"lat": 52.578700281569844, "lng": 13.463610790591549, "labeledLatLngs": [{"label": "display", "lat": 52.578700281569844, "lng": 13.463610790591549}], "distance": 587, "cc": "DE", "city": "Berlin", "state": "Berlin", "country": "Deutschland", "formattedAddress": ["Berlin", "Deutschland"]}, "categories": [{"id": "4bf58dd8d48988d15a941735", "name": "Garden", "pluralName": "Gardens", "shortName": "Garden", "icon": {"prefix": "https://ss3.4sqi.net/img/categories_v2/parks_outdoors/garden_", "suffix": ".png"}, "primary": true}], "photos": {"count": 0, "groups": []}}, "referralId": "e-0-536e24da498edac104415a6f-3"}, {"reasons": {"count": 0, "items": [{"summary": "This spot is popular", "type": "general", "reasonName": "globalInteractionReason"}]}, "venue": {"id": "5d45664b5f86660007c82b8b", "name": "Putting Green", "location": {"lat": 52.585069, "lng": 13.46932, "labeledLatLngs": [{"label": "display", "lat": 52.585069, "lng": 13.46932}], "distance": 607, "cc": "DE", "country": "Deutschland", "formattedAddress": ["Deutschland"]}, "categories": [{"id": "4bf58dd8d48988d1e6941735", "name": "Golf Course", "pluralName": "Golf Courses", "shortName": "Golf Course", "icon": {"prefix": "https://ss3.4sqi.net/img/categories_v2/parks_outdoors/golfcourse_", "suffix": ".png"}, "primary": true}], "photos": {"count": 0, "groups": []}}, "referralId": "e-0-5d45664b5f86660007c82b8b-4"}, {"reasons": {"count": 0, "items": [{"summary": "This spot is popular", "type": "general", "reasonName": "globalInteractionReason"}]}, "venue": {"id": "4fddf171e4b0ede382890f37", "name": "Hole 9zehn", "location": {"address": "Blankenburger Pflasterweg 40", "lat": 52.58436937642603, "lng": 13.46978881542152, "labeledLatLngs": [{"label": "display", "lat": 52.58436937642603, "lng": 13.46978881542152}], "distance": 623, "postalCode": "13129", "cc": "DE", "city": "Berlin", "state": "Berlin", "country": "Deutschland", "formattedAddress": ["Blankenburger Pflasterweg 40", "13129 Berlin", "Deutschland"]}, "categories": [{"id": "4bf58dd8d48988d1c4941735", "name": "Restaurant", "pluralName": "Restaurants", "shortName": "Restaurant", "icon": {"prefix": "https://ss3.4sqi.net/img/categories_v2/food/default_", "suffix": ".png"}, "primary": true}], "photos": {"count": 0, "groups": []}}, "referralId": "e-0-4fddf171e4b0ede382890f37-5"}, {"reasons": {"count": 0, "items": [{"summary": "This spot is popular", "type": "general", "reasonName": "globalInteractionReason"}]}, "venue": {"id": "4e35547518a82fdd6574922c", "name": "M\u00e4rchenklause", "location": {"address": "Reineke-Fuchs-Weg 55", "crossStreet": "KGA M\u00e4rchenland", "lat": 52.57539765102655, "lng": 13.464767546896027, "labeledLatLngs": [{"label": "display", "lat": 52.57539765102655, "lng": 13.464767546896027}], "distance": 961, "postalCode": "13088", "cc": "DE", "city": "Berlin", "state": "Berlin", "country": "Deutschland", "formattedAddress": ["Reineke-Fuchs-Weg 55 (KGA M\u00e4rchenland)", "13088 Berlin", "Deutschland"]}, "categories": [{"id": "4bf58dd8d48988d1c4941735", "name": "Restaurant", "pluralName": "Restaurants", "shortName": "Restaurant", "icon": {"prefix": "https://ss3.4sqi.net/img/categories_v2/food/default_", "suffix": ".png"}, "primary": true}], "photos": {"count": 0, "groups": []}}, "referralId": "e-0-4e35547518a82fdd6574922c-6"}]