[{"reasons": {"count": 0, "items": [{"summary": "This spot is popular", "type": "general", "reasonName": "globalInteractionReason"}]}, "venue": {"id": "58e7c17dfb9d8958fb1cea78", "name": "Hot Wheels", "location": {"address": "Buntzelstr. 134", "lat": 52.40088271427892, "lng": 13.559179186886468, "labeledLatLngs": [{"label": "display", "lat": 52.40088271427892, "lng": 13.559179186886468}], "distance": 456, "postalCode": "12526", "cc": "DE", "city": "Berlin", "state": "Berlin", "country": "Deutschland", "formattedAddress": ["Buntzelstr. 134", "12526 Berlin", "Deutschland"]}, "categories": [{"id": "56aa371be4b08b9a8d5734d3", "name": "Auto Workshop", "pluralName": "Auto Workshops", "shortName": "Auto Workshop", "icon": {"prefix": "https://ss3.4sqi.net/img/categories_v2/shops/automotive_", "suffix": ".png"}, "primary": true}], "photos": {"count": 0, "groups": []}}, "referralId": "e-0-58e7c17dfb9d8958fb1cea78-0"}, {"reasons": {"count": 0, "items": [{"summary": "This spot is popular", "type": "general", "reasonName": "globalInteractionReason"}]}, "venue": {"id": "4fa61198e4b00c5844d201cb", "name": "plovdiv", "location": {"lat": 52.3997294847076, "lng": 13.555285275064847, "labeledLatLngs": [{"label": "display", "lat": 52.3997294847076, "lng": 13.555285275064847}], "distance": 629, "cc": "DE", "country": "Deutschland", "formattedAddress": ["Deutschland"]}, "categories": [{"id": "4bf58dd8d48988d1fa931735", "name": "Hotel", "pluralName": "Hotels", "shortName": "Hotel", "icon": {"prefix": "https://ss3.4sqi.net/img/categories_v2/travel/hotel_", "suffix": ".png"}, "primary": true}], "photos": {"count": 0, "groups": []}}, "referralId": "e-0-4fa61198e4b00c5844d201cb-1"}, {"reasons": {"count": 0, "items": [{"summary": "This spot is popular", "type": "general", "reasonName": "globalInteractionReason"}]}, "venue": {"id": "518e3a8e498e28a30f09dbaa", "name": "Thomas Philipps Sonderposten", "location": {"address": "Paradiesstr.", "lat": 52.404002919858414, "lng": 13.559602259609306, "labeledLatLngs": [{"label": "display", "lat": 52.404002919858414, "lng": 13.559602259609306}], "distance": 721, "postalCode": "12526", "cc": "DE", "city": "Berlin", "state": "Berlin", "country": "Deutschland", "formattedAddress": ["Paradiesstr.", "12526 Berlin", "Deutschland"]}, "categories": [{"id": "52dea92d3cf9994f4e043dbb", "name": "Discount Store", "pluralName": "Discount Stores", "shortName": "Discount Store", "icon": {"prefix": "https://ss3.4sqi.net/img/categories_v2/shops/discountstore_", "suffix": ".png"}, "primary": true}], "photos": {"count": 0, "groups": []}}, "referralId": "e-0-518e3a8e498e28a30f09dbaa-2"}, {"reasons": {"count": 0, "items": [{"summary": "This spot is popular", "type": "general", "reasonName": "globalInteractionReason"}]}, "venue": {"id": "5612407f498e5d594a6b8e2f", "name": "KFZ-Werkstatt Falko Meyer", "location": {"address": "Kleine Spechtstrasse 55", "lat": 52.391352, "lng": 13.561812, "labeledLatLngs": [{"label": "display", "lat": 52.391352, "lng": 13.561812}], "distance": 773, "postalCode": "12526", "cc": "DE", "city": "Berlin", "state": "Berlin", "country": "Deutschland", "formattedAddress": ["Kleine Spechtstrasse 55", "12526 Berlin", "Deutschland"]}, "categories": [{"id": "52f2ab2ebcbc57f1066b8b44", "name": "Auto Garage", "pluralName": "Auto Garages", "shortName": "Auto Garage", "icon": {"prefix": "https://ss3.4sqi.net/img/categories_v2/shops/automotive_", "suffix": ".png"}, "primary": true}], "photos": {"count": 0, "groups": []}}, "referralId": "e-0-5612407f498e5d594a6b8e2f-3"}, {"reasons": {"count": 0, "items": [{"summary": "This spot is popular", "type": "general", "reasonName": "globalInteractionReason"}]}, "venue": {"id": "50c359ade4b0e12107a53f00", "name": "AS Treptow (1)", "location": {"address": "BAB 117", "crossStreet": "B 96a (Am Seegraben)", "lat": 52.40467663014577, "lng": 13.554875148853057, "labeledLatLngs": [{"label": "display", "lat": 52.40467663014577, "lng": 13.554875148853057}], "distance": 963, "postalCode": "12435", "cc": "DE", "city": "Berlin", "state": "Berlin", "country": "Deutschland", "formattedAddress": ["BAB 117 (B 96a (Am Seegraben))", "12435 Berlin", "Deutschland"]}, "categories": [{"id": "52f2ab2ebcbc57f1066b8b4c", "name": "Intersection", "pluralName": "Intersections", "shortName": "Intersection", "icon": {"prefix": "https://ss3.4sqi.net/img/categories_v2/travel/default_", "suffix": ".png"}, "primary": true}], "photos": {"count": 0, "groups": []}}, "referralId": "e-0-50c359ade4b0e12107a53f00-4"}, {"reasons": {"count": 0, "items": [{"summary": "This spot is popular", "type": "general", "reasonName": "globalInteractionReason"}]}, "venue": {"id": "4e5d4303922e9ca908204aff", "name": "Pizzeria Dolce Vita", "location": {"address": "Waltersdorfer Str. 1A", "lat": 52.40488269999999, "lng": 13.573246899999958, "labeledLatLngs": [{"label": "display", "lat": 52.40488269999999, "lng": 13.573246899999958}], "distance": 969, "postalCode": "12526", "cc": "DE", "city": "Berlin", "state": "Berlin", "country": "Deutschland", "formattedAddress": ["Waltersdorfer Str. 1A", "12526 Berlin", "Deutschland"]}, "categories": [{"id": "4bf58dd8d48988d110941735", "name": "Italian Restaurant", "pluralName": "Italian Restaurants", "shortName": "Italian", "icon": {"prefix": "https://ss3.4sqi.net/img/categories_v2/food/italian_", "suffix": ".png"}, "primary": true}], "photos": {"count": 0, "groups": []}}, "referralId": "e-0-4e5d4303922e9ca908204aff-5"}]