[{"reasons": {"count": 0, "items": [{"summary": "This spot is popular", "type": "general", "reasonName": "globalInteractionReason"}]}, "venue": {"id": "56069b45498ee7b98431e3b3", "name": "BrewDog", "location": {"address": "Ackerstr. 29", "lat": 52.53280111922482, "lng": 13.395788669586182, "labeledLatLngs": [{"label": "display", "lat": 52.53280111922482, "lng": 13.395788669586182}], "distance": 200, "postalCode": "10115", "cc": "DE", "city": "Berlin", "state": "Berlin", "country": "Deutschland", "formattedAddress": ["Ackerstr. 29", "10115 Berlin", "Deutschland"]}, "categories": [{"id": "56aa371ce4b08b9a8d57356c", "name": "Beer Bar", "pluralName": "Beer Bars", "shortName": "Beer Bar", "icon": {"prefix": "https://ss3.4sqi.net/img/categories_v2/nightlife/pub_", "suffix": ".png"}, "primary": true}], "photos": {"count": 0, "groups": []}}, "referralId": "e-0-56069b45498ee7b98431e3b3-0"}, {"reasons": {"count": 0, "items": [{"summary": "This spot is popular", "type": "general", "reasonName": "globalInteractionReason"}]}, "venue": {"id": "4bd975242e6f0f4708960a08", "name": "Gedenkst\u00e4tte Berliner Mauer", "location": {"address": "Bernauer Str. 111", "crossStreet": "Ackerstr.", "lat": 52.534896052519215, "lng": 13.390139937400818, "labeledLatLngs": [{"label": "display", "lat": 52.534896052519215, "lng": 13.390139937400818}], "distance": 248, "postalCode": "13355", "cc": "DE", "neighborhood": "Mitte", "city": "Berlin", "state": "Berlin", "country": "Deutschland", "formattedAddress": ["Bernauer Str. 111 (Ackerstr.)", "13355 Berlin", "Deutschland"]}, "categories": [{"id": "4deefb944765f83613cdba6e", "name": "Historic Site", "pluralName": "Historic Sites", "shortName": "Historic Site", "icon": {"prefix": "https://ss3.4sqi.net/img/categories_v2/arts_entertainment/historicsite_", "suffix": ".png"}, "primary": true}], "photos": {"count": 0, "groups": []}}, "referralId": "e-0-4bd975242e6f0f4708960a08-1"}, {"reasons": {"count": 0, "items": [{"summary": "This spot is popular", "type": "general", "reasonName": "globalInteractionReason"}]}, "venue": {"id": "5092e44fe4b09d8b5d3c2397", "name": "Redwood", "location": {"address": "Bergstr. 25", "lat": 52.53167011240907, "lng": 13.394338387116537, "labeledLatLngs": [{"label": "display", "lat": 52.53167011240907, "lng": 13.394338387116537}], "distance": 249, "postalCode": "10115", "cc": "DE", "city": "Berlin", "state": "Berlin", "country": "Deutschland", "formattedAddress": ["Bergstr. 25", "10115 Berlin", "Deutschland"]}, "categories": [{"id": "4bf58dd8d48988d11e941735", "name": "Cocktail Bar", "pluralName": "Cocktail Bars", "shortName": "Cocktail", "icon": {"prefix": "https://ss3.4sqi.net/img/categories_v2/nightlife/cocktails_", "suffix": ".png"}, "primary": true}], "photos": {"count": 0, "groups": []}}, "referralId": "e-0-5092e44fe4b09d8b5d3c2397-2"}, {"reasons": {"count": 0, "items": [{"summary": "This spot is popular", "type": "general", "reasonName": "globalInteractionReason"}]}, "venue": {"id": "51dee058498e7993b416a779", "name": "Vom Einfachen das Gute", "location": {"address": "Invalidenstr. 155", "lat": 52.53243194347814, "lng": 13.396565263319, "labeledLatLngs": [{"label": "display", "lat": 52.53243194347814, "lng": 13.396565263319}], "distance": 266, "cc": "DE", "city": "Berlin", "state": "Berlin", "country": "Deutschland", "formattedAddress": ["Invalidenstr. 155", "Berlin", "Deutschland"]}, "categories": [{"id": "4bf58dd8d48988d146941735", "name": "Deli / Bodega", "pluralName": "Delis / Bodegas", "shortName": "Deli / Bodega", "icon": {"prefix": "https://ss3.4sqi.net/img/categories_v2/food/deli_", "suffix": ".png"}, "primary": true}], "photos": {"count": 0, "groups": []}}, "referralId": "e-0-51dee058498e7993b416a779-3"}, {"reasons": {"count": 0, "items": [{"summary": "This spot is popular", "type": "general", "reasonName": "globalInteractionReason"}]}, "venue": {"id": "4ee07c8d5c5ccf21920e0461", "name": "Les P\u00e2tisseries de S\u00e9bastien", "location": {"address": "Invalidenstr. 157", "crossStreet": "Ackerstr.", "lat": 52.532461994787546, "lng": 13.396976563017251, "labeledLatLngs": [{"label": "display", "lat": 52.532461994787546, "lng": 13.396976563017251}], "distance": 288, "postalCode": "10115", "cc": "DE", "city": "Berlin", "state": "Berlin", "country": "Deutschland", "formattedAddress": ["Invalidenstr. 157 (Ackerstr.)", "10115 Berlin", "Deutschland"]}, "categories": [{"id": "5744ccdfe4b0c0459246b4e2", "name": "Pastry Shop", "pluralName": "Pastry Shops", "shortName": "Pastry", "icon": {"prefix": "https://ss3.4sqi.net/img/categories_v2/food/dessert_", "suffix": ".png"}, "primary": true}], "photos": {"count": 0, "groups": []}}, "referralId": "e-0-4ee07c8d5c5ccf21920e0461-4"}, {"reasons": {"count": 0, "items": [{"summary": "This spot is popular", "type": "general", "reasonName": "globalInteractionReason"}]}, "venue": {"id": "54565343498ecdd6e47a577b", "name": "distrikt COFFEE", "location": {"address": "Bergstr. 68", "lat": 52.53158959806963, "lng": 13.39431876207094, "labeledLatLngs": [{"label": "display", "lat": 52.53158959806963, "lng": 13.39431876207094}], "distance": 257, "postalCode": "10115", "cc": "DE", "city": "Berlin", "state": "Berlin", "country": "Deutschland", "formattedAddress": ["Bergstr. 68", "10115 Berlin", "Deutschland"]}, "categories": [{"id": "4bf58dd8d48988d1e0931735", "name": "Coffee Shop", "pluralName": "Coffee Shops", "shortName": "Coffee Shop", "icon": {"prefix": "https://ss3.4sqi.net/img/categories_v2/food/coffeeshop_", "suffix": ".png"}, "primary": true}], "photos": {"count": 0, "groups": []}}, "referralId": "e-0-54565343498ecdd6e47a577b-5"}, {"reasons": {"count": 0, "items": [{"summary": "This spot is popular", "type": "general", "reasonName": "globalInteractionReason"}]}, "venue": {"id": "4f10979be4b0958ec0480efa", "name": "Katz Orange", "location": {"address": "Bergstr. 22", "lat": 52.53151711600785, "lng": 13.395215128658876, "labeledLatLngs": [{"label": "display", "lat": 52.53151711600785, "lng": 13.395215128658876}], "distance": 286, "postalCode": "10115", "cc": "DE", "city": "Berlin", "state": "Berlin", "country": "Deutschland", "formattedAddress": ["Bergstr. 22", "10115 Berlin", "Deutschland"]}, "categories": [{"id": "4bf58dd8d48988d1c4941735", "name": "Restaurant", "pluralName": "Restaurants", "shortName": "Restaurant", "icon": {"prefix": "https://ss3.4sqi.net/img/categories_v2/food/default_", "suffix": ".png"}, "primary": true}], "photos": {"count": 0, "groups": []}}, "referralId": "e-0-4f10979be4b0958ec0480efa-6"}, {"reasons": {"count": 0, "items": [{"summary": "This spot is popular", "type": "general", "reasonName": "globalInteractionReason"}]}, "venue": {"id": "53245d85498ebfbd8bccba47", "name": "Dokumentationszentrum | Documentation Center (Dokumentationszentrum)", "location": {"address": "Bernauer Str. 111", "crossStreet": "Ackerstr.", "lat": 52.53538550851109, "lng": 13.389667868614197, "labeledLatLngs": [{"label": "display", "lat": 52.53538550851109, "lng": 13.389667868614197}], "distance": 304, "postalCode": "13355", "cc": "DE", "city": "Berlin", "state": "Berlin", "country": "Deutschland", "formattedAddress": ["Bernauer Str. 111 (Ackerstr.)", "13355 Berlin", "Deutschland"]}, "categories": [{"id": "4bf58dd8d48988d190941735", "name": "History Museum", "pluralName": "History Museums", "shortName": "History Museum", "icon": {"prefix": "https://ss3.4sqi.net/img/categories_v2/arts_entertainment/museum_history_", "suffix": ".png"}, "primary": true}], "photos": {"count": 0, "groups": []}}, "referralId": "e-0-53245d85498ebfbd8bccba47-7"}, {"reasons": {"count": 0, "items": [{"summary": "This spot is popular", "type": "general", "reasonName": "globalInteractionReason"}]}, "venue": {"id": "4af1e1b6f964a52011e421e3", "name": "Pap\u00e0 Pane di Sorrento", "location": {"address": "Ackerstr. 23", "crossStreet": "Invalidenstr.", "lat": 52.532088288499686, "lng": 13.396228061281452, "labeledLatLngs": [{"label": "display", "lat": 52.532088288499686, "lng": 13.396228061281452}], "distance": 274, "postalCode": "10115", "cc": "DE", "city": "Berlin", "state": "Berlin", "country": "Deutschland", "formattedAddress": ["Ackerstr. 23 (Invalidenstr.)", "10115 Berlin", "Deutschland"]}, "categories": [{"id": "4bf58dd8d48988d110941735", "name": "Italian Restaurant", "pluralName": "Italian Restaurants", "shortName": "Italian", "icon": {"prefix": "https://ss3.4sqi.net/img/categories_v2/food/italian_", "suffix": ".png"}, "primary": true}], "photos": {"count": 0, "groups": []}}, "referralId": "e-0-4af1e1b6f964a52011e421e3-8"}, {"reasons": {"count": 0, "items": [{"summary": "This spot is popular", "type": "general", "reasonName": "globalInteractionReason"}]}, "venue": {"id": "5911aada26659b44d9f822f5", "name": "S\u00fc\u00dffein", "location": {"address": "Brunnenstr. 156", "lat": 52.535441544404875, "lng": 13.397727797762222, "labeledLatLngs": [{"label": "display", "lat": 52.535441544404875, "lng": 13.397727797762222}], "distance": 345, "postalCode": "10115", "cc": "DE", "city": "Berlin", "state": "Berlin", "country": "Deutschland", "formattedAddress": ["Brunnenstr. 156", "10115 Berlin", "Deutschland"]}, "categories": [{"id": "4bf58dd8d48988d1c9941735", "name": "Ice Cream Shop", "pluralName": "Ice Cream Shops", "shortName": "Ice Cream", "icon": {"prefix": "https://ss3.4sqi.net/img/categories_v2/food/icecream_", "suffix": ".png"}, "primary": true}], "photos": {"count": 0, "groups": []}}, "referralId": "e-0-5911aada26659b44d9f822f5-9"}, {"reasons": {"count": 0, "items": [{"summary": "This spot is popular", "type": "general", "reasonName": "globalInteractionReason"}]}, "venue": {"id": "4c9da36454c8a1cda3fd854b", "name": "Villa Elisabeth", "location": {"address": "Invalidenstr. 3", "lat": 52.532920653298135, "lng": 13.396740223514648, "labeledLatLngs": [{"label": "display", "lat": 52.532920653298135, "lng": 13.396740223514648}], "distance": 250, "postalCode": "10115", "cc": "DE", "city": "Berlin", "state": "Berlin", "country": "Deutschland", "formattedAddress": ["Invalidenstr. 3", "10115 Berlin", "Deutschland"]}, "categories": [{"id": "4bf58dd8d48988d171941735", "name": "Event Space", "pluralName": "Event Spaces", "shortName": "Event Space", "icon": {"prefix": "https://ss3.4sqi.net/img/categories_v2/building/eventspace_", "suffix": ".png"}, "primary": true}], "photos": {"count": 0, "groups": []}}, "referralId": "e-0-4c9da36454c8a1cda3fd854b-10"}, {"reasons": {"count": 0, "items": [{"summary": "This spot is popular", "type": "general", "reasonName": "globalInteractionReason"}]}, "venue": {"id": "57754b0a498e65ace0cafdcf", "name": "Becycle", "location": {"address": "Brunnenstr. 24", "lat": 52.53347944059547, "lng": 13.398609971892046, "labeledLatLngs": [{"label": "display", "lat": 52.53347944059547, "lng": 13.398609971892046}], "distance": 357, "postalCode": "10119", "cc": "DE", "city": "Berlin", "state": "Berlin", "country": "Deutschland", "formattedAddress": ["Brunnenstr. 24", "10119 Berlin", "Deutschland"]}, "categories": [{"id": "52f2ab2ebcbc57f1066b8b49", "name": "Cycle Studio", "pluralName": "Cycle Studios", "shortName": "Cycle Studio", "icon": {"prefix": "https://ss3.4sqi.net/img/categories_v2/shops/bikeshop_", "suffix": ".png"}, "primary": true}], "photos": {"count": 0, "groups": []}}, "referralId": "e-0-57754b0a498e65ace0cafdcf-11"}, {"reasons": {"count": 0, "items": [{"summary": "This spot is popular", "type": "general", "reasonName": "globalInteractionReason"}]}, "venue": {"id": "51812a65498e49e7f7248da1", "name": "Du Bonheur", "location": {"address": "Brunnenstr. 39", "lat": 52.536310436823385, "lng": 13.397557898347719, "labeledLatLngs": [{"label": "display", "lat": 52.536310436823385, "lng": 13.397557898347719}], "distance": 396, "postalCode": "10115", "cc": "DE", "city": "Berlin", "state": "Berlin", "country": "Deutschland", "formattedAddress": ["Brunnenstr. 39", "10115 Berlin Mitte", "Deutschland"]}, "categories": [{"id": "5744ccdfe4b0c0459246b4e2", "name": "Pastry Shop", "pluralName": "Pastry Shops", "shortName": "Pastry", "icon": {"prefix": "https://ss3.4sqi.net/img/categories_v2/food/dessert_", "suffix": ".png"}, "primary": true}], "photos": {"count": 0, "groups": []}, "venuePage": {"id": "328438452"}}, "referralId": "e-0-51812a65498e49e7f7248da1-12"}, {"reasons": {"count": 0, "items": [{"summary": "This spot is popular", "type": "general", "reasonName": "globalInteractionReason"}]}, "venue": {"id": "528a4e3411d24e4d2d087a64", "name": "Tommi's Burger Joint", "location": {"address": "Invalidenstr. 160", "lat": 52.53243, "lng": 13.397567, "labeledLatLngs": [{"label": "display", "lat": 52.53243, "lng": 13.397567}], "distance": 324, "postalCode": "10115", "cc": "DE", "city": "Berlin", "state": "Berlin", "country": "Deutschland", "formattedAddress": ["Invalidenstr. 160", "10115 Berlin", "Deutschland"]}, "categories": [{"id": "4bf58dd8d48988d16c941735", "name": "Burger Joint", "pluralName": "Burger Joints", "shortName": "Burgers", "icon": {"prefix": "https://ss3.4sqi.net/img/categories_v2/food/burger_", "suffix": ".png"}, "primary": true}], "photos": {"count": 0, "groups": []}}, "referralId": "e-0-528a4e3411d24e4d2d087a64-13"}, {"reasons": {"count": 0, "items": [{"summary": "This spot is popular", "type": "general", "reasonName": "globalInteractionReason"}]}, "venue": {"id": "4d13b1be33ac3704aa7e9856", "name": "Kr\u00f8han Bress", "location": {"address": "Ackerstr. 145", "lat": 52.531950175522105, "lng": 13.396177308443127, "labeledLatLngs": [{"label": "display", "lat": 52.531950175522105, "lng": 13.396177308443127}], "distance": 282, "postalCode": "10115", "cc": "DE", "city": "Berlin", "state": "Berlin", "country": "Deutschland", "formattedAddress": ["Ackerstr. 145", "10115 Berlin", "Deutschland"]}, "categories": [{"id": "4bf58dd8d48988d123951735", "name": "Smoke Shop", "pluralName": "Smoke Shops", "shortName": "Smoke Shop", "icon": {"prefix": "https://ss3.4sqi.net/img/categories_v2/shops/tobacco_", "suffix": ".png"}, "primary": true}], "photos": {"count": 0, "groups": []}}, "referralId": "e-0-4d13b1be33ac3704aa7e9856-14"}, {"reasons": {"count": 0, "items": [{"summary": "This spot is popular", "type": "general", "reasonName": "globalInteractionReason"}]}, "venue": {"id": "4d3b7e98979ea143328d9cfc", "name": "Buck & Breck", "location": {"address": "Brunnenstr. 177", "crossStreet": "Invalidenstr.", "lat": 52.532108, "lng": 13.399026, "labeledLatLngs": [{"label": "display", "lat": 52.532108, "lng": 13.399026}], "distance": 428, "postalCode": "10119", "cc": "DE", "city": "Berlin", "state": "Berlin", "country": "Deutschland", "formattedAddress": ["Brunnenstr. 177 (Invalidenstr.)", "10119 Berlin", "Deutschland"]}, "categories": [{"id": "4bf58dd8d48988d11e941735", "name": "Cocktail Bar", "pluralName": "Cocktail Bars", "shortName": "Cocktail", "icon": {"prefix": "https://ss3.4sqi.net/img/categories_v2/nightlife/cocktails_", "suffix": ".png"}, "primary": true}], "photos": {"count": 0, "groups": []}}, "referralId": "e-0-4d3b7e98979ea143328d9cfc-15"}, {"reasons": {"count": 0, "items": [{"summary": "This spot is popular", "type": "general", "reasonName": "globalInteractionReason"}]}, "venue": {"id": "4b1154eff964a520717a23e3", "name": "REWE", "location": {"address": "Invalidenstr. 23-26", "crossStreet": "Ackerstr.", "lat": 52.53233634, "lng": 13.39715682, "labeledLatLngs": [{"label": "display", "lat": 52.53233634, "lng": 13.39715682}], "distance": 305, "postalCode": "10115", "cc": "DE", "city": "Berlin", "state": "Berlin", "country": "Deutschland", "formattedAddress": ["Invalidenstr. 23-26 (Ackerstr.)", "10115 Berlin", "Deutschland"]}, "categories": [{"id": "52f2ab2ebcbc57f1066b8b46", "name": "Supermarket", "pluralName": "Supermarkets", "shortName": "Supermarket", "icon": {"prefix": "https://ss3.4sqi.net/img/categories_v2/shops/food_grocery_", "suffix": ".png"}, "primary": true}], "photos": {"count": 0, "groups": []}, "venuePage": {"id": "558112929"}}, "referralId": "e-0-4b1154eff964a520717a23e3-16"}, {"reasons": {"count": 0, "items": [{"summary": "This spot is popular", "type": "general", "reasonName": "globalInteractionReason"}]}, "venue": {"id": "4bf8ddf54a67c9281d1f26cf", "name": "Jivamukti Yoga", "location": {"address": "Brunnenstr. 29", "lat": 52.53448564309833, "lng": 13.399451762796286, "labeledLatLngs": [{"label": "display", "lat": 52.53448564309833, "lng": 13.399451762796286}], "distance": 418, "postalCode": "10119", "cc": "DE", "city": "Berlin", "state": "Berlin", "country": "Deutschland", "formattedAddress": ["Brunnenstr. 29", "10119 Berlin", "Deutschland"]}, "categories": [{"id": "4bf58dd8d48988d102941735", "name": "Yoga Studio", "pluralName": "Yoga Studios", "shortName": "Yoga Studio", "icon": {"prefix": "https://ss3.4sqi.net/img/categories_v2/shops/gym_yogastudio_", "suffix": ".png"}, "primary": true}], "photos": {"count": 0, "groups": []}}, "referralId": "e-0-4bf8ddf54a67c9281d1f26cf-17"}, {"reasons": {"count": 0, "items": [{"summary": "This spot is popular", "type": "general", "reasonName": "globalInteractionReason"}]}, "venue": {"id": "563e12fbcd10258c12dcf45c", "name": "Simply Keto", "location": {"address": "Invalidenstr. 154", "lat": 52.53218670036528, "lng": 13.39614136971281, "labeledLatLngs": [{"label": "display", "lat": 52.53218670036528, "lng": 13.39614136971281}], "distance": 262, "postalCode": "10110", "cc": "DE", "city": "Berlin", "state": "Berlin", "country": "Deutschland", "formattedAddress": ["Invalidenstr. 154", "10110 Berlin", "Deutschland"]}, "categories": [{"id": "4bf58dd8d48988d16d941735", "name": "Caf\u00e9", "pluralName": "Caf\u00e9s", "shortName": "Caf\u00e9", "icon": {"prefix": "https://ss3.4sqi.net/img/categories_v2/food/cafe_", "suffix": ".png"}, "primary": true}], "photos": {"count": 0, "groups": []}}, "referralId": "e-0-563e12fbcd10258c12dcf45c-18"}, {"reasons": {"count": 0, "items": [{"summary": "This spot is popular", "type": "general", "reasonName": "globalInteractionReason"}]}, "venue": {"id": "52b8158d11d226d3d8caad8d", "name": "Rises Delicacies", "location": {"address": "Veteranenstr. 25", "lat": 52.532878842264346, "lng": 13.400072982034857, "labeledLatLngs": [{"label": "display", "lat": 52.532878842264346, "lng": 13.400072982034857}], "distance": 466, "postalCode": "10119", "cc": "DE", "city": "Berlin", "state": "Berlin", "country": "Deutschland", "formattedAddress": ["Veteranenstr. 25", "10119 Berlin", "Deutschland"]}, "categories": [{"id": "4bf58dd8d48988d1f5941735", "name": "Gourmet Shop", "pluralName": "Gourmet Shops", "shortName": "Gourmet", "icon": {"prefix": "https://ss3.4sqi.net/img/categories_v2/shops/food_gourmet_", "suffix": ".png"}, "primary": true}], "photos": {"count": 0, "groups": []}}, "referralId": "e-0-52b8158d11d226d3d8caad8d-19"}, {"reasons": {"count": 0, "items": [{"summary": "This spot is popular", "type": "general", "reasonName": "globalInteractionReason"}]}, "venue": {"id": "5aacd2106bd36b5ee49c791f", "name": "Pok\u00e9 Bay", "location": {"lat": 52.53226, "lng": 13.39706, "labeledLatLngs": [{"label": "display", "lat": 52.53226, "lng": 13.39706}], "distance": 305, "postalCode": "10115", "cc": "DE", "neighborhood": "Mitte", "city": "Berlin", "state": "Berlin", "country": "Deutschland", "formattedAddress": ["10115 Berlin", "Deutschland"]}, "categories": [{"id": "52e81612bcbc57f1066b79fe", "name": "Hawaiian Restaurant", "pluralName": "Hawaiian Restaurants", "shortName": "Hawaiian", "icon": {"prefix": "https://ss3.4sqi.net/img/categories_v2/food/default_", "suffix": ".png"}, "primary": true}], "photos": {"count": 0, "groups": []}}, "referralId": "e-0-5aacd2106bd36b5ee49c791f-20"}, {"reasons": {"count": 0, "items": [{"summary": "This spot is popular", "type": "general", "reasonName": "globalInteractionReason"}]}, "venue": {"id": "4f8a1b556b7463480cad8bd2", "name": "ocelot, not just another bookstore", "location": {"address": "Brunnenstr. 181", "lat": 52.53184002256469, "lng": 13.399561810389661, "labeledLatLngs": [{"label": "display", "lat": 52.53184002256469, "lng": 13.399561810389661}], "distance": 474, "postalCode": "10119", "cc": "DE", "city": "Berlin", "state": "Berlin", "country": "Deutschland", "formattedAddress": ["Brunnenstr. 181", "10119 Berlin", "Deutschland"]}, "categories": [{"id": "4bf58dd8d48988d114951735", "name": "Bookstore", "pluralName": "Bookstores", "shortName": "Bookstore", "icon": {"prefix": "https://ss3.4sqi.net/img/categories_v2/shops/bookstore_", "suffix": ".png"}, "primary": true}], "photos": {"count": 0, "groups": []}, "venuePage": {"id": "59232437"}}, "referralId": "e-0-4f8a1b556b7463480cad8bd2-21"}, {"reasons": {"count": 0, "items": [{"summary": "This spot is popular", "type": "general", "reasonName": "globalInteractionReason"}]}, "venue": {"id": "56fe6b53cd10d40b42aa5d5f", "name": "Factory Kitchen", "location": {"address": "Rheinsberger Str. 76/77", "lat": 52.53744922779283, "lng": 13.39471407352591, "labeledLatLngs": [{"label": "display", "lat": 52.53744922779283, "lng": 13.39471407352591}], "distance": 413, "postalCode": "10115", "cc": "DE", "city": "Berlin", "state": "Berlin", "country": "Deutschland", "formattedAddress": ["Rheinsberger Str. 76/77", "10115 Berlin", "Deutschland"]}, "categories": [{"id": "4bf58dd8d48988d1c4941735", "name": "Restaurant", "pluralName": "Restaurants", "shortName": "Restaurant", "icon": {"prefix": "https://ss3.4sqi.net/img/categories_v2/food/default_", "suffix": ".png"}, "primary": true}], "photos": {"count": 0, "groups": []}, "venuePage": {"id": "173661333"}}, "referralId": "e-0-56fe6b53cd10d40b42aa5d5f-22"}, {"reasons": {"count": 0, "items": [{"summary": "This spot is popular", "type": "general", "reasonName": "globalInteractionReason"}]}, "venue": {"id": "59f87f66e57ca62f8ff96bc8", "name": "SLATE", "location": {"address": "Elisabethkirchstr. 2", "lat": 52.533034, "lng": 13.398346, "labeledLatLngs": [{"label": "display", "lat": 52.533034, "lng": 13.398346}], "distance": 348, "postalCode": "10115", "cc": "DE", "city": "Berlin", "state": "Berlin", "country": "Deutschland", "formattedAddress": ["Elisabethkirchstr. 2", "10115 Berlin", "Deutschland"]}, "categories": [{"id": "4bf58dd8d48988d1c4941735", "name": "Restaurant", "pluralName": "Restaurants", "shortName": "Restaurant", "icon": {"prefix": "https://ss3.4sqi.net/img/categories_v2/food/default_", "suffix": ".png"}, "primary": true}], "photos": {"count": 0, "groups": []}}, "referralId": "e-0-59f87f66e57ca62f8ff96bc8-23"}, {"reasons": {"count": 0, "items": [{"summary": "This spot is popular", "type": "general", "reasonName": "globalInteractionReason"}]}, "venue": {"id": "4bb5fd0f2f70c9b659b78430", "name": "Weinbergspark", "location": {"address": "Veteranenstr.", "crossStreet": "Brunnenstr.", "lat": 52.53250090252779, "lng": 13.401453495025635, "labeledLatLngs": [{"label": "display", "lat": 52.53250090252779, "lng": 13.401453495025635}], "distance": 567, "postalCode": "10119", "cc": "DE", "city": "Berlin", "state": "Berlin", "country": "Deutschland", "formattedAddress": ["Veteranenstr. (Brunnenstr.)", "10119 Berlin", "Deutschland"]}, "categories": [{"id": "4bf58dd8d48988d163941735", "name": "Park", "pluralName": "Parks", "shortName": "Park", "icon": {"prefix": "https://ss3.4sqi.net/img/categories_v2/parks_outdoors/park_", "suffix": ".png"}, "primary": true}], "photos": {"count": 0, "groups": []}}, "referralId": "e-0-4bb5fd0f2f70c9b659b78430-24"}, {"reasons": {"count": 0, "items": [{"summary": "This spot is popular", "type": "general", "reasonName": "globalInteractionReason"}]}, "venue": {"id": "4f08754ee4b0540ca21a6e46", "name": "Caf\u00e9 Hermann Eicke", "location": {"address": "Brunnenstr. 45", "lat": 52.53733972355, "lng": 13.396865172388141, "labeledLatLngs": [{"label": "display", "lat": 52.53733972355, "lng": 13.396865172388141}], "distance": 457, "postalCode": "10115", "cc": "DE", "city": "Berlin", "state": "Berlin", "country": "Deutschland", "formattedAddress": ["Brunnenstr. 45", "10115 Berlin", "Deutschland"]}, "categories": [{"id": "4bf58dd8d48988d1e0931735", "name": "Coffee Shop", "pluralName": "Coffee Shops", "shortName": "Coffee Shop", "icon": {"prefix": "https://ss3.4sqi.net/img/categories_v2/food/coffeeshop_", "suffix": ".png"}, "primary": true}], "photos": {"count": 0, "groups": []}}, "referralId": "e-0-4f08754ee4b0540ca21a6e46-25"}, {"reasons": {"count": 0, "items": [{"summary": "This spot is popular", "type": "general", "reasonName": "globalInteractionReason"}]}, "venue": {"id": "58037e32d67cf4fbafee0aa8", "name": "L'\u00c9picerie", "location": {"address": "Brunnenstr. 49", "lat": 52.53800371769609, "lng": 13.396290681944702, "labeledLatLngs": [{"label": "display", "lat": 52.53800371769609, "lng": 13.396290681944702}], "distance": 505, "postalCode": "10115", "cc": "DE", "city": "Berlin", "state": "Berlin", "country": "Deutschland", "formattedAddress": ["Brunnenstr. 49", "10115 Berlin", "Deutschland"]}, "categories": [{"id": "52f2ab2ebcbc57f1066b8b45", "name": "Organic Grocery", "pluralName": "Organic Groceries", "shortName": "Organic Grocery", "icon": {"prefix": "https://ss3.4sqi.net/img/categories_v2/shops/food_grocery_", "suffix": ".png"}, "primary": true}], "photos": {"count": 0, "groups": []}}, "referralId": "e-0-58037e32d67cf4fbafee0aa8-26"}, {"reasons": {"count": 0, "items": [{"summary": "This spot is popular", "type": "general", "reasonName": "globalInteractionReason"}]}, "venue": {"id": "4fd0f671e4b0044b25a40009", "name": "Oslo Kaffebar", "location": {"address": "Eichendorffstr. 13", "crossStreet": "Invalidenstr.", "lat": 52.53102915837446, "lng": 13.386889100074768, "labeledLatLngs": [{"label": "display", "lat": 52.53102915837446, "lng": 13.386889100074768}], "distance": 537, "postalCode": "10115", "cc": "DE", "city": "Berlin", "state": "Berlin", "country": "Deutschland", "formattedAddress": ["Eichendorffstr. 13 (Invalidenstr.)", "10115 Berlin", "Deutschland"]}, "categories": [{"id": "4bf58dd8d48988d1e0931735", "name": "Coffee Shop", "pluralName": "Coffee Shops", "shortName": "Coffee Shop", "icon": {"prefix": "https://ss3.4sqi.net/img/categories_v2/food/coffeeshop_", "suffix": ".png"}, "primary": true}], "photos": {"count": 0, "groups": []}}, "referralId": "e-0-4fd0f671e4b0044b25a40009-27"}, {"reasons": {"count": 0, "items": [{"summary": "This spot is popular", "type": "general", "reasonName": "globalInteractionReason"}]}, "venue": {"id": "4f7d8b70e4b09d309a008357", "name": "Chay Viet", "location": {"address": "Brunnenstr. 164", "lat": 52.53417171830115, "lng": 13.398327256392392, "labeledLatLngs": [{"label": "display", "lat": 52.53417171830115, "lng": 13.398327256392392}], "distance": 338, "postalCode": "10119", "cc": "DE", "city": "Berlin", "state": "Berlin", "country": "Deutschland", "formattedAddress": ["Brunnenstr. 164", "10119 Berlin", "Deutschland"]}, "categories": [{"id": "4bf58dd8d48988d1d3941735", "name": "Vegetarian / Vegan Restaurant", "pluralName": "Vegetarian / Vegan Restaurants", "shortName": "Vegetarian / Vegan", "icon": {"prefix": "https://ss3.4sqi.net/img/categories_v2/food/vegetarian_", "suffix": ".png"}, "primary": true}], "photos": {"count": 0, "groups": []}}, "referralId": "e-0-4f7d8b70e4b09d309a008357-28"}, {"reasons": {"count": 0, "items": [{"summary": "This spot is popular", "type": "general", "reasonName": "globalInteractionReason"}]}, "venue": {"id": "4e3647e018a82fdd657f7dc9", "name": "H Gedenkst\u00e4tte Berliner Mauer", "location": {"address": "Bernauer Str.", "crossStreet": "Ackerstr.", "lat": 52.53574979652019, "lng": 13.390707636443713, "labeledLatLngs": [{"label": "display", "lat": 52.53574979652019, "lng": 13.390707636443713}], "distance": 279, "postalCode": "13355", "cc": "DE", "city": "Berlin", "state": "Berlin", "country": "Deutschland", "formattedAddress": ["Bernauer Str. (Ackerstr.)", "13355 Berlin", "Deutschland"]}, "categories": [{"id": "52f2ab2ebcbc57f1066b8b51", "name": "Tram Station", "pluralName": "Tram Stations", "shortName": "Tram", "icon": {"prefix": "https://ss3.4sqi.net/img/categories_v2/travel/trainstation_", "suffix": ".png"}, "primary": true}], "photos": {"count": 0, "groups": []}}, "referralId": "e-0-4e3647e018a82fdd657f7dc9-29"}, {"reasons": {"count": 0, "items": [{"summary": "This spot is popular", "type": "general", "reasonName": "globalInteractionReason"}]}, "venue": {"id": "586beedcf5957273257f0109", "name": "Salamat", "location": {"lat": 52.52867507617356, "lng": 13.39374697328414, "labeledLatLngs": [{"label": "display", "lat": 52.52867507617356, "lng": 13.39374697328414}], "distance": 574, "cc": "DE", "country": "Deutschland", "formattedAddress": ["Deutschland"]}, "categories": [{"id": "4bf58dd8d48988d10b941735", "name": "Falafel Restaurant", "pluralName": "Falafel Restaurants", "shortName": "Falafel", "icon": {"prefix": "https://ss3.4sqi.net/img/categories_v2/food/falafel_", "suffix": ".png"}, "primary": true}], "photos": {"count": 0, "groups": []}}, "referralId": "e-0-586beedcf5957273257f0109-30"}, {"reasons": {"count": 0, "items": [{"summary": "This spot is popular", "type": "general", "reasonName": "globalInteractionReason"}]}, "venue": {"id": "546e0b15498e2b3e9939fba7", "name": "Bar Milano", "location": {"address": "Brunnenstr. 11", "lat": 52.53130165386892, "lng": 13.400005036683648, "labeledLatLngs": [{"label": "display", "lat": 52.53130165386892, "lng": 13.400005036683648}], "distance": 530, "postalCode": "10119", "cc": "DE", "city": "Berlin", "state": "Berlin", "country": "Deutschland", "formattedAddress": ["Brunnenstr. 11", "10119 Berlin", "Deutschland"]}, "categories": [{"id": "4bf58dd8d48988d116941735", "name": "Bar", "pluralName": "Bars", "shortName": "Bar", "icon": {"prefix": "https://ss3.4sqi.net/img/categories_v2/nightlife/pub_", "suffix": ".png"}, "primary": true}], "photos": {"count": 0, "groups": []}}, "referralId": "e-0-546e0b15498e2b3e9939fba7-31"}, {"reasons": {"count": 0, "items": [{"summary": "This spot is popular", "type": "general", "reasonName": "globalInteractionReason"}]}, "venue": {"id": "5925dabffebf311e1940ceee", "name": "The Castle", "location": {"address": "Invalidenstr. 129", "lat": 52.53163895030821, "lng": 13.388372034743451, "labeledLatLngs": [{"label": "display", "lat": 52.53163895030821, "lng": 13.388372034743451}], "distance": 416, "postalCode": "10115", "cc": "DE", "neighborhood": "Mitte", "city": "Berlin", "state": "Berlin", "country": "Deutschland", "formattedAddress": ["Invalidenstr. 129", "10115 Berlin", "Deutschland"]}, "categories": [{"id": "56aa371ce4b08b9a8d57356c", "name": "Beer Bar", "pluralName": "Beer Bars", "shortName": "Beer Bar", "icon": {"prefix": "https://ss3.4sqi.net/img/categories_v2/nightlife/pub_", "suffix": ".png"}, "primary": true}], "photos": {"count": 0, "groups": []}}, "referralId": "e-0-5925dabffebf311e1940ceee-32"}, {"reasons": {"count": 0, "items": [{"summary": "This spot is popular", "type": "general", "reasonName": "globalInteractionReason"}]}, "venue": {"id": "57e121c8498ee64538c2f7c8", "name": "My Goodness", "location": {"address": "Brunnenstr. 24", "lat": 52.533440776498246, "lng": 13.39855844921055, "labeledLatLngs": [{"label": "display", "lat": 52.533440776498246, "lng": 13.39855844921055}], "distance": 354, "postalCode": "10119", "cc": "DE", "city": "Berlin", "state": "Berlin", "country": "Deutschland", "formattedAddress": ["Brunnenstr. 24", "10119 Berlin", "Deutschland"]}, "categories": [{"id": "4bf58dd8d48988d1f9941735", "name": "Food & Drink Shop", "pluralName": "Food & Drink Shops", "shortName": "Food & Drink", "icon": {"prefix": "https://ss3.4sqi.net/img/categories_v2/shops/foodanddrink_", "suffix": ".png"}, "primary": true}], "photos": {"count": 0, "groups": []}}, "referralId": "e-0-57e121c8498ee64538c2f7c8-33"}, {"reasons": {"count": 0, "items": [{"summary": "This spot is popular", "type": "general", "reasonName": "globalInteractionReason"}]}, "venue": {"id": "4e8f16ebf5b910ae60bb90dc", "name": "Besucherzentrum | Visitor Center (Besucherzentrum)", "location": {"address": "Bernauer Str. 119", "crossStreet": "Gartenstr.", "lat": 52.53376701989025, "lng": 13.387484550476074, "labeledLatLngs": [{"label": "display", "lat": 52.53376701989025, "lng": 13.387484550476074}], "distance": 398, "postalCode": "13355", "cc": "DE", "neighborhood": "Gesundbrunnen", "city": "Berlin", "state": "Berlin", "country": "Deutschland", "formattedAddress": ["Bernauer Str. 119 (Gartenstr.)", "13355 Berlin", "Deutschland"]}, "categories": [{"id": "4f4530164b9074f6e4fb00ff", "name": "Tourist Information Center", "pluralName": "Tourist Information Centers", "shortName": "Tourist Information", "icon": {"prefix": "https://ss3.4sqi.net/img/categories_v2/travel/touristinformation_", "suffix": ".png"}, "primary": true}], "photos": {"count": 0, "groups": []}}, "referralId": "e-0-4e8f16ebf5b910ae60bb90dc-34"}, {"reasons": {"count": 0, "items": [{"summary": "This spot is popular", "type": "general", "reasonName": "globalInteractionReason"}]}, "venue": {"id": "57dd36cf498e2fcf3ca65404", "name": "The Tree", "location": {"address": "Brunnenstr. 167", "lat": 52.533632, "lng": 13.398272, "labeledLatLngs": [{"label": "display", "lat": 52.533632, "lng": 13.398272}], "distance": 333, "postalCode": "10115", "cc": "DE", "city": "Berlin", "state": "Berlin", "country": "Deutschland", "formattedAddress": ["Brunnenstr. 167", "10115 Berlin", "Deutschland"]}, "categories": [{"id": "4bf58dd8d48988d1d1941735", "name": "Noodle House", "pluralName": "Noodle Houses", "shortName": "Noodles", "icon": {"prefix": "https://ss3.4sqi.net/img/categories_v2/food/ramen_", "suffix": ".png"}, "primary": true}], "photos": {"count": 0, "groups": []}}, "referralId": "e-0-57dd36cf498e2fcf3ca65404-35"}, {"reasons": {"count": 0, "items": [{"summary": "This spot is popular", "type": "general", "reasonName": "globalInteractionReason"}]}, "venue": {"id": "4c87775256e03704da47b2a3", "name": "Vielfalter", "location": {"address": "Brunnenstr. 147", "lat": 52.536710883890855, "lng": 13.397177718376204, "labeledLatLngs": [{"label": "display", "lat": 52.536710883890855, "lng": 13.397177718376204}], "distance": 412, "postalCode": "10115", "cc": "DE", "city": "Berlin", "state": "Berlin", "country": "Deutschland", "formattedAddress": ["Brunnenstr. 147", "10115 Berlin", "Deutschland"]}, "categories": [{"id": "4bf58dd8d48988d1d3941735", "name": "Vegetarian / Vegan Restaurant", "pluralName": "Vegetarian / Vegan Restaurants", "shortName": "Vegetarian / Vegan", "icon": {"prefix": "https://ss3.4sqi.net/img/categories_v2/food/vegetarian_", "suffix": ".png"}, "primary": true}], "photos": {"count": 0, "groups": []}}, "referralId": "e-0-4c87775256e03704da47b2a3-36"}, {"reasons": {"count": 0, "items": [{"summary": "This spot is popular", "type": "general", "reasonName": "globalInteractionReason"}]}, "venue": {"id": "5c94d0aa75dcb7002ca1e811", "name": "Frea", "location": {"address": "Torstr. 180", "crossStreet": "Kleine Hamburger Str.", "lat": 52.52833374807909, "lng": 13.39393547794316, "labeledLatLngs": [{"label": "display", "lat": 52.52833374807909, "lng": 13.39393547794316}], "distance": 612, "postalCode": "10115", "cc": "DE", "neighborhood": "Mitte", "city": "Berlin", "state": "Berlin", "country": "Deutschland", "formattedAddress": ["Torstr. 180 (Kleine Hamburger Str.)", "10115 Berlin", "Deutschland"]}, "categories": [{"id": "4bf58dd8d48988d1d3941735", "name": "Vegetarian / Vegan Restaurant", "pluralName": "Vegetarian / Vegan Restaurants", "shortName": "Vegetarian / Vegan", "icon": {"prefix": "https://ss3.4sqi.net/img/categories_v2/food/vegetarian_", "suffix": ".png"}, "primary": true}], "photos": {"count": 0, "groups": []}}, "referralId": "e-0-5c94d0aa75dcb7002ca1e811-37"}, {"reasons": {"count": 0, "items": [{"summary": "This spot is popular", "type": "general", "reasonName": "globalInteractionReason"}]}, "venue": {"id": "4dfb789e45dd0d640c67d376", "name": "R\u00f6stst\u00e4tte Berlin", "location": {"address": "Ackerstr. 173", "crossStreet": "Linienstr.", "lat": 52.52899604707413, "lng": 13.397427499294281, "labeledLatLngs": [{"label": "display", "lat": 52.52899604707413, "lng": 13.397427499294281}], "distance": 604, "postalCode": "10115", "cc": "DE", "city": "Berlin", "state": "Berlin", "country": "Deutschland", "formattedAddress": ["Ackerstr. 173 (Linienstr.)", "10115 Berlin", "Deutschland"]}, "categories": [{"id": "4bf58dd8d48988d1e0931735", "name": "Coffee Shop", "pluralName": "Coffee Shops", "shortName": "Coffee Shop", "icon": {"prefix": "https://ss3.4sqi.net/img/categories_v2/food/coffeeshop_", "suffix": ".png"}, "primary": true}], "photos": {"count": 0, "groups": []}}, "referralId": "e-0-4dfb789e45dd0d640c67d376-38"}, {"reasons": {"count": 0, "items": [{"summary": "This spot is popular", "type": "general", "reasonName": "globalInteractionReason"}]}, "venue": {"id": "4c0f79cd336220a130c6cd77", "name": "Yarok", "location": {"address": "Torstr. 195", "lat": 52.528189963430435, "lng": 13.392179058205128, "labeledLatLngs": [{"label": "display", "lat": 52.528189963430435, "lng": 13.392179058205128}], "distance": 632, "postalCode": "10115", "cc": "DE", "city": "Berlin", "state": "Berlin", "country": "Deutschland", "formattedAddress": ["Torstr. 195", "10115 Berlin", "Deutschland"]}, "categories": [{"id": "4bf58dd8d48988d10b941735", "name": "Falafel Restaurant", "pluralName": "Falafel Restaurants", "shortName": "Falafel", "icon": {"prefix": "https://ss3.4sqi.net/img/categories_v2/food/falafel_", "suffix": ".png"}, "primary": true}], "photos": {"count": 0, "groups": []}}, "referralId": "e-0-4c0f79cd336220a130c6cd77-39"}, {"reasons": {"count": 0, "items": [{"summary": "This spot is popular", "type": "general", "reasonName": "globalInteractionReason"}]}, "venue": {"id": "4c99e72d292a6dcb89e1c976", "name": "Handbestand", "location": {"address": "Brunnenstra\u00dfe 42", "crossStreet": "Rheinsberger Stra\u00dfe", "lat": 52.536628994748206, "lng": 13.39730614426339, "labeledLatLngs": [{"label": "display", "lat": 52.536628994748206, "lng": 13.39730614426339}], "distance": 410, "postalCode": "10115", "cc": "DE", "city": "Berlin", "state": "Berlin", "country": "Deutschland", "formattedAddress": ["Brunnenstra\u00dfe 42 (Rheinsberger Stra\u00dfe)", "10115 Berlin", "Deutschland"]}, "categories": [{"id": "4bf58dd8d48988d16d941735", "name": "Caf\u00e9", "pluralName": "Caf\u00e9s", "shortName": "Caf\u00e9", "icon": {"prefix": "https://ss3.4sqi.net/img/categories_v2/food/cafe_", "suffix": ".png"}, "primary": true}], "photos": {"count": 0, "groups": []}}, "referralId": "e-0-4c99e72d292a6dcb89e1c976-40"}, {"reasons": {"count": 0, "items": [{"summary": "This spot is popular", "type": "general", "reasonName": "globalInteractionReason"}]}, "venue": {"id": "566eba8c498e50a3a0fb33a9", "name": "Nong Nia", "location": {"address": "Veteranenstra\u00dfe 10", "lat": 52.533145631315946, "lng": 13.401588279762336, "labeledLatLngs": [{"label": "display", "lat": 52.533145631315946, "lng": 13.401588279762336}], "distance": 562, "postalCode": "10119", "cc": "DE", "city": "Berlin", "state": "Berlin", "country": "Deutschland", "formattedAddress": ["Veteranenstra\u00dfe 10", "10119 Berlin", "Deutschland"]}, "categories": [{"id": "4bf58dd8d48988d14a941735", "name": "Vietnamese Restaurant", "pluralName": "Vietnamese Restaurants", "shortName": "Vietnamese", "icon": {"prefix": "https://ss3.4sqi.net/img/categories_v2/food/vietnamese_", "suffix": ".png"}, "primary": true}], "photos": {"count": 0, "groups": []}, "venuePage": {"id": "542859008"}}, "referralId": "e-0-566eba8c498e50a3a0fb33a9-41"}, {"reasons": {"count": 0, "items": [{"summary": "This spot is popular", "type": "general", "reasonName": "globalInteractionReason"}]}, "venue": {"id": "543b73fd498e65a9a111ffb4", "name": "Gorki Apartments", "location": {"address": "Weinbergsweg 25", "lat": 52.53067094471568, "lng": 13.401450084063509, "labeledLatLngs": [{"label": "display", "lat": 52.53067094471568, "lng": 13.401450084063509}], "distance": 650, "postalCode": "10119", "cc": "DE", "city": "Berlin", "state": "Berlin", "country": "Deutschland", "formattedAddress": ["Weinbergsweg 25", "10119 Berlin", "Deutschland"]}, "categories": [{"id": "56aa371be4b08b9a8d5734e1", "name": "Vacation Rental", "pluralName": "Vacation Rentals", "shortName": "Vacation Rental", "icon": {"prefix": "https://ss3.4sqi.net/img/categories_v2/travel/hostel_", "suffix": ".png"}, "primary": true}], "photos": {"count": 0, "groups": []}}, "referralId": "e-0-543b73fd498e65a9a111ffb4-42"}, {"reasons": {"count": 0, "items": [{"summary": "This spot is popular", "type": "general", "reasonName": "globalInteractionReason"}]}, "venue": {"id": "52b2dffc498e2f2be6245e59", "name": "Petrarca", "location": {"address": "Novalisstr. 8a", "crossStreet": "Tieckstr.", "lat": 52.52914290417412, "lng": 13.38831603527069, "labeledLatLngs": [{"label": "display", "lat": 52.52914290417412, "lng": 13.38831603527069}], "distance": 623, "postalCode": "10115", "cc": "DE", "neighborhood": "Mitte", "city": "Berlin", "state": "Berlin", "country": "Deutschland", "formattedAddress": ["Novalisstr. 8a (Tieckstr.)", "10115 Berlin", "Deutschland"]}, "categories": [{"id": "4bf58dd8d48988d110941735", "name": "Italian Restaurant", "pluralName": "Italian Restaurants", "shortName": "Italian", "icon": {"prefix": "https://ss3.4sqi.net/img/categories_v2/food/italian_", "suffix": ".png"}, "primary": true}], "photos": {"count": 0, "groups": []}}, "referralId": "e-0-52b2dffc498e2f2be6245e59-43"}, {"reasons": {"count": 0, "items": [{"summary": "This spot is popular", "type": "general", "reasonName": "globalInteractionReason"}]}, "venue": {"id": "5c79404f911fc4002c4ca423", "name": "Zeit f\u00fcr Brot", "location": {"address": "Weinbergsweg 2", "lat": 52.53039378519227, "lng": 13.40185168833682, "labeledLatLngs": [{"label": "display", "lat": 52.53039378519227, "lng": 13.40185168833682}], "distance": 690, "postalCode": "10119", "cc": "DE", "city": "Berlin", "state": "Berlin", "country": "Deutschland", "formattedAddress": ["Weinbergsweg 2", "10119 Berlin", "Deutschland"]}, "categories": [{"id": "4bf58dd8d48988d16a941735", "name": "Bakery", "pluralName": "Bakeries", "shortName": "Bakery", "icon": {"prefix": "https://ss3.4sqi.net/img/categories_v2/food/bakery_", "suffix": ".png"}, "primary": true}], "photos": {"count": 0, "groups": []}}, "referralId": "e-0-5c79404f911fc4002c4ca423-44"}, {"reasons": {"count": 0, "items": [{"summary": "This spot is popular", "type": "general", "reasonName": "globalInteractionReason"}]}, "venue": {"id": "4afacb44f964a520b91822e3", "name": "Weinerei Forum", "location": {"address": "Fehrbelliner Str. 57", "crossStreet": "Veteranenstr.", "lat": 52.53358881376712, "lng": 13.402760662517966, "labeledLatLngs": [{"label": "display", "lat": 52.53358881376712, "lng": 13.402760662517966}], "distance": 637, "postalCode": "10119", "cc": "DE", "city": "Berlin", "state": "Berlin", "country": "Deutschland", "formattedAddress": ["Fehrbelliner Str. 57 (Veteranenstr.)", "10119 Berlin", "Deutschland"]}, "categories": [{"id": "4bf58dd8d48988d123941735", "name": "Wine Bar", "pluralName": "Wine Bars", "shortName": "Wine Bar", "icon": {"prefix": "https://ss3.4sqi.net/img/categories_v2/food/winery_", "suffix": ".png"}, "primary": true}], "photos": {"count": 0, "groups": []}}, "referralId": "e-0-4afacb44f964a520b91822e3-45"}, {"reasons": {"count": 0, "items": [{"summary": "This spot is popular", "type": "general", "reasonName": "globalInteractionReason"}]}, "venue": {"id": "4e564b5f922e68c545c238da", "name": "Steckerlfisch & Co. Arkonaplatz", "location": {"address": "Arkonaplatz", "lat": 52.53695752074009, "lng": 13.402142654992542, "labeledLatLngs": [{"label": "display", "lat": 52.53695752074009, "lng": 13.402142654992542}], "distance": 689, "postalCode": "13353", "cc": "DE", "city": "Berlin", "state": "Berlin", "country": "Deutschland", "formattedAddress": ["Arkonaplatz", "13353 Berlin", "Deutschland"]}, "categories": [{"id": "4bf58dd8d48988d1ce941735", "name": "Seafood Restaurant", "pluralName": "Seafood Restaurants", "shortName": "Seafood", "icon": {"prefix": "https://ss3.4sqi.net/img/categories_v2/food/seafood_", "suffix": ".png"}, "primary": true}], "photos": {"count": 0, "groups": []}}, "referralId": "e-0-4e564b5f922e68c545c238da-46"}, {"reasons": {"count": 0, "items": [{"summary": "This spot is popular", "type": "general", "reasonName": "globalInteractionReason"}]}, "venue": {"id": "4b0bc6ddf964a5208d3323e3", "name": "Alimentari", "location": {"address": "Fehrbelliner Str. 54", "lat": 52.53406919297667, "lng": 13.402112142307157, "labeledLatLngs": [{"label": "display", "lat": 52.53406919297667, "lng": 13.402112142307157}], "distance": 593, "postalCode": "10119", "cc": "DE", "city": "Berlin", "state": "Berlin", "country": "Deutschland", "formattedAddress": ["Fehrbelliner Str. 54", "10119 Berlin", "Deutschland"]}, "categories": [{"id": "4bf58dd8d48988d110941735", "name": "Italian Restaurant", "pluralName": "Italian Restaurants", "shortName": "Italian", "icon": {"prefix": "https://ss3.4sqi.net/img/categories_v2/food/italian_", "suffix": ".png"}, "primary": true}], "photos": {"count": 0, "groups": []}}, "referralId": "e-0-4b0bc6ddf964a5208d3323e3-47"}, {"reasons": {"count": 0, "items": [{"summary": "This spot is popular", "type": "general", "reasonName": "globalInteractionReason"}]}, "venue": {"id": "510fd821d86c62b891ed167b", "name": "Hotel i31", "location": {"address": "Invalidenstr. 31", "lat": 52.53110676192711, "lng": 13.384270175108345, "labeledLatLngs": [{"label": "display", "lat": 52.53110676192711, "lng": 13.384270175108345}], "distance": 686, "postalCode": "10115", "cc": "DE", "city": "Berlin", "state": "Berlin", "country": "Deutschland", "formattedAddress": ["Invalidenstr. 31", "10115 Berlin", "Deutschland"]}, "categories": [{"id": "4bf58dd8d48988d1fa931735", "name": "Hotel", "pluralName": "Hotels", "shortName": "Hotel", "icon": {"prefix": "https://ss3.4sqi.net/img/categories_v2/travel/hotel_", "suffix": ".png"}, "primary": true}], "photos": {"count": 0, "groups": []}}, "referralId": "e-0-510fd821d86c62b891ed167b-48"}, {"reasons": {"count": 0, "items": [{"summary": "This spot is popular", "type": "general", "reasonName": "globalInteractionReason"}]}, "venue": {"id": "57fa1590cd10bc6618b7f788", "name": "HeimlichTreu", "location": {"address": "Anklamer Str. 38", "crossStreet": "2. HH", "lat": 52.53584609707864, "lng": 13.398822247447583, "labeledLatLngs": [{"label": "display", "lat": 52.53584609707864, "lng": 13.398822247447583}], "distance": 432, "postalCode": "10115", "cc": "DE", "city": "Berlin", "state": "Berlin", "country": "Deutschland", "formattedAddress": ["Anklamer Str. 38 (2. HH)", "10115 Berlin", "Deutschland"]}, "categories": [{"id": "52e81612bcbc57f1066b79f9", "name": "Modern European Restaurant", "pluralName": "Modern European Restaurants", "shortName": "Modern European", "icon": {"prefix": "https://ss3.4sqi.net/img/categories_v2/food/default_", "suffix": ".png"}, "primary": true}], "photos": {"count": 0, "groups": []}, "venuePage": {"id": "558368886"}}, "referralId": "e-0-57fa1590cd10bc6618b7f788-49"}, {"reasons": {"count": 0, "items": [{"summary": "This spot is popular", "type": "general", "reasonName": "globalInteractionReason"}]}, "venue": {"id": "4bbb02713db7b713e8d7239a", "name": "Spielplatz im Weinbergspark", "location": {"address": "Weinbergsweg", "crossStreet": "Fehrbelliner Str.", "lat": 52.53311251977082, "lng": 13.403041750190974, "labeledLatLngs": [{"label": "display", "lat": 52.53311251977082, "lng": 13.403041750190974}], "distance": 660, "postalCode": "10119", "cc": "DE", "neighborhood": "Mitte", "city": "Berlin", "state": "Berlin", "country": "Deutschland", "formattedAddress": ["Weinbergsweg (Fehrbelliner Str.)", "10119 Berlin", "Deutschland"]}, "categories": [{"id": "4bf58dd8d48988d1e7941735", "name": "Playground", "pluralName": "Playgrounds", "shortName": "Playground", "icon": {"prefix": "https://ss3.4sqi.net/img/categories_v2/parks_outdoors/playground_", "suffix": ".png"}, "primary": true}], "photos": {"count": 0, "groups": []}}, "referralId": "e-0-4bbb02713db7b713e8d7239a-50"}, {"reasons": {"count": 0, "items": [{"summary": "This spot is popular", "type": "general", "reasonName": "globalInteractionReason"}]}, "venue": {"id": "4e7cb60fb80309e0eaa95e08", "name": "Lokal", "location": {"address": "Linienstr. 160", "crossStreet": "Kleine Hamburger Str.", "lat": 52.527905275135154, "lng": 13.394915824683267, "labeledLatLngs": [{"label": "display", "lat": 52.527905275135154, "lng": 13.394915824683267}], "distance": 667, "postalCode": "10115", "cc": "DE", "neighborhood": "Mitte", "city": "Berlin", "state": "Berlin", "country": "Deutschland", "formattedAddress": ["Linienstr. 160 (Kleine Hamburger Str.)", "10115 Berlin", "Deutschland"]}, "categories": [{"id": "52e81612bcbc57f1066b79f9", "name": "Modern European Restaurant", "pluralName": "Modern European Restaurants", "shortName": "Modern European", "icon": {"prefix": "https://ss3.4sqi.net/img/categories_v2/food/default_", "suffix": ".png"}, "primary": true}], "photos": {"count": 0, "groups": []}}, "referralId": "e-0-4e7cb60fb80309e0eaa95e08-51"}, {"reasons": {"count": 0, "items": [{"summary": "This spot is popular", "type": "general", "reasonName": "globalInteractionReason"}]}, "venue": {"id": "4b0a7fe4f964a520832423e3", "name": "BeachMitte", "location": {"address": "Caroline-Michaelis-Str. 8", "lat": 52.533821476902716, "lng": 13.384628154016067, "labeledLatLngs": [{"label": "display", "lat": 52.533821476902716, "lng": 13.384628154016067}], "distance": 591, "postalCode": "10115", "cc": "DE", "city": "Berlin", "state": "Berlin", "country": "Deutschland", "formattedAddress": ["Caroline-Michaelis-Str. 8", "10115 Berlin", "Deutschland"]}, "categories": [{"id": "4eb1bf013b7b6f98df247e07", "name": "Volleyball Court", "pluralName": "Volleyball Courts", "shortName": "Volleyball Court", "icon": {"prefix": "https://ss3.4sqi.net/img/categories_v2/parks_outdoors/volleyballcourt_", "suffix": ".png"}, "primary": true}], "photos": {"count": 0, "groups": []}, "venuePage": {"id": "564865862"}}, "referralId": "e-0-4b0a7fe4f964a520832423e3-52"}, {"reasons": {"count": 0, "items": [{"summary": "This spot is popular", "type": "general", "reasonName": "globalInteractionReason"}]}, "venue": {"id": "517ff167e4b0bd0b4f9bbf86", "name": "Superconscious", "location": {"address": "Weinbergsweg 22", "lat": 52.530941047957874, "lng": 13.40204358100891, "labeledLatLngs": [{"label": "display", "lat": 52.530941047957874, "lng": 13.40204358100891}], "distance": 670, "postalCode": "10119", "cc": "DE", "city": "Berlin", "state": "Berlin", "country": "Deutschland", "formattedAddress": ["Weinbergsweg 22", "10119 Berlin", "Deutschland"]}, "categories": [{"id": "4bf58dd8d48988d104951735", "name": "Boutique", "pluralName": "Boutiques", "shortName": "Boutique", "icon": {"prefix": "https://ss3.4sqi.net/img/categories_v2/shops/apparel_boutique_", "suffix": ".png"}, "primary": true}], "photos": {"count": 0, "groups": []}, "venuePage": {"id": "66919479"}}, "referralId": "e-0-517ff167e4b0bd0b4f9bbf86-53"}, {"reasons": {"count": 0, "items": [{"summary": "This spot is popular", "type": "general", "reasonName": "globalInteractionReason"}]}, "venue": {"id": "4b157b85f964a52083ad23e3", "name": "Restaurant Themroc", "location": {"address": "Torstr. 183", "lat": 52.52846856840084, "lng": 13.393303753311242, "labeledLatLngs": [{"label": "display", "lat": 52.52846856840084, "lng": 13.393303753311242}], "distance": 596, "postalCode": "10115", "cc": "DE", "city": "Berlin", "state": "Berlin", "country": "Deutschland", "formattedAddress": ["Torstr. 183", "10115 Berlin", "Deutschland"]}, "categories": [{"id": "4bf58dd8d48988d10c941735", "name": "French Restaurant", "pluralName": "French Restaurants", "shortName": "French", "icon": {"prefix": "https://ss3.4sqi.net/img/categories_v2/food/french_", "suffix": ".png"}, "primary": true}], "photos": {"count": 0, "groups": []}}, "referralId": "e-0-4b157b85f964a52083ad23e3-54"}, {"reasons": {"count": 0, "items": [{"summary": "This spot is popular", "type": "general", "reasonName": "globalInteractionReason"}]}, "venue": {"id": "4b69e06af964a520a1b92be3", "name": "noto", "location": {"address": "Torstr. 173", "lat": 52.52882640049615, "lng": 13.394805957522449, "labeledLatLngs": [{"label": "display", "lat": 52.52882640049615, "lng": 13.394805957522449}], "distance": 565, "postalCode": "10115", "cc": "DE", "city": "Berlin", "state": "Berlin", "country": "Deutschland", "formattedAddress": ["Torstr. 173", "10115 Berlin", "Deutschland"]}, "categories": [{"id": "52e81612bcbc57f1066b79f9", "name": "Modern European Restaurant", "pluralName": "Modern European Restaurants", "shortName": "Modern European", "icon": {"prefix": "https://ss3.4sqi.net/img/categories_v2/food/default_", "suffix": ".png"}, "primary": true}], "photos": {"count": 0, "groups": []}}, "referralId": "e-0-4b69e06af964a520a1b92be3-55"}, {"reasons": {"count": 0, "items": [{"summary": "This spot is popular", "type": "general", "reasonName": "globalInteractionReason"}]}, "venue": {"id": "5084e715e4b00b2c4197d0b8", "name": "Sucre et Sel", "location": {"address": "Torstr. 132", "lat": 52.5296048555097, "lng": 13.400169092114245, "labeledLatLngs": [{"label": "display", "lat": 52.5296048555097, "lng": 13.400169092114245}], "distance": 658, "postalCode": "10119", "cc": "DE", "city": "Berlin", "state": "Berlin", "country": "Deutschland", "formattedAddress": ["Torstr. 132", "10119 Berlin", "Deutschland"]}, "categories": [{"id": "4bf58dd8d48988d10c941735", "name": "French Restaurant", "pluralName": "French Restaurants", "shortName": "French", "icon": {"prefix": "https://ss3.4sqi.net/img/categories_v2/food/french_", "suffix": ".png"}, "primary": true}], "photos": {"count": 0, "groups": []}, "venuePage": {"id": "87956981"}}, "referralId": "e-0-5084e715e4b00b2c4197d0b8-56"}, {"reasons": {"count": 0, "items": [{"summary": "This spot is popular", "type": "general", "reasonName": "globalInteractionReason"}]}, "venue": {"id": "4adf59d3f964a520bc7921e3", "name": "Cafe Gal\u00e3o", "location": {"address": "Weinbergsweg 8", "lat": 52.53111966672184, "lng": 13.402515528856984, "labeledLatLngs": [{"label": "display", "lat": 52.53111966672184, "lng": 13.402515528856984}], "distance": 689, "postalCode": "10119", "cc": "DE", "city": "Berlin", "state": "Berlin", "country": "Deutschland", "formattedAddress": ["Weinbergsweg 8", "10119 Berlin", "Deutschland"]}, "categories": [{"id": "4bf58dd8d48988d16d941735", "name": "Caf\u00e9", "pluralName": "Caf\u00e9s", "shortName": "Caf\u00e9", "icon": {"prefix": "https://ss3.4sqi.net/img/categories_v2/food/cafe_", "suffix": ".png"}, "primary": true}], "photos": {"count": 0, "groups": []}}, "referralId": "e-0-4adf59d3f964a520bc7921e3-57"}, {"reasons": {"count": 0, "items": [{"summary": "This spot is popular", "type": "general", "reasonName": "globalInteractionReason"}]}, "venue": {"id": "4f3b052ce4b01e3345847841", "name": "Hotel Mani", "location": {"address": "Torstr. 136", "lat": 52.52946222899783, "lng": 13.39965895599839, "labeledLatLngs": [{"label": "display", "lat": 52.52946222899783, "lng": 13.39965895599839}], "distance": 646, "postalCode": "10119", "cc": "DE", "city": "Berlin", "state": "Berlin", "country": "Deutschland", "formattedAddress": ["Torstr. 136", "10119 Berlin", "Deutschland"]}, "categories": [{"id": "4bf58dd8d48988d1fa931735", "name": "Hotel", "pluralName": "Hotels", "shortName": "Hotel", "icon": {"prefix": "https://ss3.4sqi.net/img/categories_v2/travel/hotel_", "suffix": ".png"}, "primary": true}], "photos": {"count": 0, "groups": []}}, "referralId": "e-0-4f3b052ce4b01e3345847841-58"}, {"reasons": {"count": 0, "items": [{"summary": "This spot is popular", "type": "general", "reasonName": "globalInteractionReason"}]}, "venue": {"id": "4c0e968d336220a1e275cc77", "name": "Rosengarten", "location": {"address": "Weinbergsweg 13", "lat": 52.5324232385027, "lng": 13.403204031613928, "labeledLatLngs": [{"label": "display", "lat": 52.5324232385027, "lng": 13.403204031613928}], "distance": 684, "postalCode": "10119", "cc": "DE", "city": "Berlin", "state": "Berlin", "country": "Deutschland", "formattedAddress": ["Weinbergsweg 13", "10119 Berlin", "Deutschland"]}, "categories": [{"id": "4bf58dd8d48988d117941735", "name": "Beer Garden", "pluralName": "Beer Gardens", "shortName": "Beer Garden", "icon": {"prefix": "https://ss3.4sqi.net/img/categories_v2/nightlife/beergarden_", "suffix": ".png"}, "primary": true}], "photos": {"count": 0, "groups": []}}, "referralId": "e-0-4c0e968d336220a1e275cc77-59"}, {"reasons": {"count": 0, "items": [{"summary": "This spot is popular", "type": "general", "reasonName": "globalInteractionReason"}]}, "venue": {"id": "4adcda72f964a5201f4521e3", "name": "The Circus Hostel", "location": {"address": "Weinbergsweg 1a", "lat": 52.53018623477566, "lng": 13.40172019130508, "labeledLatLngs": [{"label": "display", "lat": 52.53018623477566, "lng": 13.40172019130508}], "distance": 696, "postalCode": "10119", "cc": "DE", "city": "Berlin", "state": "Berlin", "country": "Deutschland", "formattedAddress": ["Weinbergsweg 1a", "10119 Berlin", "Deutschland"]}, "categories": [{"id": "4bf58dd8d48988d1ee931735", "name": "Hostel", "pluralName": "Hostels", "shortName": "Hostel", "icon": {"prefix": "https://ss3.4sqi.net/img/categories_v2/travel/hostel_", "suffix": ".png"}, "primary": true}], "photos": {"count": 0, "groups": []}}, "referralId": "e-0-4adcda72f964a5201f4521e3-60"}, {"reasons": {"count": 0, "items": [{"summary": "This spot is popular", "type": "general", "reasonName": "globalInteractionReason"}]}, "venue": {"id": "4d0c3b5a3905b1f7553d934b", "name": "ACUD macht neu", "location": {"address": "Veteranenstr. 21", "lat": 52.533506947099475, "lng": 13.400975180056687, "labeledLatLngs": [{"label": "display", "lat": 52.533506947099475, "lng": 13.400975180056687}], "distance": 516, "postalCode": "10119", "cc": "DE", "city": "Berlin", "state": "Berlin", "country": "Deutschland", "formattedAddress": ["Veteranenstr. 21", "10119 Berlin", "Deutschland"]}, "categories": [{"id": "4bf58dd8d48988d11f941735", "name": "Nightclub", "pluralName": "Nightclubs", "shortName": "Nightclub", "icon": {"prefix": "https://ss3.4sqi.net/img/categories_v2/nightlife/nightclub_", "suffix": ".png"}, "primary": true}], "photos": {"count": 0, "groups": []}}, "referralId": "e-0-4d0c3b5a3905b1f7553d934b-61"}, {"reasons": {"count": 0, "items": [{"summary": "This spot is popular", "type": "general", "reasonName": "globalInteractionReason"}]}, "venue": {"id": "570b97c4498e2c6e7c5eb991", "name": "Smart Deli", "location": {"address": "Novalisstr. 2", "lat": 52.528094, "lng": 13.38906, "labeledLatLngs": [{"label": "display", "lat": 52.528094, "lng": 13.38906}], "distance": 701, "postalCode": "10115", "cc": "DE", "city": "Berlin", "state": "Berlin", "country": "Deutschland", "formattedAddress": ["Novalisstr. 2", "10115 Berlin", "Deutschland"]}, "categories": [{"id": "4bf58dd8d48988d111941735", "name": "Japanese Restaurant", "pluralName": "Japanese Restaurants", "shortName": "Japanese", "icon": {"prefix": "https://ss3.4sqi.net/img/categories_v2/food/japanese_", "suffix": ".png"}, "primary": true}], "photos": {"count": 0, "groups": []}}, "referralId": "e-0-570b97c4498e2c6e7c5eb991-62"}, {"reasons": {"count": 0, "items": [{"summary": "This spot is popular", "type": "general", "reasonName": "globalInteractionReason"}]}, "venue": {"id": "4b33af2ef964a520ce1c25e3", "name": "Zionskirche", "location": {"address": "Zionskirchstr.", "crossStreet": "Veteranenstr.", "lat": 52.53434212530908, "lng": 13.40388775416483, "labeledLatLngs": [{"label": "display", "lat": 52.53434212530908, "lng": 13.40388775416483}], "distance": 715, "postalCode": "10119", "cc": "DE", "city": "Berlin", "state": "Berlin", "country": "Deutschland", "formattedAddress": ["Zionskirchstr. (Veteranenstr.)", "10119 Berlin", "Deutschland"]}, "categories": [{"id": "4bf58dd8d48988d132941735", "name": "Church", "pluralName": "Churches", "shortName": "Church", "icon": {"prefix": "https://ss3.4sqi.net/img/categories_v2/building/religious_church_", "suffix": ".png"}, "primary": true}], "photos": {"count": 0, "groups": []}}, "referralId": "e-0-4b33af2ef964a520ce1c25e3-63"}, {"reasons": {"count": 0, "items": [{"summary": "This spot is popular", "type": "general", "reasonName": "globalInteractionReason"}]}, "venue": {"id": "4fa439d8e4b08e1f87f1801d", "name": "La Bigoud\u00e8ne", "location": {"address": "Zionskirchstr. 28", "lat": 52.534312009685856, "lng": 13.403456851709327, "labeledLatLngs": [{"label": "display", "lat": 52.534312009685856, "lng": 13.403456851709327}], "distance": 685, "postalCode": "10119", "cc": "DE", "city": "Berlin", "state": "Berlin", "country": "Deutschland", "formattedAddress": ["Zionskirchstr. 28", "10119 Berlin", "Deutschland"]}, "categories": [{"id": "4bf58dd8d48988d10c941735", "name": "French Restaurant", "pluralName": "French Restaurants", "shortName": "French", "icon": {"prefix": "https://ss3.4sqi.net/img/categories_v2/food/french_", "suffix": ".png"}, "primary": true}], "photos": {"count": 0, "groups": []}}, "referralId": "e-0-4fa439d8e4b08e1f87f1801d-64"}, {"reasons": {"count": 0, "items": [{"summary": "This spot is popular", "type": "general", "reasonName": "globalInteractionReason"}]}, "venue": {"id": "57d5d4b8498e4af69c1a15df", "name": "Schnitzelei", "location": {"address": "Chausseestr. 8", "lat": 52.52856325875209, "lng": 13.38722770446947, "labeledLatLngs": [{"label": "display", "lat": 52.52856325875209, "lng": 13.38722770446947}], "distance": 718, "postalCode": "10115", "cc": "DE", "neighborhood": "Mitte", "city": "Berlin", "state": "Berlin", "country": "Deutschland", "formattedAddress": ["Chausseestr. 8", "10115 Berlin", "Deutschland"]}, "categories": [{"id": "56aa371ce4b08b9a8d573587", "name": "Schnitzel Restaurant", "pluralName": "Schnitzel Restaurants", "shortName": "Schnitzel", "icon": {"prefix": "https://ss3.4sqi.net/img/categories_v2/food/german_", "suffix": ".png"}, "primary": true}], "photos": {"count": 0, "groups": []}}, "referralId": "e-0-57d5d4b8498e4af69c1a15df-65"}, {"reasons": {"count": 0, "items": [{"summary": "This spot is popular", "type": "general", "reasonName": "globalInteractionReason"}]}, "venue": {"id": "4b15069ef964a520eaa723e3", "name": "Caf\u00e9 Bondi", "location": {"address": "Eichendorffstr. 5", "lat": 52.530319398010086, "lng": 13.387454917590597, "labeledLatLngs": [{"label": "display", "lat": 52.530319398010086, "lng": 13.387454917590597}], "distance": 559, "cc": "DE", "city": "Berlin", "state": "Berlin", "country": "Deutschland", "formattedAddress": ["Eichendorffstr. 5", "Berlin", "Deutschland"]}, "categories": [{"id": "4bf58dd8d48988d16d941735", "name": "Caf\u00e9", "pluralName": "Caf\u00e9s", "shortName": "Caf\u00e9", "icon": {"prefix": "https://ss3.4sqi.net/img/categories_v2/food/cafe_", "suffix": ".png"}, "primary": true}], "photos": {"count": 0, "groups": []}}, "referralId": "e-0-4b15069ef964a520eaa723e3-66"}, {"reasons": {"count": 0, "items": [{"summary": "This spot is popular", "type": "general", "reasonName": "globalInteractionReason"}]}, "venue": {"id": "5b3935f2d1a402002c36a225", "name": "Marina Blu", "location": {"lat": 52.531389, "lng": 13.402697, "labeledLatLngs": [{"label": "display", "lat": 52.531389, "lng": 13.402697}], "distance": 687, "cc": "DE", "city": "Berlin", "state": "Berlin", "country": "Deutschland", "formattedAddress": ["Berlin", "Deutschland"]}, "categories": [{"id": "4bf58dd8d48988d110941735", "name": "Italian Restaurant", "pluralName": "Italian Restaurants", "shortName": "Italian", "icon": {"prefix": "https://ss3.4sqi.net/img/categories_v2/food/italian_", "suffix": ".png"}, "primary": true}], "photos": {"count": 0, "groups": []}}, "referralId": "e-0-5b3935f2d1a402002c36a225-67"}, {"reasons": {"count": 0, "items": [{"summary": "This spot is popular", "type": "general", "reasonName": "globalInteractionReason"}]}, "venue": {"id": "4adcda89f964a520ab4921e3", "name": "ACUD Kino", "location": {"address": "Veteranenstr. 21", "lat": 52.533604967418306, "lng": 13.400857957403991, "labeledLatLngs": [{"label": "display", "lat": 52.533604967418306, "lng": 13.400857957403991}], "distance": 508, "postalCode": "10119", "cc": "DE", "city": "Berlin", "state": "Berlin", "country": "Deutschland", "formattedAddress": ["Veteranenstr. 21", "10119 Berlin", "Deutschland"]}, "categories": [{"id": "4bf58dd8d48988d17e941735", "name": "Indie Movie Theater", "pluralName": "Indie Movie Theaters", "shortName": "Indie Movies", "icon": {"prefix": "https://ss3.4sqi.net/img/categories_v2/arts_entertainment/movietheater_", "suffix": ".png"}, "primary": true}], "photos": {"count": 0, "groups": []}}, "referralId": "e-0-4adcda89f964a520ab4921e3-68"}, {"reasons": {"count": 0, "items": [{"summary": "This spot is popular", "type": "general", "reasonName": "globalInteractionReason"}]}, "venue": {"id": "4dc4342c091a16f29194f4e2", "name": "Arkonaplatz", "location": {"address": "Granseer Str.", "crossStreet": "Ruppiner Str.", "lat": 52.53726496881862, "lng": 13.401979207992554, "labeledLatLngs": [{"label": "display", "lat": 52.53726496881862, "lng": 13.401979207992554}], "distance": 697, "postalCode": "10435", "cc": "DE", "city": "Berlin", "state": "Berlin", "country": "Deutschland", "formattedAddress": ["Granseer Str. (Ruppiner Str.)", "10435 Berlin", "Deutschland"]}, "categories": [{"id": "4bf58dd8d48988d164941735", "name": "Plaza", "pluralName": "Plazas", "shortName": "Plaza", "icon": {"prefix": "https://ss3.4sqi.net/img/categories_v2/parks_outdoors/plaza_", "suffix": ".png"}, "primary": true}], "photos": {"count": 0, "groups": []}}, "referralId": "e-0-4dc4342c091a16f29194f4e2-69"}, {"reasons": {"count": 0, "items": [{"summary": "This spot is popular", "type": "general", "reasonName": "globalInteractionReason"}]}, "venue": {"id": "4b1654eef964a52042b823e3", "name": "EINS", "location": {"address": "Eichendorffstr. 1", "crossStreet": "Novalisstr.", "lat": 52.529459790048676, "lng": 13.388038964477568, "labeledLatLngs": [{"label": "display", "lat": 52.529459790048676, "lng": 13.388038964477568}], "distance": 605, "postalCode": "10115", "cc": "DE", "city": "Berlin", "state": "Berlin", "country": "Deutschland", "formattedAddress": ["Eichendorffstr. 1 (Novalisstr.)", "10115 Berlin", "Deutschland"]}, "categories": [{"id": "4bf58dd8d48988d10d941735", "name": "German Restaurant", "pluralName": "German Restaurants", "shortName": "German", "icon": {"prefix": "https://ss3.4sqi.net/img/categories_v2/food/german_", "suffix": ".png"}, "primary": true}], "photos": {"count": 0, "groups": []}}, "referralId": "e-0-4b1654eef964a52042b823e3-70"}, {"reasons": {"count": 0, "items": [{"summary": "This spot is popular", "type": "general", "reasonName": "globalInteractionReason"}]}, "venue": {"id": "5c4b83b5446ea600391ea411", "name": "Volk", "location": {"address": "Brunnenstra\u00dfe 182", "lat": 52.531645, "lng": 13.399612, "labeledLatLngs": [{"label": "display", "lat": 52.531645, "lng": 13.399612}], "distance": 488, "postalCode": "10119", "cc": "DE", "neighborhood": "Mitte", "city": "Berlin", "state": "Berlin", "country": "Deutschland", "formattedAddress": ["Brunnenstra\u00dfe 182", "10119 Berlin", "Deutschland"]}, "categories": [{"id": "4bf58dd8d48988d1ce941735", "name": "Seafood Restaurant", "pluralName": "Seafood Restaurants", "shortName": "Seafood", "icon": {"prefix": "https://ss3.4sqi.net/img/categories_v2/food/seafood_", "suffix": ".png"}, "primary": true}], "photos": {"count": 0, "groups": []}}, "referralId": "e-0-5c4b83b5446ea600391ea411-71"}, {"reasons": {"count": 0, "items": [{"summary": "This spot is popular", "type": "general", "reasonName": "globalInteractionReason"}]}, "venue": {"id": "4be091ab4c55b651ad76eab7", "name": "The Circus Hotel", "location": {"address": "Rosenthaler Str. 1", "lat": 52.52943130750294, "lng": 13.401548716608886, "labeledLatLngs": [{"label": "display", "lat": 52.52943130750294, "lng": 13.401548716608886}], "distance": 739, "postalCode": "10119", "cc": "DE", "city": "Berlin", "state": "Berlin", "country": "Deutschland", "formattedAddress": ["Rosenthaler Str. 1", "10119 Berlin", "Deutschland"]}, "categories": [{"id": "4bf58dd8d48988d1fa931735", "name": "Hotel", "pluralName": "Hotels", "shortName": "Hotel", "icon": {"prefix": "https://ss3.4sqi.net/img/categories_v2/travel/hotel_", "suffix": ".png"}, "primary": true}], "photos": {"count": 0, "groups": []}}, "referralId": "e-0-4be091ab4c55b651ad76eab7-72"}, {"reasons": {"count": 0, "items": [{"summary": "This spot is popular", "type": "general", "reasonName": "globalInteractionReason"}]}, "venue": {"id": "4e72345c8998183ccf228ffa", "name": "Kopps", "location": {"address": "Linienstr. 94", "crossStreet": "Koppenplatz", "lat": 52.52878391928497, "lng": 13.397408723831177, "labeledLatLngs": [{"label": "display", "lat": 52.52878391928497, "lng": 13.397408723831177}], "distance": 624, "postalCode": "10115", "cc": "DE", "city": "Berlin", "state": "Berlin", "country": "Deutschland", "formattedAddress": ["Linienstr. 94 (Koppenplatz)", "10115 Berlin", "Deutschland"]}, "categories": [{"id": "4bf58dd8d48988d1d3941735", "name": "Vegetarian / Vegan Restaurant", "pluralName": "Vegetarian / Vegan Restaurants", "shortName": "Vegetarian / Vegan", "icon": {"prefix": "https://ss3.4sqi.net/img/categories_v2/food/vegetarian_", "suffix": ".png"}, "primary": true}], "photos": {"count": 0, "groups": []}}, "referralId": "e-0-4e72345c8998183ccf228ffa-73"}, {"reasons": {"count": 0, "items": [{"summary": "This spot is popular", "type": "general", "reasonName": "globalInteractionReason"}]}, "venue": {"id": "4af408a9f964a520deef21e3", "name": "Wochenmarkt Arkonaplatz", "location": {"address": "Arkonaplatz", "crossStreet": "Swinem\u00fcnder Str.", "lat": 52.53736647776339, "lng": 13.402055586675221, "labeledLatLngs": [{"label": "display", "lat": 52.53736647776339, "lng": 13.402055586675221}], "distance": 708, "postalCode": "10435", "cc": "DE", "city": "Berlin", "state": "Berlin", "country": "Deutschland", "formattedAddress": ["Arkonaplatz (Swinem\u00fcnder Str.)", "10435 Berlin", "Deutschland"]}, "categories": [{"id": "4bf58dd8d48988d1fa941735", "name": "Farmers Market", "pluralName": "Farmers Markets", "shortName": "Farmer's Market", "icon": {"prefix": "https://ss3.4sqi.net/img/categories_v2/shops/food_farmersmarket_", "suffix": ".png"}, "primary": true}], "photos": {"count": 0, "groups": []}}, "referralId": "e-0-4af408a9f964a520deef21e3-74"}, {"reasons": {"count": 0, "items": [{"summary": "This spot is popular", "type": "general", "reasonName": "globalInteractionReason"}]}, "venue": {"id": "5c3640863149b9002c161fda", "name": "BEAT81 Indoor", "location": {"address": "Brunnenstr. 10", "lat": 52.53122267779773, "lng": 13.400410163441668, "labeledLatLngs": [{"label": "display", "lat": 52.53122267779773, "lng": 13.400410163441668}], "distance": 558, "postalCode": "10119", "cc": "DE", "city": "Berlin", "state": "Berlin", "country": "Deutschland", "formattedAddress": ["Brunnenstr. 10", "10119 Berlin", "Deutschland"]}, "categories": [{"id": "4bf58dd8d48988d175941735", "name": "Gym / Fitness Center", "pluralName": "Gyms or Fitness Centers", "shortName": "Gym / Fitness", "icon": {"prefix": "https://ss3.4sqi.net/img/categories_v2/building/gym_", "suffix": ".png"}, "primary": true}], "photos": {"count": 0, "groups": []}}, "referralId": "e-0-5c3640863149b9002c161fda-75"}, {"reasons": {"count": 0, "items": [{"summary": "This spot is popular", "type": "general", "reasonName": "globalInteractionReason"}]}, "venue": {"id": "4adcda91f964a5209b4b21e3", "name": "do you read me?!", "location": {"address": "Auguststr. 28", "lat": 52.52721193085127, "lng": 13.397700600251317, "labeledLatLngs": [{"label": "display", "lat": 52.52721193085127, "lng": 13.397700600251317}], "distance": 792, "postalCode": "10117", "cc": "DE", "city": "Berlin", "state": "Berlin", "country": "Deutschland", "formattedAddress": ["Auguststr. 28", "10117 Berlin", "Deutschland"]}, "categories": [{"id": "4bf58dd8d48988d114951735", "name": "Bookstore", "pluralName": "Bookstores", "shortName": "Bookstore", "icon": {"prefix": "https://ss3.4sqi.net/img/categories_v2/shops/bookstore_", "suffix": ".png"}, "primary": true}], "photos": {"count": 0, "groups": []}}, "referralId": "e-0-4adcda91f964a5209b4b21e3-76"}, {"reasons": {"count": 0, "items": [{"summary": "This spot is popular", "type": "general", "reasonName": "globalInteractionReason"}]}, "venue": {"id": "4dc6952018387d1bd55ac19a", "name": "S\u00fc\u00dfe S\u00fcnde", "location": {"address": "Weinbergsweg 21", "lat": 52.530925, "lng": 13.401989, "labeledLatLngs": [{"label": "display", "lat": 52.530925, "lng": 13.401989}], "distance": 667, "postalCode": "10119", "cc": "DE", "city": "Berlin", "state": "Berlin", "country": "Deutschland", "formattedAddress": ["Weinbergsweg 21", "10119 Berlin", "Deutschland"]}, "categories": [{"id": "4bf58dd8d48988d1c9941735", "name": "Ice Cream Shop", "pluralName": "Ice Cream Shops", "shortName": "Ice Cream", "icon": {"prefix": "https://ss3.4sqi.net/img/categories_v2/food/icecream_", "suffix": ".png"}, "primary": true}], "photos": {"count": 0, "groups": []}}, "referralId": "e-0-4dc6952018387d1bd55ac19a-77"}, {"reasons": {"count": 0, "items": [{"summary": "This spot is popular", "type": "general", "reasonName": "globalInteractionReason"}]}, "venue": {"id": "59e750048c35dc366e2d276d", "name": "Avocai", "location": {"address": "Brunnenstra\u00dfe 165", "lat": 52.533849, "lng": 13.398387, "labeledLatLngs": [{"label": "display", "lat": 52.533849, "lng": 13.398387}], "distance": 340, "postalCode": "10119", "cc": "DE", "city": "Berlin", "state": "Berlin", "country": "Deutschland", "formattedAddress": ["Brunnenstra\u00dfe 165", "10119 Berlin", "Deutschland"]}, "categories": [{"id": "4bf58dd8d48988d16d941735", "name": "Caf\u00e9", "pluralName": "Caf\u00e9s", "shortName": "Caf\u00e9", "icon": {"prefix": "https://ss3.4sqi.net/img/categories_v2/food/cafe_", "suffix": ".png"}, "primary": true}], "photos": {"count": 0, "groups": []}}, "referralId": "e-0-59e750048c35dc366e2d276d-78"}, {"reasons": {"count": 0, "items": [{"summary": "This spot is popular", "type": "general", "reasonName": "globalInteractionReason"}]}, "venue": {"id": "4b740d78f964a52096c52de3", "name": "La Caffetteria", "location": {"address": "Brunnenstr. 153", "lat": 52.53588057633482, "lng": 13.397585932390623, "labeledLatLngs": [{"label": "display", "lat": 52.53588057633482, "lng": 13.397585932390623}], "distance": 366, "postalCode": "10115", "cc": "DE", "neighborhood": "Mitte", "city": "Berlin", "state": "Berlin", "country": "Deutschland", "formattedAddress": ["Brunnenstr. 153", "10115 Berlin", "Deutschland"]}, "categories": [{"id": "4bf58dd8d48988d16d941735", "name": "Caf\u00e9", "pluralName": "Caf\u00e9s", "shortName": "Caf\u00e9", "icon": {"prefix": "https://ss3.4sqi.net/img/categories_v2/food/cafe_", "suffix": ".png"}, "primary": true}], "photos": {"count": 0, "groups": []}}, "referralId": "e-0-4b740d78f964a52096c52de3-79"}, {"reasons": {"count": 0, "items": [{"summary": "This spot is popular", "type": "general", "reasonName": "globalInteractionReason"}]}, "venue": {"id": "550a7fcd498e32960d4e9595", "name": "Alnatura", "location": {"address": "Chausseestr. 11", "lat": 52.528486976569134, "lng": 13.386047279562225, "labeledLatLngs": [{"label": "display", "lat": 52.528486976569134, "lng": 13.386047279562225}], "distance": 773, "postalCode": "10115", "cc": "DE", "city": "Berlin", "state": "Berlin", "country": "Deutschland", "formattedAddress": ["Chausseestr. 11", "10115 Berlin", "Deutschland"]}, "categories": [{"id": "52f2ab2ebcbc57f1066b8b45", "name": "Organic Grocery", "pluralName": "Organic Groceries", "shortName": "Organic Grocery", "icon": {"prefix": "https://ss3.4sqi.net/img/categories_v2/shops/food_grocery_", "suffix": ".png"}, "primary": true}], "photos": {"count": 0, "groups": []}}, "referralId": "e-0-550a7fcd498e32960d4e9595-80"}, {"reasons": {"count": 0, "items": [{"summary": "This spot is popular", "type": "general", "reasonName": "globalInteractionReason"}]}, "venue": {"id": "4c9a4a52a004a1cdf710476e", "name": "Stadtbad Mitte James Simon", "location": {"address": "Gartenstr. 5", "lat": 52.52937, "lng": 13.392972, "labeledLatLngs": [{"label": "display", "lat": 52.52937, "lng": 13.392972}], "distance": 496, "postalCode": "10115", "cc": "DE", "city": "Berlin", "state": "Berlin", "country": "Deutschland", "formattedAddress": ["Gartenstr. 5", "10115 Berlin", "Deutschland"]}, "categories": [{"id": "4bf58dd8d48988d15e941735", "name": "Pool", "pluralName": "Pools", "shortName": "Pool", "icon": {"prefix": "https://ss3.4sqi.net/img/categories_v2/parks_outdoors/pool_", "suffix": ".png"}, "primary": true}], "photos": {"count": 0, "groups": []}}, "referralId": "e-0-4c9a4a52a004a1cdf710476e-81"}, {"reasons": {"count": 0, "items": [{"summary": "This spot is popular", "type": "general", "reasonName": "globalInteractionReason"}]}, "venue": {"id": "4af40ecff964a520edef21e3", "name": "Yumcha Heroes", "location": {"address": "Weinbergsweg 8", "lat": 52.531269375282456, "lng": 13.402616831272113, "labeledLatLngs": [{"label": "display", "lat": 52.531269375282456, "lng": 13.402616831272113}], "distance": 688, "postalCode": "10119", "cc": "DE", "city": "Berlin", "state": "Berlin", "country": "Deutschland", "formattedAddress": ["Weinbergsweg 8", "10119 Berlin", "Deutschland"]}, "categories": [{"id": "4bf58dd8d48988d1f5931735", "name": "Dim Sum Restaurant", "pluralName": "Dim Sum Restaurants", "shortName": "Dim Sum", "icon": {"prefix": "https://ss3.4sqi.net/img/categories_v2/food/dimsum_", "suffix": ".png"}, "primary": true}], "photos": {"count": 0, "groups": []}}, "referralId": "e-0-4af40ecff964a520edef21e3-82"}, {"reasons": {"count": 0, "items": [{"summary": "This spot is popular", "type": "general", "reasonName": "globalInteractionReason"}]}, "venue": {"id": "4dc6ac3245dd2645528eea3c", "name": "Zionskirchplatz", "location": {"address": "Zionskirchstr.", "crossStreet": "Griebenowstr.", "lat": 52.53425657721459, "lng": 13.404267067374413, "labeledLatLngs": [{"label": "display", "lat": 52.53425657721459, "lng": 13.404267067374413}], "distance": 739, "postalCode": "10119", "cc": "DE", "city": "Berlin", "state": "Berlin", "country": "Deutschland", "formattedAddress": ["Zionskirchstr. (Griebenowstr.)", "10119 Berlin", "Deutschland"]}, "categories": [{"id": "4bf58dd8d48988d164941735", "name": "Plaza", "pluralName": "Plazas", "shortName": "Plaza", "icon": {"prefix": "https://ss3.4sqi.net/img/categories_v2/parks_outdoors/plaza_", "suffix": ".png"}, "primary": true}], "photos": {"count": 0, "groups": []}}, "referralId": "e-0-4dc6ac3245dd2645528eea3c-83"}, {"reasons": {"count": 0, "items": [{"summary": "This spot is popular", "type": "general", "reasonName": "globalInteractionReason"}]}, "venue": {"id": "4adcda79f964a520954621e3", "name": "FC Magnet Mitte", "location": {"address": "Veteranenstr. 26", "lat": 52.53288469466514, "lng": 13.399942546275922, "labeledLatLngs": [{"label": "display", "lat": 52.53288469466514, "lng": 13.399942546275922}], "distance": 457, "postalCode": "10119", "cc": "DE", "city": "Berlin", "state": "Berlin", "country": "Deutschland", "formattedAddress": ["Veteranenstr. 26", "10119 Berlin", "Deutschland"]}, "categories": [{"id": "4bf58dd8d48988d11d941735", "name": "Sports Bar", "pluralName": "Sports Bars", "shortName": "Sports Bar", "icon": {"prefix": "https://ss3.4sqi.net/img/categories_v2/nightlife/sportsbar_", "suffix": ".png"}, "primary": true}], "photos": {"count": 0, "groups": []}}, "referralId": "e-0-4adcda79f964a520954621e3-84"}, {"reasons": {"count": 0, "items": [{"summary": "This spot is popular", "type": "general", "reasonName": "globalInteractionReason"}]}, "venue": {"id": "4f79df95e4b05bfd5981b2e0", "name": "Jivamukti Canteen Vegan Cafe", "location": {"address": "Brunnenstra\u00dfe 29", "lat": 52.53451050392236, "lng": 13.399477914817044, "labeledLatLngs": [{"label": "display", "lat": 52.53451050392236, "lng": 13.399477914817044}], "distance": 421, "cc": "DE", "city": "Berlin", "state": "Berlin", "country": "Deutschland", "formattedAddress": ["Brunnenstra\u00dfe 29", "Berlin", "Deutschland"]}, "categories": [{"id": "4bf58dd8d48988d16d941735", "name": "Caf\u00e9", "pluralName": "Caf\u00e9s", "shortName": "Caf\u00e9", "icon": {"prefix": "https://ss3.4sqi.net/img/categories_v2/food/cafe_", "suffix": ".png"}, "primary": true}], "photos": {"count": 0, "groups": []}}, "referralId": "e-0-4f79df95e4b05bfd5981b2e0-85"}, {"reasons": {"count": 0, "items": [{"summary": "This spot is popular", "type": "general", "reasonName": "globalInteractionReason"}]}, "venue": {"id": "4da461cd7aee54816d87fcfe", "name": "eismanufaktur Berlin", "location": {"address": "Auguststr. 63", "crossStreet": "Kleine Hamburger Str.", "lat": 52.52713146077114, "lng": 13.396967167831418, "labeledLatLngs": [{"label": "display", "lat": 52.52713146077114, "lng": 13.396967167831418}], "distance": 784, "postalCode": "10117", "cc": "DE", "city": "Berlin", "state": "Berlin", "country": "Deutschland", "formattedAddress": ["Auguststr. 63 (Kleine Hamburger Str.)", "10117 Berlin", "Deutschland"]}, "categories": [{"id": "4bf58dd8d48988d1c9941735", "name": "Ice Cream Shop", "pluralName": "Ice Cream Shops", "shortName": "Ice Cream", "icon": {"prefix": "https://ss3.4sqi.net/img/categories_v2/food/icecream_", "suffix": ".png"}, "primary": true}], "photos": {"count": 0, "groups": []}}, "referralId": "e-0-4da461cd7aee54816d87fcfe-86"}, {"reasons": {"count": 0, "items": [{"summary": "This spot is popular", "type": "general", "reasonName": "globalInteractionReason"}]}, "venue": {"id": "516ac172e4b074738d67d40b", "name": "Eismieze Berlin", "location": {"address": "Schlegelstr. 21", "crossStreet": "Eichendorffstr.", "lat": 52.53033081480907, "lng": 13.387170661008692, "labeledLatLngs": [{"label": "display", "lat": 52.53033081480907, "lng": 13.387170661008692}], "distance": 572, "postalCode": "10115", "cc": "DE", "city": "Berlin", "state": "Berlin", "country": "Deutschland", "formattedAddress": ["Schlegelstr. 21 (Eichendorffstr.)", "10115 Berlin", "Deutschland"]}, "categories": [{"id": "4bf58dd8d48988d1c9941735", "name": "Ice Cream Shop", "pluralName": "Ice Cream Shops", "shortName": "Ice Cream", "icon": {"prefix": "https://ss3.4sqi.net/img/categories_v2/food/icecream_", "suffix": ".png"}, "primary": true}], "photos": {"count": 0, "groups": []}}, "referralId": "e-0-516ac172e4b074738d67d40b-87"}, {"reasons": {"count": 0, "items": [{"summary": "This spot is popular", "type": "general", "reasonName": "globalInteractionReason"}]}, "venue": {"id": "4ade320cf964a520cf7321e3", "name": "W - Der Imbiss", "location": {"address": "Kastanienallee 49", "crossStreet": "Zionskirchstr.", "lat": 52.534230383614386, "lng": 13.405117392539978, "labeledLatLngs": [{"label": "display", "lat": 52.534230383614386, "lng": 13.405117392539978}], "distance": 797, "postalCode": "10119", "cc": "DE", "neighborhood": "Mitte", "city": "Berlin", "state": "Berlin", "country": "Deutschland", "formattedAddress": ["Kastanienallee 49 (Zionskirchstr.)", "10119 Berlin", "Deutschland"]}, "categories": [{"id": "4bf58dd8d48988d1d3941735", "name": "Vegetarian / Vegan Restaurant", "pluralName": "Vegetarian / Vegan Restaurants", "shortName": "Vegetarian / Vegan", "icon": {"prefix": "https://ss3.4sqi.net/img/categories_v2/food/vegetarian_", "suffix": ".png"}, "primary": true}], "photos": {"count": 0, "groups": []}, "venuePage": {"id": "469207190"}}, "referralId": "e-0-4ade320cf964a520cf7321e3-88"}, {"reasons": {"count": 0, "items": [{"summary": "This spot is popular", "type": "general", "reasonName": "globalInteractionReason"}]}, "venue": {"id": "4adcda88f964a520654921e3", "name": "Aiko", "location": {"address": "Brunnenstr. 193", "lat": 52.53055951837594, "lng": 13.40047007871769, "labeledLatLngs": [{"label": "display", "lat": 52.53055951837594, "lng": 13.40047007871769}], "distance": 603, "postalCode": "10119", "cc": "DE", "city": "Berlin", "state": "Berlin", "country": "Deutschland", "formattedAddress": ["Brunnenstr. 193", "10119 Berlin", "Deutschland"]}, "categories": [{"id": "4bf58dd8d48988d111941735", "name": "Japanese Restaurant", "pluralName": "Japanese Restaurants", "shortName": "Japanese", "icon": {"prefix": "https://ss3.4sqi.net/img/categories_v2/food/japanese_", "suffix": ".png"}, "primary": true}], "photos": {"count": 0, "groups": []}}, "referralId": "e-0-4adcda88f964a520654921e3-89"}, {"reasons": {"count": 0, "items": [{"summary": "This spot is popular", "type": "general", "reasonName": "globalInteractionReason"}]}, "venue": {"id": "4bbc731f51b89c74b063872a", "name": "La Focacceria", "location": {"address": "Fehrbelliner Str. 24", "lat": 52.533683, "lng": 13.403474, "labeledLatLngs": [{"label": "display", "lat": 52.533683, "lng": 13.403474}], "distance": 684, "postalCode": "10119", "cc": "DE", "city": "Berlin", "state": "Berlin", "country": "Deutschland", "formattedAddress": ["Fehrbelliner Str. 24", "10119 Berlin", "Deutschland"]}, "categories": [{"id": "4bf58dd8d48988d1ca941735", "name": "Pizza Place", "pluralName": "Pizza Places", "shortName": "Pizza", "icon": {"prefix": "https://ss3.4sqi.net/img/categories_v2/food/pizza_", "suffix": ".png"}, "primary": true}], "photos": {"count": 0, "groups": []}}, "referralId": "e-0-4bbc731f51b89c74b063872a-90"}, {"reasons": {"count": 0, "items": [{"summary": "This spot is popular", "type": "general", "reasonName": "globalInteractionReason"}]}, "venue": {"id": "4b0157a6f964a520284222e3", "name": "B\u00f6tzow Privat", "location": {"address": "Linienstr. 113", "lat": 52.527488, "lng": 13.392732, "labeledLatLngs": [{"label": "display", "lat": 52.527488, "lng": 13.392732}], "distance": 707, "postalCode": "10115", "cc": "DE", "city": "Berlin", "state": "Berlin", "country": "Deutschland", "formattedAddress": ["Linienstr. 113", "10115 Berlin", "Deutschland"]}, "categories": [{"id": "4bf58dd8d48988d11b941735", "name": "Pub", "pluralName": "Pubs", "shortName": "Pub", "icon": {"prefix": "https://ss3.4sqi.net/img/categories_v2/nightlife/pub_", "suffix": ".png"}, "primary": true}], "photos": {"count": 0, "groups": []}}, "referralId": "e-0-4b0157a6f964a520284222e3-91"}, {"reasons": {"count": 0, "items": [{"summary": "This spot is popular", "type": "general", "reasonName": "globalInteractionReason"}]}, "venue": {"id": "4adcfbdaf964a520296321e3", "name": "Caf\u00e9 Fleury", "location": {"address": "Weinbergsweg 20", "lat": 52.5312038400892, "lng": 13.402489630320915, "labeledLatLngs": [{"label": "display", "lat": 52.5312038400892, "lng": 13.402489630320915}], "distance": 683, "postalCode": "10119", "cc": "DE", "city": "Berlin", "state": "Berlin", "country": "Deutschland", "formattedAddress": ["Weinbergsweg 20", "10119 Berlin", "Deutschland"]}, "categories": [{"id": "4bf58dd8d48988d16d941735", "name": "Caf\u00e9", "pluralName": "Caf\u00e9s", "shortName": "Caf\u00e9", "icon": {"prefix": "https://ss3.4sqi.net/img/categories_v2/food/cafe_", "suffix": ".png"}, "primary": true}], "photos": {"count": 0, "groups": []}}, "referralId": "e-0-4adcfbdaf964a520296321e3-92"}, {"reasons": {"count": 0, "items": [{"summary": "This spot is popular", "type": "general", "reasonName": "globalInteractionReason"}]}, "venue": {"id": "4c2344c213c00f47f2b388de", "name": "The Barn", "location": {"address": "Auguststr. 58", "crossStreet": "Koppenplatz", "lat": 52.527461, "lng": 13.398166, "labeledLatLngs": [{"label": "display", "lat": 52.527461, "lng": 13.398166}], "distance": 779, "postalCode": "10115", "cc": "DE", "city": "Berlin", "state": "Berlin", "country": "Deutschland", "formattedAddress": ["Auguststr. 58 (Koppenplatz)", "10115 Berlin", "Deutschland"]}, "categories": [{"id": "4bf58dd8d48988d1e0931735", "name": "Coffee Shop", "pluralName": "Coffee Shops", "shortName": "Coffee Shop", "icon": {"prefix": "https://ss3.4sqi.net/img/categories_v2/food/coffeeshop_", "suffix": ".png"}, "primary": true}], "photos": {"count": 0, "groups": []}}, "referralId": "e-0-4c2344c213c00f47f2b388de-93"}, {"reasons": {"count": 0, "items": [{"summary": "This spot is popular", "type": "general", "reasonName": "globalInteractionReason"}]}, "venue": {"id": "4bc4ecf30969a593e032636e", "name": "Hotel Adelante", "location": {"address": "Borsigstr. 1", "lat": 52.528201201628846, "lng": 13.391140590077292, "labeledLatLngs": [{"label": "display", "lat": 52.528201201628846, "lng": 13.391140590077292}], "distance": 644, "postalCode": "10115", "cc": "DE", "city": "Berlin", "state": "Berlin", "country": "Deutschland", "formattedAddress": ["Borsigstr. 1", "10115 Berlin", "Deutschland"]}, "categories": [{"id": "4bf58dd8d48988d1fa931735", "name": "Hotel", "pluralName": "Hotels", "shortName": "Hotel", "icon": {"prefix": "https://ss3.4sqi.net/img/categories_v2/travel/hotel_", "suffix": ".png"}, "primary": true}], "photos": {"count": 0, "groups": []}}, "referralId": "e-0-4bc4ecf30969a593e032636e-94"}, {"reasons": {"count": 0, "items": [{"summary": "This spot is popular", "type": "general", "reasonName": "globalInteractionReason"}]}, "venue": {"id": "4f345269e4b0c78d28d2bd81", "name": "Mogg", "location": {"address": "Auguststr. 11-13", "lat": 52.526459, "lng": 13.394053, "labeledLatLngs": [{"label": "display", "lat": 52.526459, "lng": 13.394053}], "distance": 821, "postalCode": "10117", "cc": "DE", "city": "Berlin", "state": "Berlin", "country": "Deutschland", "formattedAddress": ["Auguststr. 11-13", "10117 Berlin", "Deutschland"]}, "categories": [{"id": "4bf58dd8d48988d1c5941735", "name": "Sandwich Place", "pluralName": "Sandwich Places", "shortName": "Sandwiches", "icon": {"prefix": "https://ss3.4sqi.net/img/categories_v2/food/deli_", "suffix": ".png"}, "primary": true}], "photos": {"count": 0, "groups": []}}, "referralId": "e-0-4f345269e4b0c78d28d2bd81-95"}, {"reasons": {"count": 0, "items": [{"summary": "This spot is popular", "type": "general", "reasonName": "globalInteractionReason"}]}, "venue": {"id": "4adcda7cf964a5203b4721e3", "name": "Club der polnischen Versager", "location": {"address": "Ackerstr. 170", "lat": 52.52980177645888, "lng": 13.397325805894614, "labeledLatLngs": [{"label": "display", "lat": 52.52980177645888, "lng": 13.397325805894614}], "distance": 522, "postalCode": "10115", "cc": "DE", "neighborhood": "Mitte", "city": "Berlin", "state": "Berlin", "country": "Deutschland", "formattedAddress": ["Ackerstr. 170", "10115 Berlin", "Deutschland"]}, "categories": [{"id": "4bf58dd8d48988d11f941735", "name": "Nightclub", "pluralName": "Nightclubs", "shortName": "Nightclub", "icon": {"prefix": "https://ss3.4sqi.net/img/categories_v2/nightlife/nightclub_", "suffix": ".png"}, "primary": true}], "photos": {"count": 0, "groups": []}}, "referralId": "e-0-4adcda7cf964a5203b4721e3-96"}, {"reasons": {"count": 0, "items": [{"summary": "This spot is popular", "type": "general", "reasonName": "globalInteractionReason"}]}, "venue": {"id": "4cc363d14fcfbfb75b09be24", "name": "C\u00f4 C\u00f4 \u2013 b\u00e1nh m\u00ec deli", "location": {"address": "Rosenthaler Str. 2", "crossStreet": "Torstr.", "lat": 52.52928384180744, "lng": 13.401708262753335, "labeledLatLngs": [{"label": "display", "lat": 52.52928384180744, "lng": 13.401708262753335}], "distance": 758, "postalCode": "10119", "cc": "DE", "city": "Berlin", "state": "Berlin", "country": "Deutschland", "formattedAddress": ["Rosenthaler Str. 2 (Torstr.)", "10119 Berlin", "Deutschland"]}, "categories": [{"id": "4bf58dd8d48988d1c5941735", "name": "Sandwich Place", "pluralName": "Sandwich Places", "shortName": "Sandwiches", "icon": {"prefix": "https://ss3.4sqi.net/img/categories_v2/food/deli_", "suffix": ".png"}, "primary": true}], "photos": {"count": 0, "groups": []}}, "referralId": "e-0-4cc363d14fcfbfb75b09be24-97"}, {"reasons": {"count": 0, "items": [{"summary": "This spot is popular", "type": "general", "reasonName": "globalInteractionReason"}]}, "venue": {"id": "51a9da4f498ec8aca72360f1", "name": "Shiso Burger", "location": {"address": "Auguststr. 29c", "crossStreet": "Gipsstr.", "lat": 52.527269917172944, "lng": 13.398796981782652, "labeledLatLngs": [{"label": "display", "lat": 52.527269917172944, "lng": 13.398796981782652}], "distance": 817, "postalCode": "10119", "cc": "DE", "city": "Berlin", "state": "Berlin", "country": "Deutschland", "formattedAddress": ["Auguststr. 29c (Gipsstr.)", "10119 Berlin", "Deutschland"]}, "categories": [{"id": "4bf58dd8d48988d16c941735", "name": "Burger Joint", "pluralName": "Burger Joints", "shortName": "Burgers", "icon": {"prefix": "https://ss3.4sqi.net/img/categories_v2/food/burger_", "suffix": ".png"}, "primary": true}], "photos": {"count": 0, "groups": []}}, "referralId": "e-0-51a9da4f498ec8aca72360f1-98"}, {"reasons": {"count": 0, "items": [{"summary": "This spot is popular", "type": "general", "reasonName": "globalInteractionReason"}]}, "venue": {"id": "4af0c7e3f964a52023df21e3", "name": "Ick koof mir Dave Lombardo wenn ick reich bin", "location": {"address": "Zionskirchstr. 34", "lat": 52.53390891220065, "lng": 13.403352450437309, "labeledLatLngs": [{"label": "display", "lat": 52.53390891220065, "lng": 13.403352450437309}], "distance": 676, "postalCode": "10119", "cc": "DE", "city": "Berlin", "state": "Berlin", "country": "Deutschland", "formattedAddress": ["Zionskirchstr. 34", "10119 Berlin", "Deutschland"]}, "categories": [{"id": "4bf58dd8d48988d116941735", "name": "Bar", "pluralName": "Bars", "shortName": "Bar", "icon": {"prefix": "https://ss3.4sqi.net/img/categories_v2/nightlife/pub_", "suffix": ".png"}, "primary": true}], "photos": {"count": 0, "groups": []}}, "referralId": "e-0-4af0c7e3f964a52023df21e3-99"}]