[{"reasons": {"count": 0, "items": [{"summary": "This spot is popular", "type": "general", "reasonName": "globalInteractionReason"}]}, "venue": {"id": "4e4a45c6a80997a2dbef9b19", "name": "Cafe Palais", "location": {"address": "Brunsb\u00fctteler Damm 264", "lat": 52.5331742907304, "lng": 13.157340970555925, "labeledLatLngs": [{"label": "display", "lat": 52.5331742907304, "lng": 13.157340970555925}], "distance": 610, "cc": "DE", "city": "Berlin", "state": "Berlin", "country": "Deutschland", "formattedAddress": ["Brunsb\u00fctteler Damm 264", "Berlin", "Deutschland"]}, "categories": [{"id": "4bf58dd8d48988d16e941735", "name": "Fast Food Restaurant", "pluralName": "Fast Food Restaurants", "shortName": "Fast Food", "icon": {"prefix": "https://ss3.4sqi.net/img/categories_v2/food/fastfood_", "suffix": ".png"}, "primary": true}], "photos": {"count": 0, "groups": []}}, "referralId": "e-0-4e4a45c6a80997a2dbef9b19-0"}, {"reasons": {"count": 0, "items": [{"summary": "This spot is popular", "type": "general", "reasonName": "globalInteractionReason"}]}, "venue": {"id": "4d9701aa647d8cfa527bc83d", "name": "Zum \u00d6sterreicher im Schaukelpferd", "location": {"address": "Hauptstr. 6", "lat": 52.529697930819495, "lng": 13.142635980122485, "labeledLatLngs": [{"label": "display", "lat": 52.529697930819495, "lng": 13.142635980122485}], "distance": 796, "postalCode": "13591", "cc": "DE", "city": "Berlin", "state": "Berlin", "country": "Deutschland", "formattedAddress": ["Hauptstr. 6", "13591 Berlin", "Deutschland"]}, "categories": [{"id": "4bf58dd8d48988d1c4941735", "name": "Restaurant", "pluralName": "Restaurants", "shortName": "Restaurant", "icon": {"prefix": "https://ss3.4sqi.net/img/categories_v2/food/default_", "suffix": ".png"}, "primary": true}], "photos": {"count": 0, "groups": []}}, "referralId": "e-0-4d9701aa647d8cfa527bc83d-1"}, {"reasons": {"count": 0, "items": [{"summary": "This spot is popular", "type": "general", "reasonName": "globalInteractionReason"}]}, "venue": {"id": "4b0d74ccf964a520b94823e3", "name": "Hasir Restaurant", "location": {"address": "Breite Str. 43", "lat": 52.53902844404871, "lng": 13.146437179006977, "labeledLatLngs": [{"label": "display", "lat": 52.53902844404871, "lng": 13.146437179006977}], "distance": 425, "postalCode": "13597", "cc": "DE", "neighborhood": "Spandau, Berlin", "city": "Berlin", "state": "Berlin", "country": "Deutschland", "formattedAddress": ["Breite Str. 43", "13597 Berlin", "Deutschland"]}, "categories": [{"id": "4f04af1f2fb6e1c99f3db0bb", "name": "Turkish Restaurant", "pluralName": "Turkish Restaurants", "shortName": "Turkish", "icon": {"prefix": "https://ss3.4sqi.net/img/categories_v2/food/turkish_", "suffix": ".png"}, "primary": true}], "photos": {"count": 0, "groups": []}}, "referralId": "e-0-4b0d74ccf964a520b94823e3-2"}, {"reasons": {"count": 0, "items": [{"summary": "This spot is popular", "type": "general", "reasonName": "globalInteractionReason"}]}, "venue": {"id": "4c3183426f1fef3be304ec3d", "name": "Trattoria Europa", "location": {"address": "Brunsb\u00fctteler Damm 265", "lat": 52.53307567038745, "lng": 13.157100423900218, "labeledLatLngs": [{"label": "display", "lat": 52.53307567038745, "lng": 13.157100423900218}], "distance": 601, "postalCode": "13591", "cc": "DE", "city": "Berlin", "state": "Berlin", "country": "Deutschland", "formattedAddress": ["Brunsb\u00fctteler Damm 265", "13591 Berlin", "Deutschland"]}, "categories": [{"id": "55a5a1ebe4b013909087cb7f", "name": "Trattoria/Osteria", "pluralName": "Trattorias/Osterias", "shortName": "Trattoria/Osteria", "icon": {"prefix": "https://ss3.4sqi.net/img/categories_v2/food/italian_", "suffix": ".png"}, "primary": true}], "photos": {"count": 0, "groups": []}}, "referralId": "e-0-4c3183426f1fef3be304ec3d-3"}, {"reasons": {"count": 0, "items": [{"summary": "This spot is popular", "type": "general", "reasonName": "globalInteractionReason"}]}, "venue": {"id": "4d90a2355091a1cdc765bf01", "name": "Rossmann", "location": {"address": "Brunsb\u00fctteler Damm 275", "lat": 52.5327967683392, "lng": 13.154802203353, "labeledLatLngs": [{"label": "display", "lat": 52.5327967683392, "lng": 13.154802203353}], "distance": 488, "postalCode": "13591", "cc": "DE", "city": "Berlin", "state": "Berlin", "country": "Deutschland", "formattedAddress": ["Brunsb\u00fctteler Damm 275", "13591 Berlin", "Deutschland"]}, "categories": [{"id": "5745c2e4498e11e7bccabdbd", "name": "Drugstore", "pluralName": "Drugstores", "shortName": "Drugstore", "icon": {"prefix": "https://ss3.4sqi.net/img/categories_v2/shops/pharmacy_", "suffix": ".png"}, "primary": true}], "photos": {"count": 0, "groups": []}}, "referralId": "e-0-4d90a2355091a1cdc765bf01-4"}, {"reasons": {"count": 0, "items": [{"summary": "This spot is popular", "type": "general", "reasonName": "globalInteractionReason"}]}, "venue": {"id": "50fbe976e4b0b707d6b74fcf", "name": "Pizzeria Staaken", "location": {"address": "Spandauer Str. 24", "lat": 52.53508796368009, "lng": 13.1503276582932, "labeledLatLngs": [{"label": "display", "lat": 52.53508796368009, "lng": 13.1503276582932}], "distance": 92, "postalCode": "13591", "cc": "DE", "city": "Berlin", "state": "Berlin", "country": "Deutschland", "formattedAddress": ["Spandauer Str. 24", "13591 Berlin", "Deutschland"]}, "categories": [{"id": "4bf58dd8d48988d110941735", "name": "Italian Restaurant", "pluralName": "Italian Restaurants", "shortName": "Italian", "icon": {"prefix": "https://ss3.4sqi.net/img/categories_v2/food/italian_", "suffix": ".png"}, "primary": true}], "photos": {"count": 0, "groups": []}}, "referralId": "e-0-50fbe976e4b0b707d6b74fcf-5"}, {"reasons": {"count": 0, "items": [{"summary": "This spot is popular", "type": "general", "reasonName": "globalInteractionReason"}]}, "venue": {"id": "4f6c76ade4b0f375f88cb8b8", "name": "REWE", "location": {"address": "Brunsb\u00fctteler Damm 274", "lat": 52.533251131936886, "lng": 13.155715973628048, "labeledLatLngs": [{"label": "display", "lat": 52.533251131936886, "lng": 13.155715973628048}], "distance": 510, "postalCode": "13591", "cc": "DE", "city": "Berlin", "state": "Berlin", "country": "Deutschland", "formattedAddress": ["Brunsb\u00fctteler Damm 274", "13591 Berlin", "Deutschland"]}, "categories": [{"id": "52f2ab2ebcbc57f1066b8b46", "name": "Supermarket", "pluralName": "Supermarkets", "shortName": "Supermarket", "icon": {"prefix": "https://ss3.4sqi.net/img/categories_v2/shops/food_grocery_", "suffix": ".png"}, "primary": true}], "photos": {"count": 0, "groups": []}, "venuePage": {"id": "565112439"}}, "referralId": "e-0-4f6c76ade4b0f375f88cb8b8-6"}, {"reasons": {"count": 0, "items": [{"summary": "This spot is popular", "type": "general", "reasonName": "globalInteractionReason"}]}, "venue": {"id": "4e76e2b2ae60c32851c2fb13", "name": "H Louise-Schroeder-Siedlung", "location": {"address": "Brunsb\u00fctteler Damm", "crossStreet": "Haberlandweg", "lat": 52.53285832033965, "lng": 13.15233207154023, "labeledLatLngs": [{"label": "display", "lat": 52.53285832033965, "lng": 13.15233207154023}], "distance": 370, "postalCode": "13591", "cc": "DE", "city": "Berlin", "state": "Berlin", "country": "Deutschland", "formattedAddress": ["Brunsb\u00fctteler Damm (Haberlandweg)", "13591 Berlin", "Deutschland"]}, "categories": [{"id": "52f2ab2ebcbc57f1066b8b4f", "name": "Bus Stop", "pluralName": "Bus Stops", "shortName": "Bus Stop", "icon": {"prefix": "https://ss3.4sqi.net/img/categories_v2/travel/busstation_", "suffix": ".png"}, "primary": true}], "photos": {"count": 0, "groups": []}}, "referralId": "e-0-4e76e2b2ae60c32851c2fb13-7"}, {"reasons": {"count": 0, "items": [{"summary": "This spot is popular", "type": "general", "reasonName": "globalInteractionReason"}]}, "venue": {"id": "4d96d5fb2bd6f04d7cb84050", "name": "Sportpark Staaken", "location": {"address": "Eichholzbahn 114", "lat": 52.53798286418667, "lng": 13.145396756204615, "labeledLatLngs": [{"label": "display", "lat": 52.53798286418667, "lng": 13.145396756204615}], "distance": 371, "postalCode": "13591", "cc": "DE", "city": "Berlin", "state": "Berlin", "country": "Deutschland", "formattedAddress": ["Eichholzbahn 114", "13591 Berlin", "Deutschland"]}, "categories": [{"id": "4cce455aebf7b749d5e191f5", "name": "Soccer Field", "pluralName": "Soccer Fields", "shortName": "Soccer Field", "icon": {"prefix": "https://ss3.4sqi.net/img/categories_v2/arts_entertainment/stadium_soccer_", "suffix": ".png"}, "primary": true}], "photos": {"count": 0, "groups": []}}, "referralId": "e-0-4d96d5fb2bd6f04d7cb84050-8"}, {"reasons": {"count": 0, "items": [{"summary": "This spot is popular", "type": "general", "reasonName": "globalInteractionReason"}]}, "venue": {"id": "4da343899aa4721ea23a201a", "name": "Grenz-Eck", "location": {"address": "Nennhauser Damm 41", "lat": 52.53361089882976, "lng": 13.142001193566383, "labeledLatLngs": [{"label": "display", "lat": 52.53361089882976, "lng": 13.142001193566383}], "distance": 539, "postalCode": "13591", "cc": "DE", "city": "Berlin", "state": "Berlin", "country": "Deutschland", "formattedAddress": ["Nennhauser Damm 41", "13591 Berlin", "Deutschland"]}, "categories": [{"id": "4bf58dd8d48988d109941735", "name": "Eastern European Restaurant", "pluralName": "Eastern European Restaurants", "shortName": "Eastern European", "icon": {"prefix": "https://ss3.4sqi.net/img/categories_v2/food/default_", "suffix": ".png"}, "primary": true}], "photos": {"count": 0, "groups": []}}, "referralId": "e-0-4da343899aa4721ea23a201a-9"}, {"reasons": {"count": 0, "items": [{"summary": "This spot is popular", "type": "general", "reasonName": "globalInteractionReason"}]}, "venue": {"id": "4c8e8de814fdb713cb7f32c4", "name": "Bahnhof Berlin-Staaken", "location": {"address": "Nennhauser Damm 1", "lat": 52.537646514719405, "lng": 13.142013523093759, "labeledLatLngs": [{"label": "display", "lat": 52.537646514719405, "lng": 13.142013523093759}], "distance": 540, "postalCode": "13591", "cc": "DE", "city": "Berlin", "state": "Berlin", "country": "Deutschland", "formattedAddress": ["Nennhauser Damm 1", "13591 Berlin", "Deutschland"]}, "categories": [{"id": "4bf58dd8d48988d129951735", "name": "Train Station", "pluralName": "Train Stations", "shortName": "Train Station", "icon": {"prefix": "https://ss3.4sqi.net/img/categories_v2/travel/trainstation_", "suffix": ".png"}, "primary": true}], "photos": {"count": 0, "groups": []}}, "referralId": "e-0-4c8e8de814fdb713cb7f32c4-10"}, {"reasons": {"count": 0, "items": [{"summary": "This spot is popular", "type": "general", "reasonName": "globalInteractionReason"}]}, "venue": {"id": "4f70a7e6e4b0541c6448c3d0", "name": "Sportshop Staaken", "location": {"address": "Brunsb\u00fctteler Damm 256, 13581 Berlin", "lat": 52.53283735154678, "lng": 13.156585919942042, "labeledLatLngs": [{"label": "display", "lat": 52.53283735154678, "lng": 13.156585919942042}], "distance": 584, "postalCode": "13581", "cc": "DE", "city": "Berlin", "state": "Berlin", "country": "Deutschland", "formattedAddress": ["Brunsb\u00fctteler Damm 256, 13581 Berlin", "13581 Berlin", "Deutschland"]}, "categories": [{"id": "4bf58dd8d48988d1f2941735", "name": "Sporting Goods Shop", "pluralName": "Sporting Goods Shops", "shortName": "Sporting Goods", "icon": {"prefix": "https://ss3.4sqi.net/img/categories_v2/shops/sports_outdoors_", "suffix": ".png"}, "primary": true}], "photos": {"count": 0, "groups": []}}, "referralId": "e-0-4f70a7e6e4b0541c6448c3d0-11"}, {"reasons": {"count": 0, "items": [{"summary": "This spot is popular", "type": "general", "reasonName": "globalInteractionReason"}]}, "venue": {"id": "4ef1e145be7be23b0dd82d5c", "name": "H Magistratsweg / Brunsb\u00fctteler Damm", "location": {"address": "Brunsb\u00fctteler Damm", "crossStreet": "Magistratsweg", "lat": 52.533019958768215, "lng": 13.15742720252127, "labeledLatLngs": [{"label": "display", "lat": 52.533019958768215, "lng": 13.15742720252127}], "distance": 623, "postalCode": "13591", "cc": "DE", "city": "Berlin", "state": "Berlin", "country": "Deutschland", "formattedAddress": ["Brunsb\u00fctteler Damm (Magistratsweg)", "13591 Berlin", "Deutschland"]}, "categories": [{"id": "52f2ab2ebcbc57f1066b8b4f", "name": "Bus Stop", "pluralName": "Bus Stops", "shortName": "Bus Stop", "icon": {"prefix": "https://ss3.4sqi.net/img/categories_v2/travel/busstation_", "suffix": ".png"}, "primary": true}], "photos": {"count": 0, "groups": []}}, "referralId": "e-0-4ef1e145be7be23b0dd82d5c-12"}, {"reasons": {"count": 0, "items": [{"summary": "This spot is popular", "type": "general", "reasonName": "globalInteractionReason"}]}, "venue": {"id": "5b97bde9d41bb7002c810af2", "name": "Bahnhof Heideberg - Modelleisenbahn Ankauf Verkauf Modellspielzeug", "location": {"address": "Am Heideberg 10", "lat": 52.5411838, "lng": 13.1474803, "labeledLatLngs": [{"label": "display", "lat": 52.5411838, "lng": 13.1474803}], "distance": 631, "postalCode": "13591", "cc": "DE", "city": "Berlin", "state": "Berlin", "country": "Deutschland", "formattedAddress": ["Am Heideberg 10", "13591 Berlin", "Deutschland"]}, "categories": [{"id": "4bf58dd8d48988d1f3941735", "name": "Toy / Game Store", "pluralName": "Toy / Game Stores", "shortName": "Toys & Games", "icon": {"prefix": "https://ss3.4sqi.net/img/categories_v2/shops/toys_", "suffix": ".png"}, "primary": true}], "photos": {"count": 0, "groups": []}, "venuePage": {"id": "510393801"}}, "referralId": "e-0-5b97bde9d41bb7002c810af2-13"}, {"reasons": {"count": 0, "items": [{"summary": "This spot is popular", "type": "general", "reasonName": "globalInteractionReason"}]}, "venue": {"id": "50bc3041e4b07fbe8ea37979", "name": "H Finkenkruger Weg", "location": {"address": "Torweg", "crossStreet": "Finkenkruger Weg", "lat": 52.53971226294077, "lng": 13.142751736818013, "labeledLatLngs": [{"label": "display", "lat": 52.53971226294077, "lng": 13.142751736818013}], "distance": 634, "postalCode": "13591", "cc": "DE", "city": "Berlin", "state": "Berlin", "country": "Deutschland", "formattedAddress": ["Torweg (Finkenkruger Weg)", "13591 Berlin", "Deutschland"]}, "categories": [{"id": "52f2ab2ebcbc57f1066b8b4f", "name": "Bus Stop", "pluralName": "Bus Stops", "shortName": "Bus Stop", "icon": {"prefix": "https://ss3.4sqi.net/img/categories_v2/travel/busstation_", "suffix": ".png"}, "primary": true}], "photos": {"count": 0, "groups": []}}, "referralId": "e-0-50bc3041e4b07fbe8ea37979-14"}, {"reasons": {"count": 0, "items": [{"summary": "This spot is popular", "type": "general", "reasonName": "globalInteractionReason"}]}, "venue": {"id": "4f103bd0e4b01eefecd0f167", "name": "Berliner Sparkasse", "location": {"address": "Brunsb\u00fctteler Damm 261-263", "lat": 52.53277410869985, "lng": 13.157799299653645, "labeledLatLngs": [{"label": "display", "lat": 52.53277410869985, "lng": 13.157799299653645}], "distance": 658, "postalCode": "13591", "cc": "DE", "city": "Berlin", "state": "Berlin", "country": "Deutschland", "formattedAddress": ["Brunsb\u00fctteler Damm 261-263", "13591 Berlin", "Deutschland"]}, "categories": [{"id": "4bf58dd8d48988d10a951735", "name": "Bank", "pluralName": "Banks", "shortName": "Bank", "icon": {"prefix": "https://ss3.4sqi.net/img/categories_v2/shops/financial_", "suffix": ".png"}, "primary": true}], "photos": {"count": 0, "groups": []}}, "referralId": "e-0-4f103bd0e4b01eefecd0f167-15"}, {"reasons": {"count": 0, "items": [{"summary": "This spot is popular", "type": "general", "reasonName": "globalInteractionReason"}]}, "venue": {"id": "55f19b1a498e3d681421276c", "name": "Victoria Waxing", "location": {"address": "Finkenkruger Weg 33A", "lat": 52.54131, "lng": 13.14271, "labeledLatLngs": [{"label": "display", "lat": 52.54131, "lng": 13.14271}], "distance": 773, "postalCode": "13591", "cc": "DE", "city": "Berlin", "state": "Berlin", "country": "Deutschland", "formattedAddress": ["Finkenkruger Weg 33A", "13591 Berlin", "Deutschland"]}, "categories": [{"id": "4bf58dd8d48988d10c951735", "name": "Cosmetics Shop", "pluralName": "Cosmetics Shops", "shortName": "Cosmetics", "icon": {"prefix": "https://ss3.4sqi.net/img/categories_v2/shops/beauty_cosmetic_", "suffix": ".png"}, "primary": true}], "photos": {"count": 0, "groups": []}, "venuePage": {"id": "141515008"}}, "referralId": "e-0-55f19b1a498e3d681421276c-16"}, {"reasons": {"count": 0, "items": [{"summary": "This spot is popular", "type": "general", "reasonName": "globalInteractionReason"}]}, "venue": {"id": "501d2b67e4b04e60b86e9ec8", "name": "H Harburger Weg", "location": {"address": "Brunsb\u00fctteler Damm", "crossStreet": "Harburger Weg", "lat": 52.53329181675357, "lng": 13.163108596040539, "labeledLatLngs": [{"label": "display", "lat": 52.53329181675357, "lng": 13.163108596040539}], "distance": 972, "postalCode": "13581", "cc": "DE", "city": "Berlin", "state": "Berlin", "country": "Deutschland", "formattedAddress": ["Brunsb\u00fctteler Damm (Harburger Weg)", "13581 Berlin", "Deutschland"]}, "categories": [{"id": "52f2ab2ebcbc57f1066b8b4f", "name": "Bus Stop", "pluralName": "Bus Stops", "shortName": "Bus Stop", "icon": {"prefix": "https://ss3.4sqi.net/img/categories_v2/travel/busstation_", "suffix": ".png"}, "primary": true}], "photos": {"count": 0, "groups": []}}, "referralId": "e-0-501d2b67e4b04e60b86e9ec8-17"}]