[{"reasons": {"count": 0, "items": [{"summary": "This spot is popular", "type": "general", "reasonName": "globalInteractionReason"}]}, "venue": {"id": "4bcd798fcc8cd13a6e97c2cf", "name": "Volkspark Humboldthain", "location": {"address": "Brunnenstr.", "crossStreet": "Gustav-Meyer-Allee", "lat": 52.54551275991975, "lng": 13.385403156280518, "labeledLatLngs": [{"label": "display", "lat": 52.54551275991975, "lng": 13.385403156280518}], "distance": 336, "postalCode": "13357", "cc": "DE", "city": "Berlin", "state": "Berlin", "country": "Deutschland", "formattedAddress": ["Brunnenstr. (Gustav-Meyer-Allee)", "13357 Berlin", "Deutschland"]}, "categories": [{"id": "4bf58dd8d48988d163941735", "name": "Park", "pluralName": "Parks", "shortName": "Park", "icon": {"prefix": "https://ss3.4sqi.net/img/categories_v2/parks_outdoors/park_", "suffix": ".png"}, "primary": true}], "photos": {"count": 0, "groups": []}}, "referralId": "e-0-4bcd798fcc8cd13a6e97c2cf-0"}, {"reasons": {"count": 0, "items": [{"summary": "This spot is popular", "type": "general", "reasonName": "globalInteractionReason"}]}, "venue": {"id": "515c4010fe701fcb8267a454", "name": "uberall HQ", "location": {"address": "Hussitenstr. 32-33", "lat": 52.5419157, "lng": 13.3831489, "labeledLatLngs": [{"label": "display", "lat": 52.5419157, "lng": 13.3831489}], "distance": 110, "postalCode": "13355", "cc": "DE", "city": "Berlin", "state": "Berlin", "country": "Deutschland", "formattedAddress": ["Hussitenstr. 32-33", "13355 Berlin", "Deutschland"]}, "categories": [{"id": "52f2ab2ebcbc57f1066b8b36", "name": "IT Services", "pluralName": "IT Services", "shortName": "IT Services", "icon": {"prefix": "https://ss3.4sqi.net/img/categories_v2/shops/technology_", "suffix": ".png"}, "primary": true}], "photos": {"count": 0, "groups": []}, "venuePage": {"id": "52388530"}}, "referralId": "e-0-515c4010fe701fcb8267a454-1"}, {"reasons": {"count": 0, "items": [{"summary": "This spot is popular", "type": "general", "reasonName": "globalInteractionReason"}]}, "venue": {"id": "5bcab6790d8a0f002cc73f62", "name": "Sotto", "location": {"address": "Neue Hochstr. 25", "lat": 52.54283109279643, "lng": 13.376388251781464, "labeledLatLngs": [{"label": "display", "lat": 52.54283109279643, "lng": 13.376388251781464}], "distance": 440, "postalCode": "13347", "cc": "DE", "city": "Berlin", "state": "Berlin", "country": "Deutschland", "formattedAddress": ["Neue Hochstr. 25", "13347 Berlin", "Deutschland"]}, "categories": [{"id": "4bf58dd8d48988d1ca941735", "name": "Pizza Place", "pluralName": "Pizza Places", "shortName": "Pizza", "icon": {"prefix": "https://ss3.4sqi.net/img/categories_v2/food/pizza_", "suffix": ".png"}, "primary": true}], "photos": {"count": 0, "groups": []}}, "referralId": "e-0-5bcab6790d8a0f002cc73f62-2"}, {"reasons": {"count": 0, "items": [{"summary": "This spot is popular", "type": "general", "reasonName": "globalInteractionReason"}]}, "venue": {"id": "566bddcd498eba8f2f2f551c", "name": "Flying Roasters", "location": {"address": "Hochstr. 34", "lat": 52.5438163472016, "lng": 13.377061486244202, "labeledLatLngs": [{"label": "display", "lat": 52.5438163472016, "lng": 13.377061486244202}], "distance": 407, "postalCode": "13357", "cc": "DE", "city": "Berlin", "state": "Berlin", "country": "Deutschland", "formattedAddress": ["Hochstr. 34", "13357 Berlin", "Deutschland"]}, "categories": [{"id": "4bf58dd8d48988d1e0931735", "name": "Coffee Shop", "pluralName": "Coffee Shops", "shortName": "Coffee Shop", "icon": {"prefix": "https://ss3.4sqi.net/img/categories_v2/food/coffeeshop_", "suffix": ".png"}, "primary": true}], "photos": {"count": 0, "groups": []}}, "referralId": "e-0-566bddcd498eba8f2f2f551c-3"}, {"reasons": {"count": 0, "items": [{"summary": "This spot is popular", "type": "general", "reasonName": "globalInteractionReason"}]}, "venue": {"id": "4b052930f964a520485722e3", "name": "Flakturm Humboldthain", "location": {"address": "Hochstr.", "crossStreet": "im Volkspark Humboldthain", "lat": 52.54728735823434, "lng": 13.384412478550338, "labeledLatLngs": [{"label": "display", "lat": 52.54728735823434, "lng": 13.384412478550338}], "distance": 499, "postalCode": "13357", "cc": "DE", "city": "Berlin", "state": "Berlin", "country": "Deutschland", "formattedAddress": ["Hochstr. (im Volkspark Humboldthain)", "13357 Berlin", "Deutschland"]}, "categories": [{"id": "4deefb944765f83613cdba6e", "name": "Historic Site", "pluralName": "Historic Sites", "shortName": "Historic Site", "icon": {"prefix": "https://ss3.4sqi.net/img/categories_v2/arts_entertainment/historicsite_", "suffix": ".png"}, "primary": true}], "photos": {"count": 0, "groups": []}}, "referralId": "e-0-4b052930f964a520485722e3-4"}, {"reasons": {"count": 0, "items": [{"summary": "This spot is popular", "type": "general", "reasonName": "globalInteractionReason"}]}, "venue": {"id": "4d989b3fc19fb60c1d00b265", "name": "Rosengarten", "location": {"address": "Brunnenstr.", "lat": 52.547565015384365, "lng": 13.38720702048652, "labeledLatLngs": [{"label": "display", "lat": 52.547565015384365, "lng": 13.38720702048652}], "distance": 595, "postalCode": "13357", "cc": "DE", "city": "Berlin", "state": "Berlin", "country": "Deutschland", "formattedAddress": ["Brunnenstr.", "13357 Berlin", "Deutschland"]}, "categories": [{"id": "4bf58dd8d48988d15a941735", "name": "Garden", "pluralName": "Gardens", "shortName": "Garden", "icon": {"prefix": "https://ss3.4sqi.net/img/categories_v2/parks_outdoors/garden_", "suffix": ".png"}, "primary": true}], "photos": {"count": 0, "groups": []}}, "referralId": "e-0-4d989b3fc19fb60c1d00b265-5"}, {"reasons": {"count": 0, "items": [{"summary": "This spot is popular", "type": "general", "reasonName": "globalInteractionReason"}]}, "venue": {"id": "5692e518498eaf25cd440eef", "name": "Kleine Bar", "location": {"address": "Hochstr. 44", "lat": 52.54340613674283, "lng": 13.377689485845886, "labeledLatLngs": [{"label": "display", "lat": 52.54340613674283, "lng": 13.377689485845886}], "distance": 356, "postalCode": "13357", "cc": "DE", "city": "Berlin", "state": "Berlin", "country": "Deutschland", "formattedAddress": ["Hochstr. 44", "13357 Berlin", "Deutschland"]}, "categories": [{"id": "4bf58dd8d48988d116941735", "name": "Bar", "pluralName": "Bars", "shortName": "Bar", "icon": {"prefix": "https://ss3.4sqi.net/img/categories_v2/nightlife/pub_", "suffix": ".png"}, "primary": true}], "photos": {"count": 0, "groups": []}}, "referralId": "e-0-5692e518498eaf25cd440eef-6"}, {"reasons": {"count": 0, "items": [{"summary": "This spot is popular", "type": "general", "reasonName": "globalInteractionReason"}]}, "venue": {"id": "4b39de5bf964a520585f25e3", "name": "Berliner Unterwelten e.V.", "location": {"address": "Brunnenstr. 105", "lat": 52.54774454143173, "lng": 13.388863673656248, "labeledLatLngs": [{"label": "display", "lat": 52.54774454143173, "lng": 13.388863673656248}], "distance": 674, "postalCode": "13355", "cc": "DE", "city": "Berlin", "state": "Berlin", "country": "Deutschland", "formattedAddress": ["Brunnenstr. 105", "13355 Berlin", "Deutschland"]}, "categories": [{"id": "4bf58dd8d48988d190941735", "name": "History Museum", "pluralName": "History Museums", "shortName": "History Museum", "icon": {"prefix": "https://ss3.4sqi.net/img/categories_v2/arts_entertainment/museum_history_", "suffix": ".png"}, "primary": true}], "photos": {"count": 0, "groups": []}}, "referralId": "e-0-4b39de5bf964a520585f25e3-7"}, {"reasons": {"count": 0, "items": [{"summary": "This spot is popular", "type": "general", "reasonName": "globalInteractionReason"}]}, "venue": {"id": "4c82abe4d34ca143d5962e80", "name": "Tangoloft", "location": {"address": "Gerichtstr. 23", "crossStreet": "3. HH, 2. Aufgang", "lat": 52.54501586792985, "lng": 13.373401615394357, "labeledLatLngs": [{"label": "display", "lat": 52.54501586792985, "lng": 13.373401615394357}], "distance": 684, "postalCode": "13347", "cc": "DE", "city": "Berlin", "state": "Berlin", "country": "Deutschland", "formattedAddress": ["Gerichtstr. 23 (3. HH, 2. Aufgang)", "13347 Berlin", "Deutschland"]}, "categories": [{"id": "4bf58dd8d48988d134941735", "name": "Dance Studio", "pluralName": "Dance Studios", "shortName": "Dance Studio", "icon": {"prefix": "https://ss3.4sqi.net/img/categories_v2/arts_entertainment/performingarts_dancestudio_", "suffix": ".png"}, "primary": true}], "photos": {"count": 0, "groups": []}}, "referralId": "e-0-4c82abe4d34ca143d5962e80-8"}, {"reasons": {"count": 0, "items": [{"summary": "This spot is popular", "type": "general", "reasonName": "globalInteractionReason"}]}, "venue": {"id": "4d12564512916dcb392cd58a", "name": "CrossFit Werk", "location": {"address": "Gerichtstr. 23 (Hinterhof, Aufgang 2)", "crossStreet": "Between Pankstr. and Kolberger Str.", "lat": 52.545036005284985, "lng": 13.37352038725445, "labeledLatLngs": [{"label": "display", "lat": 52.545036005284985, "lng": 13.37352038725445}], "distance": 677, "postalCode": "13347", "cc": "DE", "city": "Berlin", "state": "Berlin", "country": "Deutschland", "formattedAddress": ["Gerichtstr. 23 (Hinterhof, Aufgang 2) (Between Pankstr. and Kolberger Str.)", "13347 Berlin", "Deutschland"]}, "categories": [{"id": "4bf58dd8d48988d175941735", "name": "Gym / Fitness Center", "pluralName": "Gyms or Fitness Centers", "shortName": "Gym / Fitness", "icon": {"prefix": "https://ss3.4sqi.net/img/categories_v2/building/gym_", "suffix": ".png"}, "primary": true}], "photos": {"count": 0, "groups": []}, "venuePage": {"id": "37542301"}}, "referralId": "e-0-4d12564512916dcb392cd58a-9"}, {"reasons": {"count": 0, "items": [{"summary": "This spot is popular", "type": "general", "reasonName": "globalInteractionReason"}]}, "venue": {"id": "4aec60e0f964a5207ec621e3", "name": "Magic Mountain Kletterhalle", "location": {"address": "B\u00f6ttgerstr. 20", "lat": 52.548612552868214, "lng": 13.381901681283116, "labeledLatLngs": [{"label": "display", "lat": 52.548612552868214, "lng": 13.381901681283116}], "distance": 639, "postalCode": "13357", "cc": "DE", "city": "Berlin", "state": "Berlin", "country": "Deutschland", "formattedAddress": ["B\u00f6ttgerstr. 20", "13357 Berlin", "Deutschland"]}, "categories": [{"id": "503289d391d4c4b30a586d6a", "name": "Climbing Gym", "pluralName": "Climbing Gyms", "shortName": "Climbing Gym", "icon": {"prefix": "https://ss3.4sqi.net/img/categories_v2/building/gym_", "suffix": ".png"}, "primary": true}], "photos": {"count": 0, "groups": []}}, "referralId": "e-0-4aec60e0f964a5207ec621e3-10"}, {"reasons": {"count": 0, "items": [{"summary": "This spot is popular", "type": "general", "reasonName": "globalInteractionReason"}]}, "venue": {"id": "4d83caadf1e56ea867f3678a", "name": "Panke", "location": {"address": "Gerichtstr. 23", "lat": 52.544996759966104, "lng": 13.373890999263054, "labeledLatLngs": [{"label": "display", "lat": 52.544996759966104, "lng": 13.373890999263054}], "distance": 652, "postalCode": "13347", "cc": "DE", "city": "Berlin", "state": "Berlin", "country": "Deutschland", "formattedAddress": ["Gerichtstr. 23", "13347 Berlin", "Deutschland"]}, "categories": [{"id": "4bf58dd8d48988d1f2931735", "name": "Performing Arts Venue", "pluralName": "Performing Arts Venues", "shortName": "Performing Arts", "icon": {"prefix": "https://ss3.4sqi.net/img/categories_v2/arts_entertainment/performingarts_", "suffix": ".png"}, "primary": true}], "photos": {"count": 0, "groups": []}}, "referralId": "e-0-4d83caadf1e56ea867f3678a-11"}, {"reasons": {"count": 0, "items": [{"summary": "This spot is popular", "type": "general", "reasonName": "globalInteractionReason"}]}, "venue": {"id": "4de0c505fa76425c54210061", "name": "Berliner Unterwelten Tour 1", "location": {"address": "Brunnenstr. 105", "lat": 52.54765723765202, "lng": 13.388872930560026, "labeledLatLngs": [{"label": "display", "lat": 52.54765723765202, "lng": 13.388872930560026}], "distance": 666, "postalCode": "13355", "cc": "DE", "city": "Berlin", "state": "Berlin", "country": "Deutschland", "formattedAddress": ["Brunnenstr. 105", "13355 Berlin", "Deutschland"]}, "categories": [{"id": "4bf58dd8d48988d159941735", "name": "Trail", "pluralName": "Trails", "shortName": "Trail", "icon": {"prefix": "https://ss3.4sqi.net/img/categories_v2/parks_outdoors/hikingtrail_", "suffix": ".png"}, "primary": true}], "photos": {"count": 0, "groups": []}}, "referralId": "e-0-4de0c505fa76425c54210061-12"}, {"reasons": {"count": 0, "items": [{"summary": "This spot is popular", "type": "general", "reasonName": "globalInteractionReason"}]}, "venue": {"id": "4c595b042fa89c7474a11323", "name": "Freysinn", "location": {"address": "Jasmunder Str. 5", "crossStreet": "Usedomer Str.", "lat": 52.53958224408168, "lng": 13.388077852841825, "labeledLatLngs": [{"label": "display", "lat": 52.53958224408168, "lng": 13.388077852841825}], "distance": 509, "postalCode": "13335", "cc": "DE", "city": "Berlin", "state": "Berlin", "country": "Deutschland", "formattedAddress": ["Jasmunder Str. 5 (Usedomer Str.)", "13335 Berlin", "Deutschland"]}, "categories": [{"id": "4bf58dd8d48988d16d941735", "name": "Caf\u00e9", "pluralName": "Caf\u00e9s", "shortName": "Caf\u00e9", "icon": {"prefix": "https://ss3.4sqi.net/img/categories_v2/food/cafe_", "suffix": ".png"}, "primary": true}], "photos": {"count": 0, "groups": []}}, "referralId": "e-0-4c595b042fa89c7474a11323-13"}, {"reasons": {"count": 0, "items": [{"summary": "This spot is popular", "type": "general", "reasonName": "globalInteractionReason"}]}, "venue": {"id": "5b7992417564f7002cbccb28", "name": "Hirsch & Hase", "location": {"address": "Brunnenstra\u00dfe 73", "lat": 52.541924, "lng": 13.393521, "labeledLatLngs": [{"label": "display", "lat": 52.541924, "lng": 13.393521}], "distance": 727, "postalCode": "13355", "cc": "DE", "city": "Wedding", "state": "Berlin", "country": "Deutschland", "formattedAddress": ["Brunnenstra\u00dfe 73", "13355 Wedding", "Deutschland"]}, "categories": [{"id": "4bf58dd8d48988d155941735", "name": "Gastropub", "pluralName": "Gastropubs", "shortName": "Gastropub", "icon": {"prefix": "https://ss3.4sqi.net/img/categories_v2/food/gastropub_", "suffix": ".png"}, "primary": true}], "photos": {"count": 0, "groups": []}}, "referralId": "e-0-5b7992417564f7002cbccb28-14"}, {"reasons": {"count": 0, "items": [{"summary": "This spot is popular", "type": "general", "reasonName": "globalInteractionReason"}]}, "venue": {"id": "5aa1a45b72475052b099e7b1", "name": "MOXY Berlin Humboldthain Park", "location": {"address": "Hochstr. 2", "lat": 52.549568249587495, "lng": 13.384071431974007, "labeledLatLngs": [{"label": "display", "lat": 52.549568249587495, "lng": 13.384071431974007}], "distance": 746, "postalCode": "13357", "cc": "DE", "city": "Berlin", "state": "Berlin", "country": "Deutschland", "formattedAddress": ["Hochstr. 2", "13357 Berlin", "Deutschland"]}, "categories": [{"id": "4bf58dd8d48988d1fa931735", "name": "Hotel", "pluralName": "Hotels", "shortName": "Hotel", "icon": {"prefix": "https://ss3.4sqi.net/img/categories_v2/travel/hotel_", "suffix": ".png"}, "primary": true}], "photos": {"count": 0, "groups": []}}, "referralId": "e-0-5aa1a45b72475052b099e7b1-15"}, {"reasons": {"count": 0, "items": [{"summary": "This spot is popular", "type": "general", "reasonName": "globalInteractionReason"}]}, "venue": {"id": "520d338111d2ff90eeae9b0c", "name": "Art Loft Berlin", "location": {"lat": 52.545185423229455, "lng": 13.373583119775143, "labeledLatLngs": [{"label": "display", "lat": 52.545185423229455, "lng": 13.373583119775143}], "distance": 679, "cc": "DE", "city": "Berlin", "state": "Berlin", "country": "Deutschland", "formattedAddress": ["Berlin", "Deutschland"]}, "categories": [{"id": "4bf58dd8d48988d1e2931735", "name": "Art Gallery", "pluralName": "Art Galleries", "shortName": "Art Gallery", "icon": {"prefix": "https://ss3.4sqi.net/img/categories_v2/arts_entertainment/artgallery_", "suffix": ".png"}, "primary": true}], "photos": {"count": 0, "groups": []}}, "referralId": "e-0-520d338111d2ff90eeae9b0c-16"}, {"reasons": {"count": 0, "items": [{"summary": "This spot is popular", "type": "general", "reasonName": "globalInteractionReason"}]}, "venue": {"id": "583877bac0df76608666cd6d", "name": "John Reed Fitness", "location": {"address": "Brunnenstra\u00dfe 105", "lat": 52.5480237, "lng": 13.3896053, "labeledLatLngs": [{"label": "display", "lat": 52.5480237, "lng": 13.3896053}], "distance": 729, "postalCode": "13355", "cc": "DE", "city": "Berlin", "state": "Berlin", "country": "Deutschland", "formattedAddress": ["Brunnenstra\u00dfe 105", "13355 Berlin", "Deutschland"]}, "categories": [{"id": "4bf58dd8d48988d175941735", "name": "Gym / Fitness Center", "pluralName": "Gyms or Fitness Centers", "shortName": "Gym / Fitness", "icon": {"prefix": "https://ss3.4sqi.net/img/categories_v2/building/gym_", "suffix": ".png"}, "primary": true}], "photos": {"count": 0, "groups": []}}, "referralId": "e-0-583877bac0df76608666cd6d-17"}, {"reasons": {"count": 0, "items": [{"summary": "This spot is popular", "type": "general", "reasonName": "globalInteractionReason"}]}, "venue": {"id": "4b6dcb34f964a52076902ce3", "name": "Curry Baude", "location": {"address": "Badstr. 1", "crossStreet": "Behmstr.", "lat": 52.54942017309213, "lng": 13.386998598840623, "labeledLatLngs": [{"label": "display", "lat": 52.54942017309213, "lng": 13.386998598840623}], "distance": 777, "postalCode": "13357", "cc": "DE", "city": "Berlin", "state": "Berlin", "country": "Deutschland", "formattedAddress": ["Badstr. 1 (Behmstr.)", "13357 Berlin", "Deutschland"]}, "categories": [{"id": "56aa371ce4b08b9a8d57358b", "name": "Currywurst Joint", "pluralName": "Currywurst Joints", "shortName": "Currywurst", "icon": {"prefix": "https://ss3.4sqi.net/img/categories_v2/food/bbqalt_", "suffix": ".png"}, "primary": true}], "photos": {"count": 0, "groups": []}}, "referralId": "e-0-4b6dcb34f964a52076902ce3-18"}, {"reasons": {"count": 0, "items": [{"summary": "This spot is popular", "type": "general", "reasonName": "globalInteractionReason"}]}, "venue": {"id": "51841bd5e4b063a5e4f9e27a", "name": "Humboldthain Club", "location": {"address": "Hochstr. 46", "lat": 52.54430298987952, "lng": 13.378567947131744, "labeledLatLngs": [{"label": "display", "lat": 52.54430298987952, "lng": 13.378567947131744}], "distance": 331, "postalCode": "13357", "cc": "DE", "city": "Berlin", "state": "Berlin", "country": "Deutschland", "formattedAddress": ["Hochstr. 46", "13357 Berlin", "Deutschland"]}, "categories": [{"id": "4bf58dd8d48988d11f941735", "name": "Nightclub", "pluralName": "Nightclubs", "shortName": "Nightclub", "icon": {"prefix": "https://ss3.4sqi.net/img/categories_v2/nightlife/nightclub_", "suffix": ".png"}, "primary": true}], "photos": {"count": 0, "groups": []}}, "referralId": "e-0-51841bd5e4b063a5e4f9e27a-19"}, {"reasons": {"count": 0, "items": [{"summary": "This spot is popular", "type": "general", "reasonName": "globalInteractionReason"}]}, "venue": {"id": "5a2ff88f9e0d540b973be09b", "name": "REWE Center", "location": {"address": "Badstr. 4", "lat": 52.54975087, "lng": 13.38744469, "labeledLatLngs": [{"label": "display", "lat": 52.54975087, "lng": 13.38744469}], "distance": 822, "postalCode": "13357", "cc": "DE", "neighborhood": "Gesundbrunnen", "city": "Berlin", "state": "Berlin", "country": "Deutschland", "formattedAddress": ["Badstr. 4", "13357 Berlin", "Deutschland"]}, "categories": [{"id": "52f2ab2ebcbc57f1066b8b46", "name": "Supermarket", "pluralName": "Supermarkets", "shortName": "Supermarket", "icon": {"prefix": "https://ss3.4sqi.net/img/categories_v2/shops/food_grocery_", "suffix": ".png"}, "primary": true}], "photos": {"count": 0, "groups": []}, "venuePage": {"id": "558605352"}}, "referralId": "e-0-5a2ff88f9e0d540b973be09b-20"}, {"reasons": {"count": 0, "items": [{"summary": "This spot is popular", "type": "general", "reasonName": "globalInteractionReason"}]}, "venue": {"id": "5234e93c11d211f57d29f39c", "name": "Anita Berber", "location": {"address": "Gerichtsstr. 23", "crossStreet": "3. Hof, Aufgang 2B", "lat": 52.54522389031273, "lng": 13.373513445892334, "labeledLatLngs": [{"label": "display", "lat": 52.54522389031273, "lng": 13.373513445892334}], "distance": 685, "postalCode": "13347", "cc": "DE", "city": "Berlin", "state": "Berlin", "country": "Deutschland", "formattedAddress": ["Gerichtsstr. 23 (3. Hof, Aufgang 2B)", "13347 Berlin", "Deutschland"]}, "categories": [{"id": "4bf58dd8d48988d11f941735", "name": "Nightclub", "pluralName": "Nightclubs", "shortName": "Nightclub", "icon": {"prefix": "https://ss3.4sqi.net/img/categories_v2/nightlife/nightclub_", "suffix": ".png"}, "primary": true}], "photos": {"count": 0, "groups": []}}, "referralId": "e-0-5234e93c11d211f57d29f39c-21"}, {"reasons": {"count": 0, "items": [{"summary": "This spot is popular", "type": "general", "reasonName": "globalInteractionReason"}]}, "venue": {"id": "4b8d0776f964a520f1e432e3", "name": "La Femme", "location": {"address": "Badstr. 67", "crossStreet": "Hochstr.", "lat": 52.5501068352242, "lng": 13.385303814583947, "labeledLatLngs": [{"label": "display", "lat": 52.5501068352242, "lng": 13.385303814583947}], "distance": 818, "postalCode": "13357", "cc": "DE", "city": "Berlin", "state": "Berlin", "country": "Deutschland", "formattedAddress": ["Badstr. 67 (Hochstr.)", "13357 Berlin", "Deutschland"]}, "categories": [{"id": "4bf58dd8d48988d143941735", "name": "Breakfast Spot", "pluralName": "Breakfast Spots", "shortName": "Breakfast", "icon": {"prefix": "https://ss3.4sqi.net/img/categories_v2/food/breakfast_", "suffix": ".png"}, "primary": true}], "photos": {"count": 0, "groups": []}}, "referralId": "e-0-4b8d0776f964a520f1e432e3-22"}, {"reasons": {"count": 0, "items": [{"summary": "This spot is popular", "type": "general", "reasonName": "globalInteractionReason"}]}, "venue": {"id": "53245d85498ebfbd8bccba47", "name": "Dokumentationszentrum | Documentation Center (Dokumentationszentrum)", "location": {"address": "Bernauer Str. 111", "crossStreet": "Ackerstr.", "lat": 52.53538550851109, "lng": 13.389667868614197, "labeledLatLngs": [{"label": "display", "lat": 52.53538550851109, "lng": 13.389667868614197}], "distance": 954, "postalCode": "13355", "cc": "DE", "city": "Berlin", "state": "Berlin", "country": "Deutschland", "formattedAddress": ["Bernauer Str. 111 (Ackerstr.)", "13355 Berlin", "Deutschland"]}, "categories": [{"id": "4bf58dd8d48988d190941735", "name": "History Museum", "pluralName": "History Museums", "shortName": "History Museum", "icon": {"prefix": "https://ss3.4sqi.net/img/categories_v2/arts_entertainment/museum_history_", "suffix": ".png"}, "primary": true}], "photos": {"count": 0, "groups": []}}, "referralId": "e-0-53245d85498ebfbd8bccba47-23"}, {"reasons": {"count": 0, "items": [{"summary": "This spot is popular", "type": "general", "reasonName": "globalInteractionReason"}]}, "venue": {"id": "56a241af498e33710e3deb4d", "name": "Caf\u00e9 Schrittfahren", "location": {"address": "Chausseestr. 49", "lat": 52.535094148926184, "lng": 13.377506694767185, "labeledLatLngs": [{"label": "display", "lat": 52.535094148926184, "lng": 13.377506694767185}], "distance": 942, "postalCode": "10115", "cc": "DE", "city": "Berlin", "state": "Berlin", "country": "Deutschland", "formattedAddress": ["Chausseestr. 49", "10115 Berlin", "Deutschland"]}, "categories": [{"id": "4bf58dd8d48988d16d941735", "name": "Caf\u00e9", "pluralName": "Caf\u00e9s", "shortName": "Caf\u00e9", "icon": {"prefix": "https://ss3.4sqi.net/img/categories_v2/food/cafe_", "suffix": ".png"}, "primary": true}], "photos": {"count": 0, "groups": []}}, "referralId": "e-0-56a241af498e33710e3deb4d-24"}, {"reasons": {"count": 0, "items": [{"summary": "This spot is popular", "type": "general", "reasonName": "globalInteractionReason"}]}, "venue": {"id": "51e84d3f498e3ae2ffb57f0f", "name": "The Forsberg", "location": {"address": "Gerichtstr. 26", "lat": 52.54439048015399, "lng": 13.371590451996166, "labeledLatLngs": [{"label": "display", "lat": 52.54439048015399, "lng": 13.371590451996166}], "distance": 782, "postalCode": "13347", "cc": "DE", "city": "Berlin", "state": "Berlin", "country": "Deutschland", "formattedAddress": ["Gerichtstr. 26", "13347 Berlin", "Deutschland"]}, "categories": [{"id": "4bf58dd8d48988d116941735", "name": "Bar", "pluralName": "Bars", "shortName": "Bar", "icon": {"prefix": "https://ss3.4sqi.net/img/categories_v2/nightlife/pub_", "suffix": ".png"}, "primary": true}], "photos": {"count": 0, "groups": []}}, "referralId": "e-0-51e84d3f498e3ae2ffb57f0f-25"}, {"reasons": {"count": 0, "items": [{"summary": "This spot is popular", "type": "general", "reasonName": "globalInteractionReason"}]}, "venue": {"id": "4c797bbb93ef236a46c9af0f", "name": "Gerichtsh\u00f6fe", "location": {"address": "Gerichtsstr. 12-13", "lat": 52.544102866836624, "lng": 13.372661088156958, "labeledLatLngs": [{"label": "display", "lat": 52.544102866836624, "lng": 13.372661088156958}], "distance": 705, "postalCode": "13347", "cc": "DE", "city": "Berlin", "state": "Berlin", "country": "Deutschland", "formattedAddress": ["Gerichtsstr. 12-13", "13347 Berlin", "Deutschland"]}, "categories": [{"id": "4bf58dd8d48988d1e2931735", "name": "Art Gallery", "pluralName": "Art Galleries", "shortName": "Art Gallery", "icon": {"prefix": "https://ss3.4sqi.net/img/categories_v2/arts_entertainment/artgallery_", "suffix": ".png"}, "primary": true}], "photos": {"count": 0, "groups": []}}, "referralId": "e-0-4c797bbb93ef236a46c9af0f-26"}, {"reasons": {"count": 0, "items": [{"summary": "This spot is popular", "type": "general", "reasonName": "globalInteractionReason"}]}, "venue": {"id": "514e02b7e4b0c56a35535ff0", "name": "Il Milanese del Tacco", "location": {"address": "Stettiner Str. 63", "lat": 52.5517715972638, "lng": 13.3841072406509, "labeledLatLngs": [{"label": "display", "lat": 52.5517715972638, "lng": 13.3841072406509}], "distance": 991, "postalCode": "13357", "cc": "DE", "city": "Berlin", "state": "Berlin", "country": "Deutschland", "formattedAddress": ["Stettiner Str. 63", "13357 Berlin", "Deutschland"]}, "categories": [{"id": "4bf58dd8d48988d1f5941735", "name": "Gourmet Shop", "pluralName": "Gourmet Shops", "shortName": "Gourmet", "icon": {"prefix": "https://ss3.4sqi.net/img/categories_v2/shops/food_gourmet_", "suffix": ".png"}, "primary": true}], "photos": {"count": 0, "groups": []}}, "referralId": "e-0-514e02b7e4b0c56a35535ff0-27"}, {"reasons": {"count": 0, "items": [{"summary": "This spot is popular", "type": "general", "reasonName": "globalInteractionReason"}]}, "venue": {"id": "55e7fa11498edd01d1f10b41", "name": "denn's Biomarkt", "location": {"address": "Hanne-Sobek-Platz", "lat": 52.54879932882594, "lng": 13.388637894952028, "labeledLatLngs": [{"label": "display", "lat": 52.54879932882594, "lng": 13.388637894952028}], "distance": 763, "postalCode": "13357", "cc": "DE", "city": "Berlin", "state": "Berlin", "country": "Deutschland", "formattedAddress": ["Hanne-Sobek-Platz", "13357 Berlin", "Deutschland"]}, "categories": [{"id": "52f2ab2ebcbc57f1066b8b45", "name": "Organic Grocery", "pluralName": "Organic Groceries", "shortName": "Organic Grocery", "icon": {"prefix": "https://ss3.4sqi.net/img/categories_v2/shops/food_grocery_", "suffix": ".png"}, "primary": true}], "photos": {"count": 0, "groups": []}}, "referralId": "e-0-55e7fa11498edd01d1f10b41-28"}, {"reasons": {"count": 0, "items": [{"summary": "This spot is popular", "type": "general", "reasonName": "globalInteractionReason"}]}, "venue": {"id": "5ba5ed2f5c6838002cc04516", "name": "Baldon", "location": {"address": "B\u00f6ttgerstra\u00dfe 16", "lat": 52.54912, "lng": 13.381062, "labeledLatLngs": [{"label": "display", "lat": 52.54912, "lng": 13.381062}], "distance": 703, "postalCode": "13357", "cc": "DE", "neighborhood": "Humboldthain", "city": "Berlin", "state": "Berlin", "country": "Deutschland", "formattedAddress": ["B\u00f6ttgerstra\u00dfe 16", "13357 Berlin", "Deutschland"]}, "categories": [{"id": "4bf58dd8d48988d1c4941735", "name": "Restaurant", "pluralName": "Restaurants", "shortName": "Restaurant", "icon": {"prefix": "https://ss3.4sqi.net/img/categories_v2/food/default_", "suffix": ".png"}, "primary": true}], "photos": {"count": 0, "groups": []}}, "referralId": "e-0-5ba5ed2f5c6838002cc04516-29"}, {"reasons": {"count": 0, "items": [{"summary": "This spot is popular", "type": "general", "reasonName": "globalInteractionReason"}]}, "venue": {"id": "58d15e41158b96044e9c5ad1", "name": "Mirage", "location": {"address": "Reinickendorferstr. 110", "lat": 52.544945575237186, "lng": 13.369200963176139, "labeledLatLngs": [{"label": "display", "lat": 52.544945575237186, "lng": 13.369200963176139}], "distance": 954, "postalCode": "13347", "cc": "DE", "neighborhood": "Leopoldplatz", "city": "Berlin", "state": "Berlin", "country": "Deutschland", "formattedAddress": ["Reinickendorferstr. 110", "13347 Berlin", "Deutschland"]}, "categories": [{"id": "52e81612bcbc57f1066b79f1", "name": "Bistro", "pluralName": "Bistros", "shortName": "Bistro", "icon": {"prefix": "https://ss3.4sqi.net/img/categories_v2/food/default_", "suffix": ".png"}, "primary": true}], "photos": {"count": 0, "groups": []}}, "referralId": "e-0-58d15e41158b96044e9c5ad1-30"}, {"reasons": {"count": 0, "items": [{"summary": "This spot is popular", "type": "general", "reasonName": "globalInteractionReason"}]}, "venue": {"id": "4efc621329c225f382ef9f8f", "name": "La Vita", "location": {"address": "Chausseestr. 55", "lat": 52.53584626147725, "lng": 13.376441968651564, "labeledLatLngs": [{"label": "display", "lat": 52.53584626147725, "lng": 13.376441968651564}], "distance": 898, "postalCode": "10115", "cc": "DE", "city": "Berlin", "state": "Berlin", "country": "Deutschland", "formattedAddress": ["Chausseestr. 55", "10115 Berlin", "Deutschland"]}, "categories": [{"id": "4bf58dd8d48988d1c0941735", "name": "Mediterranean Restaurant", "pluralName": "Mediterranean Restaurants", "shortName": "Mediterranean", "icon": {"prefix": "https://ss3.4sqi.net/img/categories_v2/food/mediterranean_", "suffix": ".png"}, "primary": true}], "photos": {"count": 0, "groups": []}}, "referralId": "e-0-4efc621329c225f382ef9f8f-31"}, {"reasons": {"count": 0, "items": [{"summary": "This spot is popular", "type": "general", "reasonName": "globalInteractionReason"}]}, "venue": {"id": "4cee33acb80da093076e2600", "name": "Bio-B\u00e4ckerei Bucco", "location": {"address": "Ravenestr. 1", "lat": 52.54280988674659, "lng": 13.370479345321653, "labeledLatLngs": [{"label": "display", "lat": 52.54280988674659, "lng": 13.370479345321653}], "distance": 840, "postalCode": "13347", "cc": "DE", "city": "Berlin", "state": "Berlin", "country": "Deutschland", "formattedAddress": ["Ravenestr. 1", "13347 Berlin", "Deutschland"]}, "categories": [{"id": "4bf58dd8d48988d16a941735", "name": "Bakery", "pluralName": "Bakeries", "shortName": "Bakery", "icon": {"prefix": "https://ss3.4sqi.net/img/categories_v2/food/bakery_", "suffix": ".png"}, "primary": true}], "photos": {"count": 0, "groups": []}}, "referralId": "e-0-4cee33acb80da093076e2600-32"}, {"reasons": {"count": 0, "items": [{"summary": "This spot is popular", "type": "general", "reasonName": "globalInteractionReason"}]}, "venue": {"id": "50193612e4b082c7af266286", "name": "Nezha", "location": {"address": "Badstr. 57", "lat": 52.55173227341282, "lng": 13.382649239435922, "labeledLatLngs": [{"label": "display", "lat": 52.55173227341282, "lng": 13.382649239435922}], "distance": 983, "postalCode": "13357", "cc": "DE", "neighborhood": "Humboldthain", "city": "Berlin", "state": "Berlin", "country": "Deutschland", "formattedAddress": ["Badstr. 57", "13357 Berlin", "Deutschland"]}, "categories": [{"id": "5bae9231bedf3950379f89da", "name": "Syrian Restaurant", "pluralName": "Syrian Restaurants", "shortName": "Syrian Restaurant", "icon": {"prefix": "https://ss3.4sqi.net/img/categories_v2/food/middleeastern_", "suffix": ".png"}, "primary": true}], "photos": {"count": 0, "groups": []}}, "referralId": "e-0-50193612e4b082c7af266286-33"}, {"reasons": {"count": 0, "items": [{"summary": "This spot is popular", "type": "general", "reasonName": "globalInteractionReason"}]}, "venue": {"id": "4cc2c13238aaa093cf210862", "name": "eurogida", "location": {"address": "Badstr. 9", "lat": 52.55006093628966, "lng": 13.385788515861455, "labeledLatLngs": [{"label": "display", "lat": 52.55006093628966, "lng": 13.385788515861455}], "distance": 820, "postalCode": "13357", "cc": "DE", "city": "Berlin", "state": "Berlin", "country": "Deutschland", "formattedAddress": ["Badstr. 9", "13357 Berlin", "Deutschland"]}, "categories": [{"id": "4bf58dd8d48988d118951735", "name": "Grocery Store", "pluralName": "Grocery Stores", "shortName": "Grocery Store", "icon": {"prefix": "https://ss3.4sqi.net/img/categories_v2/shops/food_grocery_", "suffix": ".png"}, "primary": true}], "photos": {"count": 0, "groups": []}}, "referralId": "e-0-4cc2c13238aaa093cf210862-34"}, {"reasons": {"count": 0, "items": [{"summary": "This spot is popular", "type": "general", "reasonName": "globalInteractionReason"}]}, "venue": {"id": "4b0b00bef964a520652b23e3", "name": "Hackethal's", "location": {"address": "Pflugstr. 11", "lat": 52.536452503661856, "lng": 13.37956130504608, "labeledLatLngs": [{"label": "display", "lat": 52.536452503661856, "lng": 13.37956130504608}], "distance": 752, "postalCode": "10115", "cc": "DE", "neighborhood": "Mitte", "city": "Berlin", "state": "Berlin", "country": "Deutschland", "formattedAddress": ["Pflugstr. 11", "10115 Berlin", "Deutschland"]}, "categories": [{"id": "4bf58dd8d48988d10d941735", "name": "German Restaurant", "pluralName": "German Restaurants", "shortName": "German", "icon": {"prefix": "https://ss3.4sqi.net/img/categories_v2/food/german_", "suffix": ".png"}, "primary": true}], "photos": {"count": 0, "groups": []}}, "referralId": "e-0-4b0b00bef964a520652b23e3-35"}, {"reasons": {"count": 0, "items": [{"summary": "This spot is popular", "type": "general", "reasonName": "globalInteractionReason"}]}, "venue": {"id": "4e3647e018a82fdd657f7dc9", "name": "H Gedenkst\u00e4tte Berliner Mauer", "location": {"address": "Bernauer Str.", "crossStreet": "Ackerstr.", "lat": 52.53574979652019, "lng": 13.390707636443713, "labeledLatLngs": [{"label": "display", "lat": 52.53574979652019, "lng": 13.390707636443713}], "distance": 955, "postalCode": "13355", "cc": "DE", "city": "Berlin", "state": "Berlin", "country": "Deutschland", "formattedAddress": ["Bernauer Str. (Ackerstr.)", "13355 Berlin", "Deutschland"]}, "categories": [{"id": "52f2ab2ebcbc57f1066b8b51", "name": "Tram Station", "pluralName": "Tram Stations", "shortName": "Tram", "icon": {"prefix": "https://ss3.4sqi.net/img/categories_v2/travel/trainstation_", "suffix": ".png"}, "primary": true}], "photos": {"count": 0, "groups": []}}, "referralId": "e-0-4e3647e018a82fdd657f7dc9-36"}, {"reasons": {"count": 0, "items": [{"summary": "This spot is popular", "type": "general", "reasonName": "globalInteractionReason"}]}, "venue": {"id": "58810a8584677a06196bacc8", "name": "EDEKA Sapphire", "location": {"address": "Chausseestr. 43", "crossStreet": "Schwartzkopffstr.", "lat": 52.5343735, "lng": 13.3789948, "labeledLatLngs": [{"label": "display", "lat": 52.5343735, "lng": 13.3789948}], "distance": 985, "postalCode": "10115", "cc": "DE", "city": "Berlin", "state": "Berlin", "country": "Deutschland", "formattedAddress": ["Chausseestr. 43 (Schwartzkopffstr.)", "10115 Berlin", "Deutschland"]}, "categories": [{"id": "52f2ab2ebcbc57f1066b8b46", "name": "Supermarket", "pluralName": "Supermarkets", "shortName": "Supermarket", "icon": {"prefix": "https://ss3.4sqi.net/img/categories_v2/shops/food_grocery_", "suffix": ".png"}, "primary": true}], "photos": {"count": 0, "groups": []}, "venuePage": {"id": "555691221"}}, "referralId": "e-0-58810a8584677a06196bacc8-37"}, {"reasons": {"count": 0, "items": [{"summary": "This spot is popular", "type": "general", "reasonName": "globalInteractionReason"}]}, "venue": {"id": "57aede0d498eca015fafc08c", "name": "M\u00f6bel Kraft Wedding", "location": {"lat": 52.54866402700487, "lng": 13.377373196429659, "labeledLatLngs": [{"label": "display", "lat": 52.54866402700487, "lng": 13.377373196429659}], "distance": 742, "cc": "DE", "city": "Berlin", "state": "Berlin", "country": "Deutschland", "formattedAddress": ["Berlin", "Deutschland"]}, "categories": [{"id": "4bf58dd8d48988d1f8941735", "name": "Furniture / Home Store", "pluralName": "Furniture / Home Stores", "shortName": "Furniture / Home", "icon": {"prefix": "https://ss3.4sqi.net/img/categories_v2/shops/furniture_", "suffix": ".png"}, "primary": true}], "photos": {"count": 0, "groups": []}}, "referralId": "e-0-57aede0d498eca015fafc08c-38"}, {"reasons": {"count": 0, "items": [{"summary": "This spot is popular", "type": "general", "reasonName": "globalInteractionReason"}]}, "venue": {"id": "4b0fa456f964a520ce6323e3", "name": "Kaufland", "location": {"address": "Brunnenstr. 105-109", "lat": 52.547677937293884, "lng": 13.389022935830626, "labeledLatLngs": [{"label": "display", "lat": 52.547677937293884, "lng": 13.389022935830626}], "distance": 674, "postalCode": "13355", "cc": "DE", "neighborhood": "Gesundbrunnen", "city": "Berlin", "state": "Berlin", "country": "Deutschland", "formattedAddress": ["Brunnenstr. 105-109", "13355 Berlin", "Deutschland"]}, "categories": [{"id": "52f2ab2ebcbc57f1066b8b42", "name": "Big Box Store", "pluralName": "Big Box Stores", "shortName": "Big Box Store", "icon": {"prefix": "https://ss3.4sqi.net/img/categories_v2/shops/default_", "suffix": ".png"}, "primary": true}], "photos": {"count": 0, "groups": []}, "venuePage": {"id": "456066626"}}, "referralId": "e-0-4b0fa456f964a520ce6323e3-39"}, {"reasons": {"count": 0, "items": [{"summary": "This spot is popular", "type": "general", "reasonName": "globalInteractionReason"}]}, "venue": {"id": "535a5628498e9880fbf2c5f4", "name": "Berliner Unterwelten Tour M", "location": {"address": "Badstr.", "crossStreet": "Hochstr.", "lat": 52.54991007838847, "lng": 13.385360240936278, "labeledLatLngs": [{"label": "display", "lat": 52.54991007838847, "lng": 13.385360240936278}], "distance": 798, "postalCode": "13355", "cc": "DE", "city": "Berlin", "state": "Berlin", "country": "Deutschland", "formattedAddress": ["Badstr. (Hochstr.)", "13355 Berlin", "Deutschland"]}, "categories": [{"id": "4bf58dd8d48988d159941735", "name": "Trail", "pluralName": "Trails", "shortName": "Trail", "icon": {"prefix": "https://ss3.4sqi.net/img/categories_v2/parks_outdoors/hikingtrail_", "suffix": ".png"}, "primary": true}], "photos": {"count": 0, "groups": []}}, "referralId": "e-0-535a5628498e9880fbf2c5f4-40"}, {"reasons": {"count": 0, "items": [{"summary": "This spot is popular", "type": "general", "reasonName": "globalInteractionReason"}]}, "venue": {"id": "4c39b20f0a71c9b6d2e242c9", "name": "Sommerbad Humboldthain", "location": {"address": "Wiesenstr. 1", "lat": 52.54527511891685, "lng": 13.381450568709516, "labeledLatLngs": [{"label": "display", "lat": 52.54527511891685, "lng": 13.381450568709516}], "distance": 281, "postalCode": "13357", "cc": "DE", "city": "Berlin", "state": "Berlin", "country": "Deutschland", "formattedAddress": ["Wiesenstr. 1", "13357 Berlin", "Deutschland"]}, "categories": [{"id": "4bf58dd8d48988d15e941735", "name": "Pool", "pluralName": "Pools", "shortName": "Pool", "icon": {"prefix": "https://ss3.4sqi.net/img/categories_v2/parks_outdoors/pool_", "suffix": ".png"}, "primary": true}], "photos": {"count": 0, "groups": []}}, "referralId": "e-0-4c39b20f0a71c9b6d2e242c9-41"}, {"reasons": {"count": 0, "items": [{"summary": "This spot is popular", "type": "general", "reasonName": "globalInteractionReason"}]}, "venue": {"id": "55abad8d498e00ffdc943b49", "name": "Lecker Asia", "location": {"address": "Reinickendorfer Str. 14", "lat": 52.542566832059094, "lng": 13.370109200477598, "labeledLatLngs": [{"label": "display", "lat": 52.542566832059094, "lng": 13.370109200477598}], "distance": 866, "cc": "DE", "city": "Berlin", "state": "Berlin", "country": "Deutschland", "formattedAddress": ["Reinickendorfer Str. 14", "Berlin", "Deutschland"]}, "categories": [{"id": "4bf58dd8d48988d142941735", "name": "Asian Restaurant", "pluralName": "Asian Restaurants", "shortName": "Asian", "icon": {"prefix": "https://ss3.4sqi.net/img/categories_v2/food/asian_", "suffix": ".png"}, "primary": true}], "photos": {"count": 0, "groups": []}}, "referralId": "e-0-55abad8d498e00ffdc943b49-42"}, {"reasons": {"count": 0, "items": [{"summary": "This spot is popular", "type": "general", "reasonName": "globalInteractionReason"}]}, "venue": {"id": "5a43a7c128122f2048e8224a", "name": "Tigert\u00f6rtchen", "location": {"address": "Chausseestr 60", "lat": 52.53654, "lng": 13.375807, "labeledLatLngs": [{"label": "display", "lat": 52.53654, "lng": 13.375807}], "distance": 855, "postalCode": "10115", "cc": "DE", "city": "Berlin", "state": "Berlin", "country": "Deutschland", "formattedAddress": ["Chausseestr 60", "10115 Berlin", "Deutschland"]}, "categories": [{"id": "4bf58dd8d48988d1bc941735", "name": "Cupcake Shop", "pluralName": "Cupcake Shops", "shortName": "Cupcakes", "icon": {"prefix": "https://ss3.4sqi.net/img/categories_v2/food/cupcakes_", "suffix": ".png"}, "primary": true}], "photos": {"count": 0, "groups": []}}, "referralId": "e-0-5a43a7c128122f2048e8224a-43"}, {"reasons": {"count": 0, "items": [{"summary": "This spot is popular", "type": "general", "reasonName": "globalInteractionReason"}]}, "venue": {"id": "5436793e498e90a92cb564c8", "name": "Art Caf\u00e9 Jadore", "location": {"address": "Chausseestra\u00dfe 56", "lat": 52.5362225906053, "lng": 13.376059318336058, "labeledLatLngs": [{"label": "display", "lat": 52.5362225906053, "lng": 13.376059318336058}], "distance": 875, "postalCode": "10115", "cc": "DE", "city": "Berlin", "state": "Berlin", "country": "Deutschland", "formattedAddress": ["Chausseestra\u00dfe 56", "10115 Berlin", "Deutschland"]}, "categories": [{"id": "4bf58dd8d48988d16d941735", "name": "Caf\u00e9", "pluralName": "Caf\u00e9s", "shortName": "Caf\u00e9", "icon": {"prefix": "https://ss3.4sqi.net/img/categories_v2/food/cafe_", "suffix": ".png"}, "primary": true}], "photos": {"count": 0, "groups": []}}, "referralId": "e-0-5436793e498e90a92cb564c8-44"}, {"reasons": {"count": 0, "items": [{"summary": "This spot is popular", "type": "general", "reasonName": "globalInteractionReason"}]}, "venue": {"id": "4d52fee1e0275481c287bab6", "name": "Alaturka", "location": {"address": "Reinickendorfer Str. 109", "lat": 52.545152795573124, "lng": 13.369422160188224, "labeledLatLngs": [{"label": "display", "lat": 52.545152795573124, "lng": 13.369422160188224}], "distance": 945, "postalCode": "13347", "cc": "DE", "city": "Berlin", "state": "Berlin", "country": "Deutschland", "formattedAddress": ["Reinickendorfer Str. 109", "13347 Berlin", "Deutschland"]}, "categories": [{"id": "4bf58dd8d48988d115941735", "name": "Middle Eastern Restaurant", "pluralName": "Middle Eastern Restaurants", "shortName": "Middle Eastern", "icon": {"prefix": "https://ss3.4sqi.net/img/categories_v2/food/middleeastern_", "suffix": ".png"}, "primary": true}], "photos": {"count": 0, "groups": []}}, "referralId": "e-0-4d52fee1e0275481c287bab6-45"}, {"reasons": {"count": 0, "items": [{"summary": "This spot is popular", "type": "general", "reasonName": "globalInteractionReason"}]}, "venue": {"id": "4b9ba54ff964a520591636e3", "name": "Caf\u00e9 Desd", "location": {"address": "Schulzendorfer Str. 13", "lat": 52.54038762914075, "lng": 13.375346861207765, "labeledLatLngs": [{"label": "display", "lat": 52.54038762914075, "lng": 13.375346861207765}], "distance": 582, "postalCode": "13347", "cc": "DE", "city": "Berlin", "state": "Berlin", "country": "Deutschland", "formattedAddress": ["Schulzendorfer Str. 13", "13347 Berlin", "Deutschland"]}, "categories": [{"id": "4bf58dd8d48988d16a941735", "name": "Bakery", "pluralName": "Bakeries", "shortName": "Bakery", "icon": {"prefix": "https://ss3.4sqi.net/img/categories_v2/food/bakery_", "suffix": ".png"}, "primary": true}], "photos": {"count": 0, "groups": []}}, "referralId": "e-0-4b9ba54ff964a520591636e3-46"}, {"reasons": {"count": 0, "items": [{"summary": "This spot is popular", "type": "general", "reasonName": "globalInteractionReason"}]}, "venue": {"id": "578542f1498e900c0a14a470", "name": "Wonder Waffel", "location": {"address": "Gr\u00fcntaler Str. 88", "lat": 52.5508126428986, "lng": 13.384897248801925, "labeledLatLngs": [{"label": "display", "lat": 52.5508126428986, "lng": 13.384897248801925}], "distance": 891, "postalCode": "13557", "cc": "DE", "city": "Berlin", "state": "Berlin", "country": "Deutschland", "formattedAddress": ["Gr\u00fcntaler Str. 88", "13557 Berlin", "Deutschland"]}, "categories": [{"id": "4bf58dd8d48988d1c9941735", "name": "Ice Cream Shop", "pluralName": "Ice Cream Shops", "shortName": "Ice Cream", "icon": {"prefix": "https://ss3.4sqi.net/img/categories_v2/food/icecream_", "suffix": ".png"}, "primary": true}], "photos": {"count": 0, "groups": []}}, "referralId": "e-0-578542f1498e900c0a14a470-47"}, {"reasons": {"count": 0, "items": [{"summary": "This spot is popular", "type": "general", "reasonName": "globalInteractionReason"}]}, "venue": {"id": "5076e415e4b062c08658b4d5", "name": "dm-drogerie markt", "location": {"address": "Badstra\u00dfe 16", "crossStreet": "Stettiner Stra\u00dfe", "lat": 52.55138510725133, "lng": 13.384346999999934, "labeledLatLngs": [{"label": "display", "lat": 52.55138510725133, "lng": 13.384346999999934}], "distance": 949, "postalCode": "13357", "cc": "DE", "city": "Berlin", "state": "Berlin", "country": "Deutschland", "formattedAddress": ["Badstra\u00dfe 16 (Stettiner Stra\u00dfe)", "13357 Berlin", "Deutschland"]}, "categories": [{"id": "5745c2e4498e11e7bccabdbd", "name": "Drugstore", "pluralName": "Drugstores", "shortName": "Drugstore", "icon": {"prefix": "https://ss3.4sqi.net/img/categories_v2/shops/pharmacy_", "suffix": ".png"}, "primary": true}], "photos": {"count": 0, "groups": []}, "venuePage": {"id": "451531665"}}, "referralId": "e-0-5076e415e4b062c08658b4d5-48"}, {"reasons": {"count": 0, "items": [{"summary": "This spot is popular", "type": "general", "reasonName": "globalInteractionReason"}]}, "venue": {"id": "598af0c4fc9e9467c3649784", "name": "Louis Alfons", "location": {"address": "Gerichtstr. 60", "lat": 52.544355, "lng": 13.371478, "labeledLatLngs": [{"label": "display", "lat": 52.544355, "lng": 13.371478}], "distance": 789, "postalCode": "13347", "cc": "DE", "city": "Berlin", "state": "Berlin", "country": "Deutschland", "formattedAddress": ["Gerichtstr. 60", "13347 Berlin", "Deutschland"]}, "categories": [{"id": "4bf58dd8d48988d16c941735", "name": "Burger Joint", "pluralName": "Burger Joints", "shortName": "Burgers", "icon": {"prefix": "https://ss3.4sqi.net/img/categories_v2/food/burger_", "suffix": ".png"}, "primary": true}], "photos": {"count": 0, "groups": []}}, "referralId": "e-0-598af0c4fc9e9467c3649784-49"}, {"reasons": {"count": 0, "items": [{"summary": "This spot is popular", "type": "general", "reasonName": "globalInteractionReason"}]}, "venue": {"id": "562e8f98498e238e20c076ea", "name": "Lezziz Kuruyemis", "location": {"address": "Bastianstr. 1", "crossStreet": "Badstrasse", "lat": 52.55184, "lng": 13.38195, "labeledLatLngs": [{"label": "display", "lat": 52.55184, "lng": 13.38195}], "distance": 997, "postalCode": "13357", "cc": "DE", "city": "Berlin", "state": "Berlin", "country": "Deutschland", "formattedAddress": ["Bastianstr. 1 (Badstrasse)", "13357 Berlin", "Deutschland"]}, "categories": [{"id": "52f2ab2ebcbc57f1066b8b31", "name": "Chocolate Shop", "pluralName": "Chocolate Shops", "shortName": "Chocolate Shop", "icon": {"prefix": "https://ss3.4sqi.net/img/categories_v2/shops/candystore_", "suffix": ".png"}, "primary": true}], "photos": {"count": 0, "groups": []}, "venuePage": {"id": "578359976"}}, "referralId": "e-0-562e8f98498e238e20c076ea-50"}, {"reasons": {"count": 0, "items": [{"summary": "This spot is popular", "type": "general", "reasonName": "globalInteractionReason"}]}, "venue": {"id": "4cb6bd8555af224b1f0c9c7e", "name": "Dunkin'", "location": {"address": "Badstr. 4", "lat": 52.549693, "lng": 13.38762, "labeledLatLngs": [{"label": "display", "lat": 52.549693, "lng": 13.38762}], "distance": 821, "postalCode": "13357", "cc": "DE", "city": "Berlin", "state": "Berlin", "country": "Deutschland", "formattedAddress": ["Badstr. 4", "13357 Berlin", "Deutschland"]}, "categories": [{"id": "4bf58dd8d48988d148941735", "name": "Donut Shop", "pluralName": "Donut Shops", "shortName": "Donuts", "icon": {"prefix": "https://ss3.4sqi.net/img/categories_v2/food/donuts_", "suffix": ".png"}, "primary": true}], "photos": {"count": 0, "groups": []}}, "referralId": "e-0-4cb6bd8555af224b1f0c9c7e-51"}, {"reasons": {"count": 0, "items": [{"summary": "This spot is popular", "type": "general", "reasonName": "globalInteractionReason"}]}, "venue": {"id": "57b37909498eda3d72ccb00b", "name": "Schoenhouse Living", "location": {"address": "Chausseestra\u00dfe 85", "lat": 52.53757480575615, "lng": 13.373792249845676, "labeledLatLngs": [{"label": "display", "lat": 52.53757480575615, "lng": 13.373792249845676}], "distance": 854, "postalCode": "10115", "cc": "DE", "city": "Berlin", "state": "Berlin", "country": "Deutschland", "formattedAddress": ["Chausseestra\u00dfe 85", "10115 Berlin", "Deutschland"]}, "categories": [{"id": "4bf58dd8d48988d1fa931735", "name": "Hotel", "pluralName": "Hotels", "shortName": "Hotel", "icon": {"prefix": "https://ss3.4sqi.net/img/categories_v2/travel/hotel_", "suffix": ".png"}, "primary": true}], "photos": {"count": 0, "groups": []}}, "referralId": "e-0-57b37909498eda3d72ccb00b-52"}, {"reasons": {"count": 0, "items": [{"summary": "This spot is popular", "type": "general", "reasonName": "globalInteractionReason"}]}, "venue": {"id": "4e133d4e2fb6744af78ef9eb", "name": "Telekom Shop", "location": {"address": "Badstr. 4", "lat": 52.549698, "lng": 13.38793, "labeledLatLngs": [{"label": "display", "lat": 52.549698, "lng": 13.38793}], "distance": 830, "postalCode": "13357", "cc": "DE", "city": "Berlin", "state": "Berlin", "country": "Deutschland", "formattedAddress": ["Badstr. 4", "13357 Berlin", "Deutschland"]}, "categories": [{"id": "4f04afc02fb6e1c99f3db0bc", "name": "Mobile Phone Shop", "pluralName": "Mobile Phone Shops", "shortName": "Mobile Phones", "icon": {"prefix": "https://ss3.4sqi.net/img/categories_v2/shops/mobilephoneshop_", "suffix": ".png"}, "primary": true}], "photos": {"count": 0, "groups": []}, "venuePage": {"id": "474698239"}}, "referralId": "e-0-4e133d4e2fb6744af78ef9eb-53"}, {"reasons": {"count": 0, "items": [{"summary": "This spot is popular", "type": "general", "reasonName": "globalInteractionReason"}]}, "venue": {"id": "4f1ff655e4b0ec749c54b273", "name": "Agata Torrisi", "location": {"address": "W\u00f6hlertstr. 5", "lat": 52.53651019364004, "lng": 13.377780874234496, "labeledLatLngs": [{"label": "display", "lat": 52.53651019364004, "lng": 13.377780874234496}], "distance": 790, "postalCode": "10115", "cc": "DE", "city": "Berlin", "state": "Berlin", "country": "Deutschland", "formattedAddress": ["W\u00f6hlertstr. 5", "10115 Berlin", "Deutschland"]}, "categories": [{"id": "4bf58dd8d48988d110941735", "name": "Italian Restaurant", "pluralName": "Italian Restaurants", "shortName": "Italian", "icon": {"prefix": "https://ss3.4sqi.net/img/categories_v2/food/italian_", "suffix": ".png"}, "primary": true}], "photos": {"count": 0, "groups": []}}, "referralId": "e-0-4f1ff655e4b0ec749c54b273-54"}, {"reasons": {"count": 0, "items": [{"summary": "This spot is popular", "type": "general", "reasonName": "globalInteractionReason"}]}, "venue": {"id": "4f26e52ce4b0008744c4939a", "name": "Lidl", "location": {"address": "Badstr. 60", "lat": 52.5509487, "lng": 13.3832753, "labeledLatLngs": [{"label": "display", "lat": 52.5509487, "lng": 13.3832753}], "distance": 896, "postalCode": "13357", "cc": "DE", "city": "Berlin", "state": "Berlin", "country": "Deutschland", "formattedAddress": ["Badstr. 60", "13357 Berlin-Mitte", "Deutschland"]}, "categories": [{"id": "52f2ab2ebcbc57f1066b8b46", "name": "Supermarket", "pluralName": "Supermarkets", "shortName": "Supermarket", "icon": {"prefix": "https://ss3.4sqi.net/img/categories_v2/shops/food_grocery_", "suffix": ".png"}, "primary": true}], "photos": {"count": 0, "groups": []}, "venuePage": {"id": "584713131"}}, "referralId": "e-0-4f26e52ce4b0008744c4939a-55"}, {"reasons": {"count": 0, "items": [{"summary": "This spot is popular", "type": "general", "reasonName": "globalInteractionReason"}]}, "venue": {"id": "50d716afe4b028bbd4632847", "name": "Altin Saray", "location": {"address": "Badstr. 21", "lat": 52.551748178699064, "lng": 13.382577163662667, "labeledLatLngs": [{"label": "display", "lat": 52.551748178699064, "lng": 13.382577163662667}], "distance": 985, "postalCode": "13357", "cc": "DE", "neighborhood": "Humboldthain", "city": "Berlin", "state": "Berlin", "country": "Deutschland", "formattedAddress": ["Badstr. 21", "13357 Berlin", "Deutschland"]}, "categories": [{"id": "4f04af1f2fb6e1c99f3db0bb", "name": "Turkish Restaurant", "pluralName": "Turkish Restaurants", "shortName": "Turkish", "icon": {"prefix": "https://ss3.4sqi.net/img/categories_v2/food/turkish_", "suffix": ".png"}, "primary": true}], "photos": {"count": 0, "groups": []}}, "referralId": "e-0-50d716afe4b028bbd4632847-56"}, {"reasons": {"count": 0, "items": [{"summary": "This spot is popular", "type": "general", "reasonName": "globalInteractionReason"}]}, "venue": {"id": "59a82b1c67e5f236ada52c57", "name": "TK Maxx", "location": {"address": "Badstr. 4", "lat": 52.55000575730891, "lng": 13.390336060834988, "labeledLatLngs": [{"label": "display", "lat": 52.55000575730891, "lng": 13.390336060834988}], "distance": 937, "cc": "DE", "city": "Berlin", "state": "Berlin", "country": "Deutschland", "formattedAddress": ["Badstr. 4", "Berlin", "Deutschland"]}, "categories": [{"id": "4bf58dd8d48988d103951735", "name": "Clothing Store", "pluralName": "Clothing Stores", "shortName": "Apparel", "icon": {"prefix": "https://ss3.4sqi.net/img/categories_v2/shops/apparel_", "suffix": ".png"}, "primary": true}], "photos": {"count": 0, "groups": []}}, "referralId": "e-0-59a82b1c67e5f236ada52c57-57"}, {"reasons": {"count": 0, "items": [{"summary": "This spot is popular", "type": "general", "reasonName": "globalInteractionReason"}]}, "venue": {"id": "504b3e1de4b086a8f9e1b113", "name": "C&A", "location": {"address": "Badstr. 4", "lat": 52.54968837801101, "lng": 13.387952005062967, "labeledLatLngs": [{"label": "display", "lat": 52.54968837801101, "lng": 13.387952005062967}], "distance": 829, "postalCode": "13357", "cc": "DE", "city": "Berlin", "state": "Berlin", "country": "Deutschland", "formattedAddress": ["Badstr. 4", "13357 Berlin", "Deutschland"]}, "categories": [{"id": "4bf58dd8d48988d103951735", "name": "Clothing Store", "pluralName": "Clothing Stores", "shortName": "Apparel", "icon": {"prefix": "https://ss3.4sqi.net/img/categories_v2/shops/apparel_", "suffix": ".png"}, "primary": true}], "photos": {"count": 0, "groups": []}}, "referralId": "e-0-504b3e1de4b086a8f9e1b113-58"}, {"reasons": {"count": 0, "items": [{"summary": "This spot is popular", "type": "general", "reasonName": "globalInteractionReason"}]}, "venue": {"id": "591ef6249746170f47c1b5f8", "name": "Nguyen Kitchen", "location": {"address": "Brunnenstra\u00dfe 63", "lat": 52.540191, "lng": 13.395002, "labeledLatLngs": [{"label": "display", "lat": 52.540191, "lng": 13.395002}], "distance": 873, "postalCode": "13355", "cc": "DE", "city": "Berlin", "state": "Berlin", "country": "Deutschland", "formattedAddress": ["Brunnenstra\u00dfe 63", "13355 Berlin", "Deutschland"]}, "categories": [{"id": "4bf58dd8d48988d14a941735", "name": "Vietnamese Restaurant", "pluralName": "Vietnamese Restaurants", "shortName": "Vietnamese", "icon": {"prefix": "https://ss3.4sqi.net/img/categories_v2/food/vietnamese_", "suffix": ".png"}, "primary": true}], "photos": {"count": 0, "groups": []}, "venuePage": {"id": "586799157"}}, "referralId": "e-0-591ef6249746170f47c1b5f8-59"}, {"reasons": {"count": 0, "items": [{"summary": "This spot is popular", "type": "general", "reasonName": "globalInteractionReason"}]}, "venue": {"id": "5a8c089ce7a237608e565e29", "name": "Gl\u00fcckscaf\u00e9", "location": {"address": "Chausseestr. 48a", "lat": 52.535202, "lng": 13.377567, "labeledLatLngs": [{"label": "display", "lat": 52.535202, "lng": 13.377567}], "distance": 929, "postalCode": "10115", "cc": "DE", "neighborhood": "Mitte", "city": "Berlin", "state": "Berlin", "country": "Deutschland", "formattedAddress": ["Chausseestr. 48a", "10115 Berlin", "Deutschland"]}, "categories": [{"id": "4bf58dd8d48988d1e0931735", "name": "Coffee Shop", "pluralName": "Coffee Shops", "shortName": "Coffee Shop", "icon": {"prefix": "https://ss3.4sqi.net/img/categories_v2/food/coffeeshop_", "suffix": ".png"}, "primary": true}], "photos": {"count": 0, "groups": []}}, "referralId": "e-0-5a8c089ce7a237608e565e29-60"}, {"reasons": {"count": 0, "items": [{"summary": "This spot is popular", "type": "general", "reasonName": "globalInteractionReason"}]}, "venue": {"id": "4f733a05e4b0979fe77f647b", "name": "Kochende Welten", "location": {"lat": 52.5450265177236, "lng": 13.37337400438398, "labeledLatLngs": [{"label": "display", "lat": 52.5450265177236, "lng": 13.37337400438398}], "distance": 686, "cc": "DE", "city": "Berlin", "state": "Berlin", "country": "Deutschland", "formattedAddress": ["Berlin", "Deutschland"]}, "categories": [{"id": "4bf58dd8d48988d1f2931735", "name": "Performing Arts Venue", "pluralName": "Performing Arts Venues", "shortName": "Performing Arts", "icon": {"prefix": "https://ss3.4sqi.net/img/categories_v2/arts_entertainment/performingarts_", "suffix": ".png"}, "primary": true}], "photos": {"count": 0, "groups": []}}, "referralId": "e-0-4f733a05e4b0979fe77f647b-61"}, {"reasons": {"count": 0, "items": [{"summary": "This spot is popular", "type": "general", "reasonName": "globalInteractionReason"}]}, "venue": {"id": "4d344e858250f04d134c04e1", "name": "Rossmann", "location": {"address": "Brunnenstra\u00dfe 105-109", "lat": 52.548059820779, "lng": 13.3904329005722, "labeledLatLngs": [{"label": "display", "lat": 52.548059820779, "lng": 13.3904329005722}], "distance": 768, "postalCode": "13355", "cc": "DE", "city": "Berlin", "state": "Berlin", "country": "Deutschland", "formattedAddress": ["Brunnenstra\u00dfe 105-109", "13355 Berlin", "Deutschland"]}, "categories": [{"id": "5745c2e4498e11e7bccabdbd", "name": "Drugstore", "pluralName": "Drugstores", "shortName": "Drugstore", "icon": {"prefix": "https://ss3.4sqi.net/img/categories_v2/shops/pharmacy_", "suffix": ".png"}, "primary": true}], "photos": {"count": 0, "groups": []}}, "referralId": "e-0-4d344e858250f04d134c04e1-62"}, {"reasons": {"count": 0, "items": [{"summary": "This spot is popular", "type": "general", "reasonName": "globalInteractionReason"}]}, "venue": {"id": "4bf2e0f4706e20a18a97a798", "name": "B-Turm", "location": {"address": "Strelitzer Str.", "crossStreet": "Bernauer Str.", "lat": 52.53698436006245, "lng": 13.393551707267761, "labeledLatLngs": [{"label": "display", "lat": 52.53698436006245, "lng": 13.393551707267761}], "distance": 977, "postalCode": "10115", "cc": "DE", "city": "Berlin", "state": "Berlin", "country": "Deutschland", "formattedAddress": ["Strelitzer Str. (Bernauer Str.)", "10115 Berlin", "Deutschland"]}, "categories": [{"id": "52e81612bcbc57f1066b79ed", "name": "Outdoor Sculpture", "pluralName": "Outdoor Sculptures", "shortName": "Outdoor Sculpture", "icon": {"prefix": "https://ss3.4sqi.net/img/categories_v2/parks_outdoors/sculpture_", "suffix": ".png"}, "primary": true}], "photos": {"count": 0, "groups": []}}, "referralId": "e-0-4bf2e0f4706e20a18a97a798-63"}, {"reasons": {"count": 0, "items": [{"summary": "This spot is popular", "type": "general", "reasonName": "globalInteractionReason"}]}, "venue": {"id": "4bc2ea8eabf49521c60bc393", "name": "Park am Nordbahnhof", "location": {"address": "Gartenstr.", "lat": 52.53593369274464, "lng": 13.383321762084961, "labeledLatLngs": [{"label": "display", "lat": 52.53593369274464, "lng": 13.383321762084961}], "distance": 776, "postalCode": "13355", "cc": "DE", "city": "Berlin", "state": "Berlin", "country": "Deutschland", "formattedAddress": ["Gartenstr.", "13355 Berlin", "Deutschland"]}, "categories": [{"id": "4bf58dd8d48988d163941735", "name": "Park", "pluralName": "Parks", "shortName": "Park", "icon": {"prefix": "https://ss3.4sqi.net/img/categories_v2/parks_outdoors/park_", "suffix": ".png"}, "primary": true}], "photos": {"count": 0, "groups": []}}, "referralId": "e-0-4bc2ea8eabf49521c60bc393-64"}, {"reasons": {"count": 0, "items": [{"summary": "This spot is popular", "type": "general", "reasonName": "globalInteractionReason"}]}, "venue": {"id": "5610fbab498e447ac0131110", "name": "Mr. Hoang", "location": {"address": "Gerichtstr. 30", "lat": 52.54475634711417, "lng": 13.368906569867395, "labeledLatLngs": [{"label": "display", "lat": 52.54475634711417, "lng": 13.368906569867395}], "distance": 968, "postalCode": "13347", "cc": "DE", "city": "Berlin", "state": "Berlin", "country": "Deutschland", "formattedAddress": ["Gerichtstr. 30", "13347 Berlin", "Deutschland"]}, "categories": [{"id": "4bf58dd8d48988d14a941735", "name": "Vietnamese Restaurant", "pluralName": "Vietnamese Restaurants", "shortName": "Vietnamese", "icon": {"prefix": "https://ss3.4sqi.net/img/categories_v2/food/vietnamese_", "suffix": ".png"}, "primary": true}], "photos": {"count": 0, "groups": []}}, "referralId": "e-0-5610fbab498e447ac0131110-65"}, {"reasons": {"count": 0, "items": [{"summary": "This spot is popular", "type": "general", "reasonName": "globalInteractionReason"}]}, "venue": {"id": "4c4aaf0346240f477a253df2", "name": "Lichtburg", "location": {"address": "Behmstr. 9", "lat": 52.55024598896703, "lng": 13.388060612939862, "labeledLatLngs": [{"label": "display", "lat": 52.55024598896703, "lng": 13.388060612939862}], "distance": 889, "postalCode": "13357", "cc": "DE", "city": "Berlin", "state": "Berlin", "country": "Deutschland", "formattedAddress": ["Behmstr. 9", "13357 Berlin", "Deutschland"]}, "categories": [{"id": "4bf58dd8d48988d16d941735", "name": "Caf\u00e9", "pluralName": "Caf\u00e9s", "shortName": "Caf\u00e9", "icon": {"prefix": "https://ss3.4sqi.net/img/categories_v2/food/cafe_", "suffix": ".png"}, "primary": true}], "photos": {"count": 0, "groups": []}, "venuePage": {"id": "507953955"}}, "referralId": "e-0-4c4aaf0346240f477a253df2-66"}, {"reasons": {"count": 0, "items": [{"summary": "This spot is popular", "type": "general", "reasonName": "globalInteractionReason"}]}, "venue": {"id": "54d5c920498ead5140856748", "name": "L\u00e4ckerei", "location": {"address": "Brunnenstr. 111 g", "lat": 52.542931305948144, "lng": 13.39239991819911, "labeledLatLngs": [{"label": "display", "lat": 52.542931305948144, "lng": 13.39239991819911}], "distance": 643, "postalCode": "13355", "cc": "DE", "city": "Berlin", "state": "Berlin", "country": "Deutschland", "formattedAddress": ["Brunnenstr. 111 g", "13355 Berlin", "Deutschland"]}, "categories": [{"id": "4bf58dd8d48988d16a941735", "name": "Bakery", "pluralName": "Bakeries", "shortName": "Bakery", "icon": {"prefix": "https://ss3.4sqi.net/img/categories_v2/food/bakery_", "suffix": ".png"}, "primary": true}], "photos": {"count": 0, "groups": []}}, "referralId": "e-0-54d5c920498ead5140856748-67"}, {"reasons": {"count": 0, "items": [{"summary": "This spot is popular", "type": "general", "reasonName": "globalInteractionReason"}]}, "venue": {"id": "5459d324498eb1f620e91b5b", "name": "Korn B\u00e4ckerei", "location": {"address": "Ramlerstr. 38", "lat": 52.547283, "lng": 13.389672, "labeledLatLngs": [{"label": "display", "lat": 52.547283, "lng": 13.389672}], "distance": 669, "cc": "DE", "city": "Berlin", "state": "Berlin", "country": "Deutschland", "formattedAddress": ["Ramlerstr. 38", "Berlin", "Deutschland"]}, "categories": [{"id": "4bf58dd8d48988d16a941735", "name": "Bakery", "pluralName": "Bakeries", "shortName": "Bakery", "icon": {"prefix": "https://ss3.4sqi.net/img/categories_v2/food/bakery_", "suffix": ".png"}, "primary": true}], "photos": {"count": 0, "groups": []}}, "referralId": "e-0-5459d324498eb1f620e91b5b-68"}, {"reasons": {"count": 0, "items": [{"summary": "This spot is popular", "type": "general", "reasonName": "globalInteractionReason"}]}, "venue": {"id": "4da1bbb89aa4721eb78c001a", "name": "Eis Henri", "location": {"address": "Brunnenstr .96", "lat": 52.54592390109061, "lng": 13.390159666197082, "labeledLatLngs": [{"label": "display", "lat": 52.54592390109061, "lng": 13.390159666197082}], "distance": 596, "postalCode": "13355", "cc": "DE", "city": "Berlin", "state": "Berlin", "country": "Deutschland", "formattedAddress": ["Brunnenstr .96", "13355 Berlin", "Deutschland"]}, "categories": [{"id": "4bf58dd8d48988d1c9941735", "name": "Ice Cream Shop", "pluralName": "Ice Cream Shops", "shortName": "Ice Cream", "icon": {"prefix": "https://ss3.4sqi.net/img/categories_v2/food/icecream_", "suffix": ".png"}, "primary": true}], "photos": {"count": 0, "groups": []}}, "referralId": "e-0-4da1bbb89aa4721eb78c001a-69"}, {"reasons": {"count": 0, "items": [{"summary": "This spot is popular", "type": "general", "reasonName": "globalInteractionReason"}]}, "venue": {"id": "574070ef498e61fb4c947249", "name": "Krokuswiese im Humboldthain", "location": {"address": "Wiesenstr.", "crossStreet": "Hussitenstr.", "lat": 52.54418173394236, "lng": 13.381304740905762, "labeledLatLngs": [{"label": "display", "lat": 52.54418173394236, "lng": 13.381304740905762}], "distance": 178, "postalCode": "13355", "cc": "DE", "city": "Berlin", "state": "Berlin", "country": "Deutschland", "formattedAddress": ["Wiesenstr. (Hussitenstr.)", "13355 Berlin", "Deutschland"]}, "categories": [{"id": "4bf58dd8d48988d15a941735", "name": "Garden", "pluralName": "Gardens", "shortName": "Garden", "icon": {"prefix": "https://ss3.4sqi.net/img/categories_v2/parks_outdoors/garden_", "suffix": ".png"}, "primary": true}], "photos": {"count": 0, "groups": []}}, "referralId": "e-0-574070ef498e61fb4c947249-70"}, {"reasons": {"count": 0, "items": [{"summary": "This spot is popular", "type": "general", "reasonName": "globalInteractionReason"}]}, "venue": {"id": "4e96a76b4690385f1adc4f23", "name": "Mond & Stern Croissanterie & B\u00e4ckerei", "location": {"address": "Brunnenstra\u00dfe 77", "lat": 52.54285335110461, "lng": 13.39240010016982, "labeledLatLngs": [{"label": "display", "lat": 52.54285335110461, "lng": 13.39240010016982}], "distance": 643, "postalCode": "13355", "cc": "DE", "city": "Berlin", "state": "Berlin", "country": "Deutschland", "formattedAddress": ["Brunnenstra\u00dfe 77", "13355 Berlin", "Deutschland"]}, "categories": [{"id": "4bf58dd8d48988d16a941735", "name": "Bakery", "pluralName": "Bakeries", "shortName": "Bakery", "icon": {"prefix": "https://ss3.4sqi.net/img/categories_v2/food/bakery_", "suffix": ".png"}, "primary": true}], "photos": {"count": 0, "groups": []}}, "referralId": "e-0-4e96a76b4690385f1adc4f23-71"}, {"reasons": {"count": 0, "items": [{"summary": "This spot is popular", "type": "general", "reasonName": "globalInteractionReason"}]}, "venue": {"id": "4cb8eff043ec6dcb1db89931", "name": "Zum Magendoktor", "location": {"address": "Reinickendorfer Str.  111", "lat": 52.54410996178689, "lng": 13.369368910789488, "labeledLatLngs": [{"label": "display", "lat": 52.54410996178689, "lng": 13.369368910789488}], "distance": 925, "postalCode": "13347", "cc": "DE", "city": "Berlin", "state": "Berlin", "country": "Deutschland", "formattedAddress": ["Reinickendorfer Str.  111", "13347 Berlin", "Deutschland"]}, "categories": [{"id": "4bf58dd8d48988d118941735", "name": "Dive Bar", "pluralName": "Dive Bars", "shortName": "Dive Bar", "icon": {"prefix": "https://ss3.4sqi.net/img/categories_v2/nightlife/divebar_", "suffix": ".png"}, "primary": true}], "photos": {"count": 0, "groups": []}}, "referralId": "e-0-4cb8eff043ec6dcb1db89931-72"}, {"reasons": {"count": 0, "items": [{"summary": "This spot is popular", "type": "general", "reasonName": "globalInteractionReason"}]}, "venue": {"id": "58c1bb2d1d21ba792e688cd9", "name": "\u00c1 \u00c2u", "location": {"address": "Fennstr. 4", "lat": 52.541508, "lng": 13.3689165, "labeledLatLngs": [{"label": "display", "lat": 52.541508, "lng": 13.3689165}], "distance": 958, "postalCode": "13347", "cc": "DE", "city": "Berlin", "state": "Berlin", "country": "Deutschland", "formattedAddress": ["Fennstr. 4", "13347 Berlin", "Deutschland"]}, "categories": [{"id": "4bf58dd8d48988d14a941735", "name": "Vietnamese Restaurant", "pluralName": "Vietnamese Restaurants", "shortName": "Vietnamese", "icon": {"prefix": "https://ss3.4sqi.net/img/categories_v2/food/vietnamese_", "suffix": ".png"}, "primary": true}], "photos": {"count": 0, "groups": []}}, "referralId": "e-0-58c1bb2d1d21ba792e688cd9-73"}, {"reasons": {"count": 0, "items": [{"summary": "This spot is popular", "type": "general", "reasonName": "globalInteractionReason"}]}, "venue": {"id": "4d75f79d6c22b60c9fc0e1d6", "name": "Neo Kyma", "location": {"address": "Voltastr. 6", "lat": 52.54118624742224, "lng": 13.388008894709223, "labeledLatLngs": [{"label": "display", "lat": 52.54118624742224, "lng": 13.388008894709223}], "distance": 395, "postalCode": "13355", "cc": "DE", "city": "Berlin", "state": "Berlin", "country": "Deutschland", "formattedAddress": ["Voltastr. 6", "13355 Berlin", "Deutschland"]}, "categories": [{"id": "4bf58dd8d48988d147941735", "name": "Diner", "pluralName": "Diners", "shortName": "Diner", "icon": {"prefix": "https://ss3.4sqi.net/img/categories_v2/food/diner_", "suffix": ".png"}, "primary": true}], "photos": {"count": 0, "groups": []}}, "referralId": "e-0-4d75f79d6c22b60c9fc0e1d6-74"}, {"reasons": {"count": 0, "items": [{"summary": "This spot is popular", "type": "general", "reasonName": "globalInteractionReason"}]}, "venue": {"id": "56e1f7dd498e595857bec5d2", "name": "Wedding Grillhaus", "location": {"address": "Reinickendorfer Str. 9", "lat": 52.541695739104576, "lng": 13.370243310928345, "labeledLatLngs": [{"label": "display", "lat": 52.541695739104576, "lng": 13.370243310928345}], "distance": 866, "postalCode": "13347", "cc": "DE", "city": "Berlin", "state": "Berlin", "country": "Deutschland", "formattedAddress": ["Reinickendorfer Str. 9", "13347 Berlin", "Deutschland"]}, "categories": [{"id": "5283c7b4e4b094cb91ec88d8", "name": "Doner Restaurant", "pluralName": "Doner Restaurants", "shortName": "Doner", "icon": {"prefix": "https://ss3.4sqi.net/img/categories_v2/food/turkish_", "suffix": ".png"}, "primary": true}], "photos": {"count": 0, "groups": []}}, "referralId": "e-0-56e1f7dd498e595857bec5d2-75"}, {"reasons": {"count": 0, "items": [{"summary": "This spot is popular", "type": "general", "reasonName": "globalInteractionReason"}]}, "venue": {"id": "4bc7380d15a7ef3b52ed78da", "name": "ALDI NORD", "location": {"address": "Gerichtsstr. 2-3", "lat": 52.54219404657008, "lng": 13.377640211209549, "labeledLatLngs": [{"label": "display", "lat": 52.54219404657008, "lng": 13.377640211209549}], "distance": 363, "postalCode": "13347", "cc": "DE", "neighborhood": "Humboldthain", "city": "Berlin", "state": "Berlin", "country": "Deutschland", "formattedAddress": ["Gerichtsstr. 2-3", "13347 Berlin", "Deutschland"]}, "categories": [{"id": "52f2ab2ebcbc57f1066b8b46", "name": "Supermarket", "pluralName": "Supermarkets", "shortName": "Supermarket", "icon": {"prefix": "https://ss3.4sqi.net/img/categories_v2/shops/food_grocery_", "suffix": ".png"}, "primary": true}], "photos": {"count": 0, "groups": []}}, "referralId": "e-0-4bc7380d15a7ef3b52ed78da-76"}, {"reasons": {"count": 0, "items": [{"summary": "This spot is popular", "type": "general", "reasonName": "globalInteractionReason"}]}, "venue": {"id": "4c238afc11de20a12d9586ce", "name": "Aral", "location": {"address": "Brunnenstra\u00dfe 119", "lat": 52.54099135721675, "lng": 13.393665006638814, "labeledLatLngs": [{"label": "display", "lat": 52.54099135721675, "lng": 13.393665006638814}], "distance": 759, "postalCode": "13355", "cc": "DE", "city": "Berlin", "state": "Berlin", "country": "Deutschland", "formattedAddress": ["Brunnenstra\u00dfe 119", "13355 Berlin", "Deutschland"]}, "categories": [{"id": "4bf58dd8d48988d113951735", "name": "Gas Station", "pluralName": "Gas Stations", "shortName": "Gas Station", "icon": {"prefix": "https://ss3.4sqi.net/img/categories_v2/shops/gas_", "suffix": ".png"}, "primary": true}], "photos": {"count": 0, "groups": []}, "venuePage": {"id": "585945744"}}, "referralId": "e-0-4c238afc11de20a12d9586ce-77"}, {"reasons": {"count": 0, "items": [{"summary": "This spot is popular", "type": "general", "reasonName": "globalInteractionReason"}]}, "venue": {"id": "4d0a41a9d4018cfa77c84628", "name": "Nettelbeckplatz", "location": {"address": "Gerichtstr.", "crossStreet": "Pasewalker Str.", "lat": 52.5444555017332, "lng": 13.369664995952158, "labeledLatLngs": [{"label": "display", "lat": 52.5444555017332, "lng": 13.369664995952158}], "distance": 911, "postalCode": "13347", "cc": "DE", "city": "Berlin", "state": "Berlin", "country": "Deutschland", "formattedAddress": ["Gerichtstr. (Pasewalker Str.)", "13347 Berlin", "Deutschland"]}, "categories": [{"id": "4bf58dd8d48988d164941735", "name": "Plaza", "pluralName": "Plazas", "shortName": "Plaza", "icon": {"prefix": "https://ss3.4sqi.net/img/categories_v2/parks_outdoors/plaza_", "suffix": ".png"}, "primary": true}], "photos": {"count": 0, "groups": []}}, "referralId": "e-0-4d0a41a9d4018cfa77c84628-78"}, {"reasons": {"count": 0, "items": [{"summary": "This spot is popular", "type": "general", "reasonName": "globalInteractionReason"}]}, "venue": {"id": "56dac254498ecfa01df5f7a8", "name": "Reis Mama", "location": {"address": "Brunnenstra\u00dfe 85, 13355 Berlin", "lat": 52.544078047832414, "lng": 13.391774095952439, "labeledLatLngs": [{"label": "display", "lat": 52.544078047832414, "lng": 13.391774095952439}], "distance": 615, "cc": "DE", "city": "Berlin", "state": "Berlin", "country": "Deutschland", "formattedAddress": ["Brunnenstra\u00dfe 85, 13355 Berlin", "Berlin", "Deutschland"]}, "categories": [{"id": "4bf58dd8d48988d142941735", "name": "Asian Restaurant", "pluralName": "Asian Restaurants", "shortName": "Asian", "icon": {"prefix": "https://ss3.4sqi.net/img/categories_v2/food/asian_", "suffix": ".png"}, "primary": true}], "photos": {"count": 0, "groups": []}}, "referralId": "e-0-56dac254498ecfa01df5f7a8-79"}, {"reasons": {"count": 0, "items": [{"summary": "This spot is popular", "type": "general", "reasonName": "globalInteractionReason"}]}, "venue": {"id": "4be07c6a4c55b651fa72eab7", "name": "Hotel Grenzfall", "location": {"address": "Ackerstr. 136", "lat": 52.535802854892005, "lng": 13.389174324313966, "labeledLatLngs": [{"label": "display", "lat": 52.535802854892005, "lng": 13.389174324313966}], "distance": 897, "postalCode": "13355", "cc": "DE", "city": "Berlin", "state": "Berlin", "country": "Deutschland", "formattedAddress": ["Ackerstr. 136", "13355 Berlin", "Deutschland"]}, "categories": [{"id": "4bf58dd8d48988d1fa931735", "name": "Hotel", "pluralName": "Hotels", "shortName": "Hotel", "icon": {"prefix": "https://ss3.4sqi.net/img/categories_v2/travel/hotel_", "suffix": ".png"}, "primary": true}], "photos": {"count": 0, "groups": []}, "venuePage": {"id": "80458630"}}, "referralId": "e-0-4be07c6a4c55b651fa72eab7-80"}, {"reasons": {"count": 0, "items": [{"summary": "This spot is popular", "type": "general", "reasonName": "globalInteractionReason"}]}, "venue": {"id": "4c6003c1de6920a123ed9464", "name": "Bella Italia", "location": {"address": "Brunnenstr. 103-104", "crossStreet": "Ramlerstr.", "lat": 52.54736920948017, "lng": 13.389120310590139, "labeledLatLngs": [{"label": "display", "lat": 52.54736920948017, "lng": 13.389120310590139}], "distance": 652, "postalCode": "13355", "cc": "DE", "city": "Berlin", "state": "Berlin", "country": "Deutschland", "formattedAddress": ["Brunnenstr. 103-104 (Ramlerstr.)", "13355 Berlin", "Deutschland"]}, "categories": [{"id": "4bf58dd8d48988d110941735", "name": "Italian Restaurant", "pluralName": "Italian Restaurants", "shortName": "Italian", "icon": {"prefix": "https://ss3.4sqi.net/img/categories_v2/food/italian_", "suffix": ".png"}, "primary": true}], "photos": {"count": 0, "groups": []}}, "referralId": "e-0-4c6003c1de6920a123ed9464-81"}, {"reasons": {"count": 0, "items": [{"summary": "This spot is popular", "type": "general", "reasonName": "globalInteractionReason"}]}, "venue": {"id": "4c725556376da0937e04a6c6", "name": "Gia-Han", "location": {"address": "Reinickendorfer Str. 13", "lat": 52.54228791473135, "lng": 13.36979391698863, "labeledLatLngs": [{"label": "display", "lat": 52.54228791473135, "lng": 13.36979391698863}], "distance": 889, "postalCode": "13347", "cc": "DE", "city": "Berlin", "state": "Berlin", "country": "Deutschland", "formattedAddress": ["Reinickendorfer Str. 13", "13347 Berlin", "Deutschland"]}, "categories": [{"id": "4bf58dd8d48988d142941735", "name": "Asian Restaurant", "pluralName": "Asian Restaurants", "shortName": "Asian", "icon": {"prefix": "https://ss3.4sqi.net/img/categories_v2/food/asian_", "suffix": ".png"}, "primary": true}], "photos": {"count": 0, "groups": []}}, "referralId": "e-0-4c725556376da0937e04a6c6-82"}, {"reasons": {"count": 0, "items": [{"summary": "This spot is popular", "type": "general", "reasonName": "globalInteractionReason"}]}, "venue": {"id": "53c3c5c8498e1034bcc95320", "name": "Caf\u00e9 des Schicksals", "location": {"address": "Gerichtstr. 60", "lat": 52.543755, "lng": 13.373034, "labeledLatLngs": [{"label": "display", "lat": 52.543755, "lng": 13.373034}], "distance": 673, "postalCode": "13347", "cc": "DE", "neighborhood": "Humboldthain", "city": "Berlin", "state": "Berlin", "country": "Deutschland", "formattedAddress": ["Gerichtstr. 60", "13347 Berlin", "Deutschland"]}, "categories": [{"id": "52e81612bcbc57f1066b79f1", "name": "Bistro", "pluralName": "Bistros", "shortName": "Bistro", "icon": {"prefix": "https://ss3.4sqi.net/img/categories_v2/food/default_", "suffix": ".png"}, "primary": true}], "photos": {"count": 0, "groups": []}}, "referralId": "e-0-53c3c5c8498e1034bcc95320-83"}, {"reasons": {"count": 0, "items": [{"summary": "This spot is popular", "type": "general", "reasonName": "globalInteractionReason"}]}, "venue": {"id": "5198cb08498e0a8709949ffe", "name": "Backshop", "location": {"lat": 52.547786357110496, "lng": 13.389465258422117, "labeledLatLngs": [{"label": "display", "lat": 52.547786357110496, "lng": 13.389465258422117}], "distance": 702, "cc": "DE", "city": "Berlin", "state": "Berlin", "country": "Deutschland", "formattedAddress": ["Berlin", "Deutschland"]}, "categories": [{"id": "4bf58dd8d48988d16a941735", "name": "Bakery", "pluralName": "Bakeries", "shortName": "Bakery", "icon": {"prefix": "https://ss3.4sqi.net/img/categories_v2/food/bakery_", "suffix": ".png"}, "primary": true}], "photos": {"count": 0, "groups": []}}, "referralId": "e-0-5198cb08498e0a8709949ffe-84"}, {"reasons": {"count": 0, "items": [{"summary": "This spot is popular", "type": "general", "reasonName": "globalInteractionReason"}]}, "venue": {"id": "4f2b80e5e4b0d656b273b356", "name": "ServiceStore DB", "location": {"address": "Bahnhofsvorplatz", "crossStreet": "Behmstra\u00dfe", "lat": 52.54847768599145, "lng": 13.389638813553322, "labeledLatLngs": [{"label": "display", "lat": 52.54847768599145, "lng": 13.389638813553322}], "distance": 770, "postalCode": "13357", "cc": "DE", "city": "Berlin", "state": "Berlin", "country": "Deutschland", "formattedAddress": ["Bahnhofsvorplatz (Behmstra\u00dfe)", "13357 Berlin", "Deutschland"]}, "categories": [{"id": "4d954b0ea243a5684a65b473", "name": "Convenience Store", "pluralName": "Convenience Stores", "shortName": "Convenience Store", "icon": {"prefix": "https://ss3.4sqi.net/img/categories_v2/shops/conveniencestore_", "suffix": ".png"}, "primary": true}], "photos": {"count": 0, "groups": []}}, "referralId": "e-0-4f2b80e5e4b0d656b273b356-85"}, {"reasons": {"count": 0, "items": [{"summary": "This spot is popular", "type": "general", "reasonName": "globalInteractionReason"}]}, "venue": {"id": "5201080e498e3ea73764be81", "name": "Gleis 7/8", "location": {"address": "Bhf. Gesundbrunnen", "lat": 52.54862087870579, "lng": 13.390027284622192, "labeledLatLngs": [{"label": "display", "lat": 52.54862087870579, "lng": 13.390027284622192}], "distance": 799, "postalCode": "13357", "cc": "DE", "city": "Berlin", "state": "Berlin", "country": "Deutschland", "formattedAddress": ["Bhf. Gesundbrunnen", "13357 Berlin", "Deutschland"]}, "categories": [{"id": "4f4531504b9074f6e4fb0102", "name": "Platform", "pluralName": "Platforms", "shortName": "Platform", "icon": {"prefix": "https://ss3.4sqi.net/img/categories_v2/travel/trainstation_", "suffix": ".png"}, "primary": true}], "photos": {"count": 0, "groups": []}}, "referralId": "e-0-5201080e498e3ea73764be81-86"}, {"reasons": {"count": 0, "items": [{"summary": "This spot is popular", "type": "general", "reasonName": "globalInteractionReason"}]}, "venue": {"id": "4e832e3f6d86be34609bd03c", "name": "Indomarkt (Indonesian Shop)", "location": {"address": "Reinickendorferstr 118", "lat": 52.54258314449636, "lng": 13.369537889957428, "labeledLatLngs": [{"label": "display", "lat": 52.54258314449636, "lng": 13.369537889957428}], "distance": 904, "postalCode": "13347", "cc": "DE", "city": "Berlin", "state": "Berlin", "country": "Deutschland", "formattedAddress": ["Reinickendorferstr 118", "13347 Berlin", "Deutschland"]}, "categories": [{"id": "4bf58dd8d48988d118951735", "name": "Grocery Store", "pluralName": "Grocery Stores", "shortName": "Grocery Store", "icon": {"prefix": "https://ss3.4sqi.net/img/categories_v2/shops/food_grocery_", "suffix": ".png"}, "primary": true}], "photos": {"count": 0, "groups": []}}, "referralId": "e-0-4e832e3f6d86be34609bd03c-87"}, {"reasons": {"count": 0, "items": [{"summary": "This spot is popular", "type": "general", "reasonName": "globalInteractionReason"}]}, "venue": {"id": "50769056e4b05fcf00e5fa4e", "name": "Lila", "location": {"address": "Chausseestrasse 56", "lat": 52.53614507977751, "lng": 13.376308241609452, "labeledLatLngs": [{"label": "display", "lat": 52.53614507977751, "lng": 13.376308241609452}], "distance": 874, "postalCode": "10115", "cc": "DE", "city": "Berlin", "state": "Berlin", "country": "Deutschland", "formattedAddress": ["Chausseestrasse 56", "10115 Berlin", "Deutschland"]}, "categories": [{"id": "4bf58dd8d48988d14a941735", "name": "Vietnamese Restaurant", "pluralName": "Vietnamese Restaurants", "shortName": "Vietnamese", "icon": {"prefix": "https://ss3.4sqi.net/img/categories_v2/food/vietnamese_", "suffix": ".png"}, "primary": true}], "photos": {"count": 0, "groups": []}}, "referralId": "e-0-50769056e4b05fcf00e5fa4e-88"}, {"reasons": {"count": 0, "items": [{"summary": "This spot is popular", "type": "general", "reasonName": "globalInteractionReason"}]}, "venue": {"id": "4c7f76ddfb74236ad114fab9", "name": "Allegro", "location": {"address": "Reinickendorfer Str. 8", "crossStreet": "Weddingplatz", "lat": 52.54133033167028, "lng": 13.370211124420166, "labeledLatLngs": [{"label": "display", "lat": 52.54133033167028, "lng": 13.370211124420166}], "distance": 875, "postalCode": "13347", "cc": "DE", "city": "Berlin", "state": "Berlin", "country": "Deutschland", "formattedAddress": ["Reinickendorfer Str. 8 (Weddingplatz)", "13347 Berlin", "Deutschland"]}, "categories": [{"id": "4bf58dd8d48988d110941735", "name": "Italian Restaurant", "pluralName": "Italian Restaurants", "shortName": "Italian", "icon": {"prefix": "https://ss3.4sqi.net/img/categories_v2/food/italian_", "suffix": ".png"}, "primary": true}], "photos": {"count": 0, "groups": []}}, "referralId": "e-0-4c7f76ddfb74236ad114fab9-89"}, {"reasons": {"count": 0, "items": [{"summary": "This spot is popular", "type": "general", "reasonName": "globalInteractionReason"}]}, "venue": {"id": "4fae1b76e4b091b46296b645", "name": "McPaper", "location": {"address": "Badstr. 4", "lat": 52.54957735901554, "lng": 13.390123844146727, "labeledLatLngs": [{"label": "display", "lat": 52.54957735901554, "lng": 13.390123844146727}], "distance": 890, "postalCode": "13357", "cc": "DE", "city": "Berlin", "state": "Berlin", "country": "Deutschland", "formattedAddress": ["Badstr. 4", "13357 Berlin", "Deutschland"]}, "categories": [{"id": "4bf58dd8d48988d121951735", "name": "Paper / Office Supplies Store", "pluralName": "Paper / Office Supplies Stores", "shortName": "Office Supplies", "icon": {"prefix": "https://ss3.4sqi.net/img/categories_v2/shops/papergoods_", "suffix": ".png"}, "primary": true}], "photos": {"count": 0, "groups": []}}, "referralId": "e-0-4fae1b76e4b091b46296b645-90"}, {"reasons": {"count": 0, "items": [{"summary": "This spot is popular", "type": "general", "reasonName": "globalInteractionReason"}]}, "venue": {"id": "5208a578498e3dcfc9fa4f49", "name": "Slim-Gym Club", "location": {"address": "Chausseestra\u00dfe 51", "crossStreet": "Schwartzkopffstr.", "lat": 52.53541189128087, "lng": 13.376921111184108, "labeledLatLngs": [{"label": "display", "lat": 52.53541189128087, "lng": 13.376921111184108}], "distance": 926, "postalCode": "10115", "cc": "DE", "city": "Berlin", "state": "Berlin", "country": "Deutschland", "formattedAddress": ["Chausseestra\u00dfe 51 (Schwartzkopffstr.)", "10115 Berlin", "Deutschland"]}, "categories": [{"id": "4f4528bc4b90abdf24c9de85", "name": "Athletics & Sports", "pluralName": "Athletics & Sports", "shortName": "Athletics & Sports", "icon": {"prefix": "https://ss3.4sqi.net/img/categories_v2/shops/sports_outdoors_", "suffix": ".png"}, "primary": true}], "photos": {"count": 0, "groups": []}, "venuePage": {"id": "67173084"}}, "referralId": "e-0-5208a578498e3dcfc9fa4f49-91"}, {"reasons": {"count": 0, "items": [{"summary": "This spot is popular", "type": "general", "reasonName": "globalInteractionReason"}]}, "venue": {"id": "4f211e7ae4b08379a834611b", "name": "Commerzbank", "location": {"address": "M\u00fcllerstra\u00dfe 180", "crossStreet": "Sellerstr.", "lat": 52.53994208194861, "lng": 13.369792699813843, "labeledLatLngs": [{"label": "display", "lat": 52.53994208194861, "lng": 13.369792699813843}], "distance": 945, "postalCode": "13353", "cc": "DE", "city": "Berlin", "state": "Berlin", "country": "Deutschland", "formattedAddress": ["M\u00fcllerstra\u00dfe 180 (Sellerstr.)", "13353 Berlin", "Deutschland"]}, "categories": [{"id": "4bf58dd8d48988d10a951735", "name": "Bank", "pluralName": "Banks", "shortName": "Bank", "icon": {"prefix": "https://ss3.4sqi.net/img/categories_v2/shops/financial_", "suffix": ".png"}, "primary": true}], "photos": {"count": 0, "groups": []}}, "referralId": "e-0-4f211e7ae4b08379a834611b-92"}, {"reasons": {"count": 0, "items": [{"summary": "This spot is popular", "type": "general", "reasonName": "globalInteractionReason"}]}, "venue": {"id": "50de9e9de4b0869e5233953f", "name": "H U Reinickendorfer Stra\u00dfe / Fennstra\u00dfe", "location": {"address": "Fennstr.", "crossStreet": "M\u00fcllerstr.", "lat": 52.5408638788143, "lng": 13.36912766136773, "labeledLatLngs": [{"label": "display", "lat": 52.5408638788143, "lng": 13.36912766136773}], "distance": 958, "postalCode": "13353", "cc": "DE", "city": "Berlin", "state": "Berlin", "country": "Deutschland", "formattedAddress": ["Fennstr. (M\u00fcllerstr.)", "13353 Berlin", "Deutschland"]}, "categories": [{"id": "52f2ab2ebcbc57f1066b8b4f", "name": "Bus Stop", "pluralName": "Bus Stops", "shortName": "Bus Stop", "icon": {"prefix": "https://ss3.4sqi.net/img/categories_v2/travel/busstation_", "suffix": ".png"}, "primary": true}], "photos": {"count": 0, "groups": []}}, "referralId": "e-0-50de9e9de4b0869e5233953f-93"}, {"reasons": {"count": 0, "items": [{"summary": "This spot is popular", "type": "general", "reasonName": "globalInteractionReason"}]}, "venue": {"id": "58c821e86ad5a12a60d44d90", "name": "Tiger", "location": {"address": "M\u00fcllerstra\u00dfe 6", "crossStreet": "Reinickendorfer Stra\u00dfe", "lat": 52.54138, "lng": 13.36834, "labeledLatLngs": [{"label": "display", "lat": 52.54138, "lng": 13.36834}], "distance": 999, "postalCode": "13353", "cc": "DE", "neighborhood": "Sbhf Wedding", "city": "Berlin", "state": "Berlin", "country": "Deutschland", "formattedAddress": ["M\u00fcllerstra\u00dfe 6 (Reinickendorfer Stra\u00dfe)", "13353 Berlin", "Deutschland"]}, "categories": [{"id": "4bf58dd8d48988d149941735", "name": "Thai Restaurant", "pluralName": "Thai Restaurants", "shortName": "Thai", "icon": {"prefix": "https://ss3.4sqi.net/img/categories_v2/food/thai_", "suffix": ".png"}, "primary": true}], "photos": {"count": 0, "groups": []}}, "referralId": "e-0-58c821e86ad5a12a60d44d90-94"}]