[{"reasons": {"count": 0, "items": [{"summary": "This spot is popular", "type": "general", "reasonName": "globalInteractionReason"}]}, "venue": {"id": "528b8f70498ec85f24e2bfbf", "name": "Rossmann", "location": {"address": "Rosenthaler Weg 78-82", "lat": 52.607502489057886, "lng": 13.429487428614847, "labeledLatLngs": [{"label": "display", "lat": 52.607502489057886, "lng": 13.429487428614847}], "distance": 94, "postalCode": "13127", "cc": "DE", "city": "Berlin", "state": "Berlin", "country": "Deutschland", "formattedAddress": ["Rosenthaler Weg 78-82", "13127 Berlin", "Deutschland"]}, "categories": [{"id": "5745c2e4498e11e7bccabdbd", "name": "Drugstore", "pluralName": "Drugstores", "shortName": "Drugstore", "icon": {"prefix": "https://ss3.4sqi.net/img/categories_v2/shops/pharmacy_", "suffix": ".png"}, "primary": true}], "photos": {"count": 0, "groups": []}}, "referralId": "e-0-528b8f70498ec85f24e2bfbf-0"}, {"reasons": {"count": 0, "items": [{"summary": "This spot is popular", "type": "general", "reasonName": "globalInteractionReason"}]}, "venue": {"id": "4c9ddc57d3c2b60c9c23c5bc", "name": "REWE", "location": {"address": "Rosenthaler Weg 74", "lat": 52.6070613234738, "lng": 13.428980299987415, "labeledLatLngs": [{"label": "display", "lat": 52.6070613234738, "lng": 13.428980299987415}], "distance": 128, "postalCode": "13127", "cc": "DE", "city": "Berlin", "state": "Berlin", "country": "Deutschland", "formattedAddress": ["Rosenthaler Weg 74", "13127 Berlin", "Deutschland"]}, "categories": [{"id": "52f2ab2ebcbc57f1066b8b46", "name": "Supermarket", "pluralName": "Supermarkets", "shortName": "Supermarket", "icon": {"prefix": "https://ss3.4sqi.net/img/categories_v2/shops/food_grocery_", "suffix": ".png"}, "primary": true}], "photos": {"count": 0, "groups": []}, "venuePage": {"id": "574273274"}}, "referralId": "e-0-4c9ddc57d3c2b60c9c23c5bc-1"}, {"reasons": {"count": 0, "items": [{"summary": "This spot is popular", "type": "general", "reasonName": "globalInteractionReason"}]}, "venue": {"id": "5071648fe4b075dad46785c3", "name": "H Franz\u00f6sisch Buchholz Kirche", "location": {"address": "Hauptstr.", "crossStreet": "Parkstr.", "lat": 52.606921055322836, "lng": 13.433571664891998, "labeledLatLngs": [{"label": "display", "lat": 52.606921055322836, "lng": 13.433571664891998}], "distance": 189, "postalCode": "13127", "cc": "DE", "city": "Berlin", "state": "Berlin", "country": "Deutschland", "formattedAddress": ["Hauptstr. (Parkstr.)", "13127 Berlin", "Deutschland"]}, "categories": [{"id": "52f2ab2ebcbc57f1066b8b51", "name": "Tram Station", "pluralName": "Tram Stations", "shortName": "Tram", "icon": {"prefix": "https://ss3.4sqi.net/img/categories_v2/travel/trainstation_", "suffix": ".png"}, "primary": true}], "photos": {"count": 0, "groups": []}}, "referralId": "e-0-5071648fe4b075dad46785c3-2"}, {"reasons": {"count": 0, "items": [{"summary": "This spot is popular", "type": "general", "reasonName": "globalInteractionReason"}]}, "venue": {"id": "4f425dcce4b0f9f81b736ddc", "name": "REWE", "location": {"address": "Hauptstra\u00dfe 65-70", "lat": 52.603946389082566, "lng": 13.432516271163877, "labeledLatLngs": [{"label": "display", "lat": 52.603946389082566, "lng": 13.432516271163877}], "distance": 390, "postalCode": "13127", "cc": "DE", "city": "Berlin", "state": "Berlin", "country": "Deutschland", "formattedAddress": ["Hauptstra\u00dfe 65-70", "13127 Berlin", "Deutschland"]}, "categories": [{"id": "52f2ab2ebcbc57f1066b8b46", "name": "Supermarket", "pluralName": "Supermarkets", "shortName": "Supermarket", "icon": {"prefix": "https://ss3.4sqi.net/img/categories_v2/shops/food_grocery_", "suffix": ".png"}, "primary": true}], "photos": {"count": 0, "groups": []}, "venuePage": {"id": "562114800"}}, "referralId": "e-0-4f425dcce4b0f9f81b736ddc-3"}, {"reasons": {"count": 0, "items": [{"summary": "This spot is popular", "type": "general", "reasonName": "globalInteractionReason"}]}, "venue": {"id": "4bb76e5446d4a5931973c7c0", "name": "Netto Marken-Discount", "location": {"address": "Triftstr. 20", "lat": 52.6105266, "lng": 13.4314897, "labeledLatLngs": [{"label": "display", "lat": 52.6105266, "lng": 13.4314897}], "distance": 361, "postalCode": "13127", "cc": "DE", "city": "Berlin", "state": "Berlin", "country": "Deutschland", "formattedAddress": ["Triftstr. 20", "13127 Berlin-Pankow", "Deutschland"]}, "categories": [{"id": "52f2ab2ebcbc57f1066b8b46", "name": "Supermarket", "pluralName": "Supermarkets", "shortName": "Supermarket", "icon": {"prefix": "https://ss3.4sqi.net/img/categories_v2/shops/food_grocery_", "suffix": ".png"}, "primary": true}], "photos": {"count": 0, "groups": []}, "venuePage": {"id": "537781605"}}, "referralId": "e-0-4bb76e5446d4a5931973c7c0-4"}, {"reasons": {"count": 0, "items": [{"summary": "This spot is popular", "type": "general", "reasonName": "globalInteractionReason"}]}, "venue": {"id": "4f9d30d3e4b033dc2b78c973", "name": "Restaurant Hercules", "location": {"address": "Rosenthaler Weg 62", "lat": 52.60729170926237, "lng": 13.424642878763528, "labeledLatLngs": [{"label": "display", "lat": 52.60729170926237, "lng": 13.424642878763528}], "distance": 418, "postalCode": "13127", "cc": "DE", "city": "Berlin", "state": "Berlin", "country": "Deutschland", "formattedAddress": ["Rosenthaler Weg 62", "13127 Berlin", "Deutschland"]}, "categories": [{"id": "4bf58dd8d48988d10e941735", "name": "Greek Restaurant", "pluralName": "Greek Restaurants", "shortName": "Greek", "icon": {"prefix": "https://ss3.4sqi.net/img/categories_v2/food/greek_", "suffix": ".png"}, "primary": true}], "photos": {"count": 0, "groups": []}}, "referralId": "e-0-4f9d30d3e4b033dc2b78c973-5"}, {"reasons": {"count": 0, "items": [{"summary": "This spot is popular", "type": "general", "reasonName": "globalInteractionReason"}]}, "venue": {"id": "4cd82ee9a42b236a262ffe08", "name": "Gartencenter Brenke", "location": {"address": "Hauptstr. 32", "lat": 52.61159393122763, "lng": 13.433758020401001, "labeledLatLngs": [{"label": "display", "lat": 52.61159393122763, "lng": 13.433758020401001}], "distance": 516, "postalCode": "13127", "cc": "DE", "city": "Berlin", "state": "Berlin", "country": "Deutschland", "formattedAddress": ["Hauptstr. 32", "13127 Berlin", "Deutschland"]}, "categories": [{"id": "4eb1c0253b7b52c0e1adc2e9", "name": "Garden Center", "pluralName": "Garden Centers", "shortName": "Garden Center", "icon": {"prefix": "https://ss3.4sqi.net/img/categories_v2/parks_outdoors/gardencenter_", "suffix": ".png"}, "primary": true}], "photos": {"count": 0, "groups": []}}, "referralId": "e-0-4cd82ee9a42b236a262ffe08-6"}, {"reasons": {"count": 0, "items": [{"summary": "This spot is popular", "type": "general", "reasonName": "globalInteractionReason"}]}, "venue": {"id": "4f7328bee4b0cb52553d6cb0", "name": "H Blankenfelder Stra\u00dfe", "location": {"address": "Berliner Str.", "crossStreet": "Blankenfelder Str.", "lat": 52.60199193185031, "lng": 13.431344032287598, "labeledLatLngs": [{"label": "display", "lat": 52.60199193185031, "lng": 13.431344032287598}], "distance": 592, "postalCode": "13127", "cc": "DE", "city": "Berlin", "state": "Berlin", "country": "Deutschland", "formattedAddress": ["Berliner Str. (Blankenfelder Str.)", "13127 Berlin", "Deutschland"]}, "categories": [{"id": "52f2ab2ebcbc57f1066b8b51", "name": "Tram Station", "pluralName": "Tram Stations", "shortName": "Tram", "icon": {"prefix": "https://ss3.4sqi.net/img/categories_v2/travel/trainstation_", "suffix": ".png"}, "primary": true}], "photos": {"count": 0, "groups": []}}, "referralId": "e-0-4f7328bee4b0cb52553d6cb0-7"}, {"reasons": {"count": 0, "items": [{"summary": "This spot is popular", "type": "general", "reasonName": "globalInteractionReason"}]}, "venue": {"id": "4efb4e962c5b04450449b1c2", "name": "Hugenottenplatz", "location": {"address": "Rosenthaler Weg", "crossStreet": "Blankenfelder Chaussee", "lat": 52.610464475957485, "lng": 13.418631908919322, "labeledLatLngs": [{"label": "display", "lat": 52.610464475957485, "lng": 13.418631908919322}], "distance": 897, "postalCode": "13127", "cc": "DE", "city": "Berlin", "state": "Berlin", "country": "Deutschland", "formattedAddress": ["Rosenthaler Weg (Blankenfelder Chaussee)", "13127 Berlin", "Deutschland"]}, "categories": [{"id": "4bf58dd8d48988d164941735", "name": "Plaza", "pluralName": "Plazas", "shortName": "Plaza", "icon": {"prefix": "https://ss3.4sqi.net/img/categories_v2/parks_outdoors/plaza_", "suffix": ".png"}, "primary": true}], "photos": {"count": 0, "groups": []}}, "referralId": "e-0-4efb4e962c5b04450449b1c2-8"}, {"reasons": {"count": 0, "items": [{"summary": "This spot is popular", "type": "general", "reasonName": "globalInteractionReason"}]}, "venue": {"id": "4fd4e020e4b034e1fab0d8d0", "name": "Mond", "location": {"lat": 52.610488606374005, "lng": 13.418616858759615, "labeledLatLngs": [{"label": "display", "lat": 52.610488606374005, "lng": 13.418616858759615}], "distance": 899, "cc": "DE", "city": "Berlin", "state": "Berlin", "country": "Deutschland", "formattedAddress": ["Berlin", "Deutschland"]}, "categories": [{"id": "4d954b16a243a5684b65b473", "name": "Rest Area", "pluralName": "Rest Areas", "shortName": "Rest Areas", "icon": {"prefix": "https://ss3.4sqi.net/img/categories_v2/travel/restarea_", "suffix": ".png"}, "primary": true}], "photos": {"count": 0, "groups": []}}, "referralId": "e-0-4fd4e020e4b034e1fab0d8d0-9"}, {"reasons": {"count": 0, "items": [{"summary": "This spot is popular", "type": "general", "reasonName": "globalInteractionReason"}]}, "venue": {"id": "4e6101ded22d509a38fcd43f", "name": "H Guyotstra\u00dfe", "location": {"address": "Rosenthaler Weg", "crossStreet": "Guyotstr.", "lat": 52.60541314861923, "lng": 13.416541999054944, "labeledLatLngs": [{"label": "display", "lat": 52.60541314861923, "lng": 13.416541999054944}], "distance": 989, "postalCode": "13127", "cc": "DE", "city": "Berlin", "state": "Berlin", "country": "Deutschland", "formattedAddress": ["Rosenthaler Weg (Guyotstr.)", "13127 Berlin", "Deutschland"]}, "categories": [{"id": "52f2ab2ebcbc57f1066b8b51", "name": "Tram Station", "pluralName": "Tram Stations", "shortName": "Tram", "icon": {"prefix": "https://ss3.4sqi.net/img/categories_v2/travel/trainstation_", "suffix": ".png"}, "primary": true}], "photos": {"count": 0, "groups": []}}, "referralId": "e-0-4e6101ded22d509a38fcd43f-10"}]