[{"reasons": {"count": 0, "items": [{"summary": "This spot is popular", "type": "general", "reasonName": "globalInteractionReason"}]}, "venue": {"id": "4bba442c53649c741ad548fb", "name": "Linden-Garten", "location": {"address": "Alt-Buckow 15a", "lat": 52.422861386867375, "lng": 13.43428658832559, "labeledLatLngs": [{"label": "display", "lat": 52.422861386867375, "lng": 13.43428658832559}], "distance": 668, "postalCode": "12349", "cc": "DE", "neighborhood": "Buckow", "city": "Berlin", "state": "Berlin", "country": "Deutschland", "formattedAddress": ["Alt-Buckow 15a", "12349 Berlin", "Deutschland"]}, "categories": [{"id": "4bf58dd8d48988d10d941735", "name": "German Restaurant", "pluralName": "German Restaurants", "shortName": "German", "icon": {"prefix": "https://ss3.4sqi.net/img/categories_v2/food/german_", "suffix": ".png"}, "primary": true}], "photos": {"count": 0, "groups": []}}, "referralId": "e-0-4bba442c53649c741ad548fb-0"}, {"reasons": {"count": 0, "items": [{"summary": "This spot is popular", "type": "general", "reasonName": "globalInteractionReason"}]}, "venue": {"id": "539c6846498e723ddb2ad909", "name": "Lidl", "location": {"address": "Warmensteinacher Str. 57", "lat": 52.4148284, "lng": 13.4258312, "labeledLatLngs": [{"label": "display", "lat": 52.4148284, "lng": 13.4258312}], "distance": 482, "postalCode": "12349", "cc": "DE", "city": "Berlin", "state": "Berlin", "country": "Deutschland", "formattedAddress": ["Warmensteinacher Str. 57", "12349 Berlin-Neuk\u00f6lln", "Deutschland"]}, "categories": [{"id": "52f2ab2ebcbc57f1066b8b46", "name": "Supermarket", "pluralName": "Supermarkets", "shortName": "Supermarket", "icon": {"prefix": "https://ss3.4sqi.net/img/categories_v2/shops/food_grocery_", "suffix": ".png"}, "primary": true}], "photos": {"count": 0, "groups": []}, "venuePage": {"id": "576018380"}}, "referralId": "e-0-539c6846498e723ddb2ad909-1"}, {"reasons": {"count": 0, "items": [{"summary": "This spot is popular", "type": "general", "reasonName": "globalInteractionReason"}]}, "venue": {"id": "4b9d46adf964a520549f36e3", "name": "Cafe Peoples", "location": {"address": "Buckower Damm 227", "lat": 52.42337721197155, "lng": 13.437056097079951, "labeledLatLngs": [{"label": "display", "lat": 52.42337721197155, "lng": 13.437056097079951}], "distance": 854, "postalCode": "12349", "cc": "DE", "city": "Berlin", "state": "Berlin", "country": "Deutschland", "formattedAddress": ["Buckower Damm 227", "12349 Berlin", "Deutschland"]}, "categories": [{"id": "4bf58dd8d48988d1c4941735", "name": "Restaurant", "pluralName": "Restaurants", "shortName": "Restaurant", "icon": {"prefix": "https://ss3.4sqi.net/img/categories_v2/food/default_", "suffix": ".png"}, "primary": true}], "photos": {"count": 0, "groups": []}}, "referralId": "e-0-4b9d46adf964a520549f36e3-2"}, {"reasons": {"count": 0, "items": [{"summary": "This spot is popular", "type": "general", "reasonName": "globalInteractionReason"}]}, "venue": {"id": "4e8735ebf5b9aa33225978a5", "name": "Lidl", "location": {"address": "Buckower Damm 194", "lat": 52.42627836461048, "lng": 13.434251546859741, "labeledLatLngs": [{"label": "display", "lat": 52.42627836461048, "lng": 13.434251546859741}], "distance": 950, "postalCode": "12349", "cc": "DE", "city": "Berlin", "state": "Berlin", "country": "Deutschland", "formattedAddress": ["Buckower Damm 194", "12349 Berlin-Neuk\u00f6lln", "Deutschland"]}, "categories": [{"id": "52f2ab2ebcbc57f1066b8b46", "name": "Supermarket", "pluralName": "Supermarkets", "shortName": "Supermarket", "icon": {"prefix": "https://ss3.4sqi.net/img/categories_v2/shops/food_grocery_", "suffix": ".png"}, "primary": true}], "photos": {"count": 0, "groups": []}, "venuePage": {"id": "578769544"}}, "referralId": "e-0-4e8735ebf5b9aa33225978a5-3"}, {"reasons": {"count": 0, "items": [{"summary": "This spot is popular", "type": "general", "reasonName": "globalInteractionReason"}]}, "venue": {"id": "579478fe498ea410bf5917cd", "name": "PENNY", "location": {"address": "Marienfelder Chaussee 6", "lat": 52.420725, "lng": 13.425792, "labeledLatLngs": [{"label": "display", "lat": 52.420725, "lng": 13.425792}], "distance": 184, "postalCode": "12349", "cc": "DE", "city": "Berlin", "state": "Berlin", "country": "Deutschland", "formattedAddress": ["Marienfelder Chaussee 6", "12349 Berlin", "Deutschland"]}, "categories": [{"id": "52f2ab2ebcbc57f1066b8b46", "name": "Supermarket", "pluralName": "Supermarkets", "shortName": "Supermarket", "icon": {"prefix": "https://ss3.4sqi.net/img/categories_v2/shops/food_grocery_", "suffix": ".png"}, "primary": true}], "photos": {"count": 0, "groups": []}, "venuePage": {"id": "474209651"}}, "referralId": "e-0-579478fe498ea410bf5917cd-4"}, {"reasons": {"count": 0, "items": [{"summary": "This spot is popular", "type": "general", "reasonName": "globalInteractionReason"}]}, "venue": {"id": "4d7bc9608f89224b4c9e9726", "name": "Bombay City", "location": {"address": "Ernst-Arndt-Weg 13", "lat": 52.414573369978804, "lng": 13.42154808619225, "labeledLatLngs": [{"label": "display", "lat": 52.414573369978804, "lng": 13.42154808619225}], "distance": 611, "postalCode": "12349", "cc": "DE", "city": "Berlin", "state": "Berlin", "country": "Deutschland", "formattedAddress": ["Ernst-Arndt-Weg 13", "12349 Berlin", "Deutschland"]}, "categories": [{"id": "4bf58dd8d48988d10f941735", "name": "Indian Restaurant", "pluralName": "Indian Restaurants", "shortName": "Indian", "icon": {"prefix": "https://ss3.4sqi.net/img/categories_v2/food/indian_", "suffix": ".png"}, "primary": true}], "photos": {"count": 0, "groups": []}}, "referralId": "e-0-4d7bc9608f89224b4c9e9726-5"}, {"reasons": {"count": 0, "items": [{"summary": "This spot is popular", "type": "general", "reasonName": "globalInteractionReason"}]}, "venue": {"id": "54deb67f498e7eda5dcc699e", "name": "Presse Tabak Lotto Shop Altinel", "location": {"address": "Christoph-Ruden-Str. 7", "lat": 52.41808, "lng": 13.43615, "labeledLatLngs": [{"label": "display", "lat": 52.41808, "lng": 13.43615}], "distance": 661, "postalCode": "12349", "cc": "DE", "city": "Berlin", "state": "Berlin", "country": "Deutschland", "formattedAddress": ["Christoph-Ruden-Str. 7", "12349 Berlin", "Deutschland"]}, "categories": [{"id": "4bf58dd8d48988d1ff941735", "name": "Miscellaneous Shop", "pluralName": "Miscellaneous Shops", "shortName": "Shop", "icon": {"prefix": "https://ss3.4sqi.net/img/categories_v2/shops/default_", "suffix": ".png"}, "primary": true}], "photos": {"count": 0, "groups": []}}, "referralId": "e-0-54deb67f498e7eda5dcc699e-6"}, {"reasons": {"count": 0, "items": [{"summary": "This spot is popular", "type": "general", "reasonName": "globalInteractionReason"}]}, "venue": {"id": "5798ced7498ec6617d3d46aa", "name": "Gutachten030", "location": {"address": "Marienfelder Chaussee 69", "lat": 52.417995, "lng": 13.416748, "labeledLatLngs": [{"label": "display", "lat": 52.417995, "lng": 13.416748}], "distance": 678, "postalCode": "12349", "cc": "DE", "city": "Berlin", "state": "Berlin", "country": "Deutschland", "formattedAddress": ["Marienfelder Chaussee 69", "12349 Berlin", "Deutschland"]}, "categories": [{"id": "503287a291d4c4b30a586d65", "name": "Financial or Legal Service", "pluralName": "Financial or Legal Services", "shortName": "Financial / Legal", "icon": {"prefix": "https://ss3.4sqi.net/img/categories_v2/shops/financial_", "suffix": ".png"}, "primary": true}], "photos": {"count": 0, "groups": []}, "venuePage": {"id": "222184766"}}, "referralId": "e-0-5798ced7498ec6617d3d46aa-7"}, {"reasons": {"count": 0, "items": [{"summary": "This spot is popular", "type": "general", "reasonName": "globalInteractionReason"}]}, "venue": {"id": "4e646c811838ad3d0fa9f89b", "name": "Netto Marken-Discount", "location": {"address": "Buckower Damm 268", "lat": 52.4201611, "lng": 13.4376344, "labeledLatLngs": [{"label": "display", "lat": 52.4201611, "lng": 13.4376344}], "distance": 759, "postalCode": "12349", "cc": "DE", "city": "Berlin", "state": "Berlin", "country": "Deutschland", "formattedAddress": ["Buckower Damm 268", "12349 Berlin", "Deutschland"]}, "categories": [{"id": "52dea92d3cf9994f4e043dbb", "name": "Discount Store", "pluralName": "Discount Stores", "shortName": "Discount Store", "icon": {"prefix": "https://ss3.4sqi.net/img/categories_v2/shops/discountstore_", "suffix": ".png"}, "primary": true}], "photos": {"count": 0, "groups": []}, "venuePage": {"id": "537781021"}}, "referralId": "e-0-4e646c811838ad3d0fa9f89b-8"}, {"reasons": {"count": 0, "items": [{"summary": "This spot is popular", "type": "general", "reasonName": "globalInteractionReason"}]}, "venue": {"id": "4da1a11e7aee548137b3c4fe", "name": "Gaziantep Imbiss - D\u00f6ner & Grillh\u00e4hnchen", "location": {"address": "Gerlinger Stra\u00dfe 4", "crossStreet": "Buckower Damm", "lat": 52.4176008541089, "lng": 13.437915444374084, "labeledLatLngs": [{"label": "display", "lat": 52.4176008541089, "lng": 13.437915444374084}], "distance": 789, "postalCode": "12353", "cc": "DE", "city": "Berlin", "state": "Berlin", "country": "Deutschland", "formattedAddress": ["Gerlinger Stra\u00dfe 4 (Buckower Damm)", "12353 Berlin", "Deutschland"]}, "categories": [{"id": "4bf58dd8d48988d16e941735", "name": "Fast Food Restaurant", "pluralName": "Fast Food Restaurants", "shortName": "Fast Food", "icon": {"prefix": "https://ss3.4sqi.net/img/categories_v2/food/fastfood_", "suffix": ".png"}, "primary": true}], "photos": {"count": 0, "groups": []}}, "referralId": "e-0-4da1a11e7aee548137b3c4fe-9"}, {"reasons": {"count": 0, "items": [{"summary": "This spot is popular", "type": "general", "reasonName": "globalInteractionReason"}]}, "venue": {"id": "4ea9558ff790328ae1b4d607", "name": "Restaurant International", "location": {"address": "Quarzweg 94", "lat": 52.42117148644483, "lng": 13.415035615151371, "labeledLatLngs": [{"label": "display", "lat": 52.42117148644483, "lng": 13.415035615151371}], "distance": 815, "postalCode": "12349", "cc": "DE", "city": "Berlin", "state": "Berlin", "country": "Deutschland", "formattedAddress": ["Quarzweg 94", "12349 Berlin", "Deutschland"]}, "categories": [{"id": "4bf58dd8d48988d1c4941735", "name": "Restaurant", "pluralName": "Restaurants", "shortName": "Restaurant", "icon": {"prefix": "https://ss3.4sqi.net/img/categories_v2/food/default_", "suffix": ".png"}, "primary": true}], "photos": {"count": 0, "groups": []}}, "referralId": "e-0-4ea9558ff790328ae1b4d607-10"}]