[{"reasons": {"count": 0, "items": [{"summary": "This spot is popular", "type": "general", "reasonName": "globalInteractionReason"}]}, "venue": {"id": "4c657bd8e75ac9289dd2f4da", "name": "Waldhochseilgarten Jungfernheide", "location": {"address": "Heckerdamm 260", "crossStreet": "Heilmannring", "lat": 52.5425635695709, "lng": 13.29045295715332, "labeledLatLngs": [{"label": "display", "lat": 52.5425635695709, "lng": 13.29045295715332}], "distance": 463, "postalCode": "13627", "cc": "DE", "city": "Berlin", "state": "Berlin", "country": "Deutschland", "formattedAddress": ["Heckerdamm 260 (Heilmannring)", "13627 Berlin", "Deutschland"]}, "categories": [{"id": "50328a4b91d4c4b30a586d6b", "name": "Rock Climbing Spot", "pluralName": "Rock Climbing Spots", "shortName": "Rock Climbing", "icon": {"prefix": "https://ss3.4sqi.net/img/categories_v2/parks_outdoors/rockclimbing_", "suffix": ".png"}, "primary": true}], "photos": {"count": 0, "groups": []}, "venuePage": {"id": "60453177"}}, "referralId": "e-0-4c657bd8e75ac9289dd2f4da-0"}, {"reasons": {"count": 0, "items": [{"summary": "This spot is popular", "type": "general", "reasonName": "globalInteractionReason"}]}, "venue": {"id": "4adcda7df964a520884721e3", "name": "Volkspark Jungfernheide", "location": {"address": "Heckerdamm", "crossStreet": "Saatwinkler Damm", "lat": 52.544886399781724, "lng": 13.294293880462646, "labeledLatLngs": [{"label": "display", "lat": 52.544886399781724, "lng": 13.294293880462646}], "distance": 459, "postalCode": "13627", "cc": "DE", "city": "Berlin", "state": "Berlin", "country": "Deutschland", "formattedAddress": ["Heckerdamm (Saatwinkler Damm)", "13627 Berlin", "Deutschland"]}, "categories": [{"id": "4bf58dd8d48988d163941735", "name": "Park", "pluralName": "Parks", "shortName": "Park", "icon": {"prefix": "https://ss3.4sqi.net/img/categories_v2/parks_outdoors/park_", "suffix": ".png"}, "primary": true}], "photos": {"count": 0, "groups": []}}, "referralId": "e-0-4adcda7df964a520884721e3-1"}, {"reasons": {"count": 0, "items": [{"summary": "This spot is popular", "type": "general", "reasonName": "globalInteractionReason"}]}, "venue": {"id": "51b49bd9498e5871b51667f0", "name": "Sommergarten am Wasserturm", "location": {"address": "Heckerndamm 260", "lat": 52.54369352789482, "lng": 13.290926170139885, "labeledLatLngs": [{"label": "display", "lat": 52.54369352789482, "lng": 13.290926170139885}], "distance": 496, "postalCode": "13627", "cc": "DE", "city": "Berlin", "state": "Berlin", "country": "Deutschland", "formattedAddress": ["Heckerndamm 260", "13627 Berlin", "Deutschland"]}, "categories": [{"id": "4bf58dd8d48988d117941735", "name": "Beer Garden", "pluralName": "Beer Gardens", "shortName": "Beer Garden", "icon": {"prefix": "https://ss3.4sqi.net/img/categories_v2/nightlife/beergarden_", "suffix": ".png"}, "primary": true}], "photos": {"count": 0, "groups": []}}, "referralId": "e-0-51b49bd9498e5871b51667f0-2"}, {"reasons": {"count": 0, "items": [{"summary": "This spot is popular", "type": "general", "reasonName": "globalInteractionReason"}]}, "venue": {"id": "4f686631e4b0786040e4e6a2", "name": "Wasserturm Jungfernheide", "location": {"address": "Heckerdamm", "lat": 52.543811409460325, "lng": 13.290877869606627, "labeledLatLngs": [{"label": "display", "lat": 52.543811409460325, "lng": 13.290877869606627}], "distance": 506, "postalCode": "13627", "cc": "DE", "city": "Berlin", "state": "Berlin", "country": "Deutschland", "formattedAddress": ["Heckerdamm", "13627 Berlin", "Deutschland"]}, "categories": [{"id": "4bf58dd8d48988d130941735", "name": "Building", "pluralName": "Buildings", "shortName": "Building", "icon": {"prefix": "https://ss3.4sqi.net/img/categories_v2/building/default_", "suffix": ".png"}, "primary": true}], "photos": {"count": 0, "groups": []}}, "referralId": "e-0-4f686631e4b0786040e4e6a2-3"}, {"reasons": {"count": 0, "items": [{"summary": "This spot is popular", "type": "general", "reasonName": "globalInteractionReason"}]}, "venue": {"id": "50afd113e4b0bcea5d55b92d", "name": "Jakob-Kaiser-Platz", "location": {"address": "Jakob-Kaiser-Platz", "lat": 52.536875247049345, "lng": 13.294024389248756, "labeledLatLngs": [{"label": "display", "lat": 52.536875247049345, "lng": 13.294024389248756}], "distance": 503, "postalCode": "13627", "cc": "DE", "city": "Berlin", "state": "Berlin", "country": "Deutschland", "formattedAddress": ["Jakob-Kaiser-Platz", "13627 Berlin", "Deutschland"]}, "categories": [{"id": "4bf58dd8d48988d164941735", "name": "Plaza", "pluralName": "Plazas", "shortName": "Plaza", "icon": {"prefix": "https://ss3.4sqi.net/img/categories_v2/parks_outdoors/plaza_", "suffix": ".png"}, "primary": true}], "photos": {"count": 0, "groups": []}}, "referralId": "e-0-50afd113e4b0bcea5d55b92d-4"}, {"reasons": {"count": 0, "items": [{"summary": "This spot is popular", "type": "general", "reasonName": "globalInteractionReason"}]}, "venue": {"id": "55910573498e00f47a961919", "name": "Zwernemann Lotto im Netto", "location": {"address": "Heckerdamm 240", "lat": 52.53981, "lng": 13.29596, "labeledLatLngs": [{"label": "display", "lat": 52.53981, "lng": 13.29596}], "distance": 151, "postalCode": "13627", "cc": "DE", "city": "Berlin", "state": "Berlin", "country": "Deutschland", "formattedAddress": ["Heckerdamm 240", "13627 Berlin", "Deutschland"]}, "categories": [{"id": "4bf58dd8d48988d1ff941735", "name": "Miscellaneous Shop", "pluralName": "Miscellaneous Shops", "shortName": "Shop", "icon": {"prefix": "https://ss3.4sqi.net/img/categories_v2/shops/default_", "suffix": ".png"}, "primary": true}], "photos": {"count": 0, "groups": []}}, "referralId": "e-0-55910573498e00f47a961919-5"}, {"reasons": {"count": 0, "items": [{"summary": "This spot is popular", "type": "general", "reasonName": "globalInteractionReason"}]}, "venue": {"id": "4f0c1adbe4b020a8d94a0cbe", "name": "NETTO", "location": {"address": "Heckerdamm 240", "lat": 52.539886322271286, "lng": 13.29615003388567, "labeledLatLngs": [{"label": "display", "lat": 52.539886322271286, "lng": 13.29615003388567}], "distance": 139, "postalCode": "13627", "cc": "DE", "city": "Berlin", "state": "Berlin", "country": "Deutschland", "formattedAddress": ["Heckerdamm 240", "13627 Berlin", "Deutschland"]}, "categories": [{"id": "52f2ab2ebcbc57f1066b8b46", "name": "Supermarket", "pluralName": "Supermarkets", "shortName": "Supermarket", "icon": {"prefix": "https://ss3.4sqi.net/img/categories_v2/shops/food_grocery_", "suffix": ".png"}, "primary": true}], "photos": {"count": 0, "groups": []}, "venuePage": {"id": "455032120"}}, "referralId": "e-0-4f0c1adbe4b020a8d94a0cbe-6"}, {"reasons": {"count": 0, "items": [{"summary": "This spot is popular", "type": "general", "reasonName": "globalInteractionReason"}]}, "venue": {"id": "4bb21075f964a520ddb53ce3", "name": "Post Filiale", "location": {"address": "Heckerdamm 225-231", "lat": 52.53938734509769, "lng": 13.299353908210309, "labeledLatLngs": [{"label": "display", "lat": 52.53938734509769, "lng": 13.299353908210309}], "distance": 252, "postalCode": "13627", "cc": "DE", "city": "Berlin", "state": "Berlin", "country": "Deutschland", "formattedAddress": ["Heckerdamm 225-231", "13627 Berlin", "Deutschland"]}, "categories": [{"id": "4bf58dd8d48988d172941735", "name": "Post Office", "pluralName": "Post Offices", "shortName": "Post Office", "icon": {"prefix": "https://ss3.4sqi.net/img/categories_v2/building/postoffice_", "suffix": ".png"}, "primary": true}], "photos": {"count": 0, "groups": []}}, "referralId": "e-0-4bb21075f964a520ddb53ce3-7"}, {"reasons": {"count": 0, "items": [{"summary": "This spot is popular", "type": "general", "reasonName": "globalInteractionReason"}]}, "venue": {"id": "4b586223f964a5204e5528e3", "name": "U Jakob-Kaiser-Platz", "location": {"address": "Jakob-Kaiser-Platz", "crossStreet": "Kurt-Schmacher-Damm", "lat": 52.53678989472189, "lng": 13.294034854285265, "labeledLatLngs": [{"label": "display", "lat": 52.53678989472189, "lng": 13.294034854285265}], "distance": 512, "postalCode": "13627", "cc": "DE", "city": "Berlin", "state": "Berlin", "country": "Deutschland", "formattedAddress": ["Jakob-Kaiser-Platz (Kurt-Schmacher-Damm)", "13627 Berlin", "Deutschland"]}, "categories": [{"id": "4bf58dd8d48988d1fd931735", "name": "Metro Station", "pluralName": "Metro Stations", "shortName": "Metro", "icon": {"prefix": "https://ss3.4sqi.net/img/categories_v2/travel/subway_", "suffix": ".png"}, "primary": true}], "photos": {"count": 0, "groups": []}}, "referralId": "e-0-4b586223f964a5204e5528e3-8"}, {"reasons": {"count": 0, "items": [{"summary": "This spot is popular", "type": "general", "reasonName": "globalInteractionReason"}]}, "venue": {"id": "4f38d6dfe4b0d9574e6fb060", "name": "H U Jakob-Kaiser-Platz", "location": {"address": "Kurt-Schumacher-Damm", "crossStreet": "Jakob-Kaiser-Platz", "lat": 52.536748899048966, "lng": 13.293934680277783, "labeledLatLngs": [{"label": "display", "lat": 52.536748899048966, "lng": 13.293934680277783}], "distance": 518, "postalCode": "13627", "cc": "DE", "city": "Berlin", "state": "Berlin", "country": "Deutschland", "formattedAddress": ["Kurt-Schumacher-Damm (Jakob-Kaiser-Platz)", "13627 Berlin", "Deutschland"]}, "categories": [{"id": "52f2ab2ebcbc57f1066b8b4f", "name": "Bus Stop", "pluralName": "Bus Stops", "shortName": "Bus Stop", "icon": {"prefix": "https://ss3.4sqi.net/img/categories_v2/travel/busstation_", "suffix": ".png"}, "primary": true}], "photos": {"count": 0, "groups": []}}, "referralId": "e-0-4f38d6dfe4b0d9574e6fb060-9"}, {"reasons": {"count": 0, "items": [{"summary": "This spot is popular", "type": "general", "reasonName": "globalInteractionReason"}]}, "venue": {"id": "4eca86ffe5fa232a78b04c26", "name": "DFB St\u00fctzpunktraining Halle", "location": {"address": "Halenweg", "lat": 52.53672598376681, "lng": 13.293926255000747, "labeledLatLngs": [{"label": "display", "lat": 52.53672598376681, "lng": 13.293926255000747}], "distance": 521, "cc": "DE", "city": "Berlin", "state": "Berlin", "country": "Deutschland", "formattedAddress": ["Halenweg", "Berlin", "Deutschland"]}, "categories": [{"id": "4cce455aebf7b749d5e191f5", "name": "Soccer Field", "pluralName": "Soccer Fields", "shortName": "Soccer Field", "icon": {"prefix": "https://ss3.4sqi.net/img/categories_v2/arts_entertainment/stadium_soccer_", "suffix": ".png"}, "primary": true}], "photos": {"count": 0, "groups": []}}, "referralId": "e-0-4eca86ffe5fa232a78b04c26-10"}, {"reasons": {"count": 0, "items": [{"summary": "This spot is popular", "type": "general", "reasonName": "globalInteractionReason"}]}, "venue": {"id": "52179a9f11d2c61e36b21a96", "name": "Yucatan", "location": {"lat": 52.53539131505399, "lng": 13.301203378084828, "labeledLatLngs": [{"label": "display", "lat": 52.53539131505399, "lng": 13.301203378084828}], "distance": 696, "cc": "DE", "city": "Berlin", "state": "Berlin", "country": "Deutschland", "formattedAddress": ["Berlin", "Deutschland"]}, "categories": [{"id": "4bf58dd8d48988d1c1941735", "name": "Mexican Restaurant", "pluralName": "Mexican Restaurants", "shortName": "Mexican", "icon": {"prefix": "https://ss3.4sqi.net/img/categories_v2/food/mexican_", "suffix": ".png"}, "primary": true}], "photos": {"count": 0, "groups": []}}, "referralId": "e-0-52179a9f11d2c61e36b21a96-11"}, {"reasons": {"count": 0, "items": [{"summary": "This spot is popular", "type": "general", "reasonName": "globalInteractionReason"}]}, "venue": {"id": "4fdb2e25e4b08b8160987705", "name": "AS Saatwinkler Damm (10)", "location": {"address": "A 111", "lat": 52.547809337287774, "lng": 13.300366401672363, "labeledLatLngs": [{"label": "display", "lat": 52.547809337287774, "lng": 13.300366401672363}], "distance": 788, "cc": "DE", "city": "Berlin", "state": "Berlin", "country": "Deutschland", "formattedAddress": ["A 111", "Berlin", "Deutschland"]}, "categories": [{"id": "52f2ab2ebcbc57f1066b8b4c", "name": "Intersection", "pluralName": "Intersections", "shortName": "Intersection", "icon": {"prefix": "https://ss3.4sqi.net/img/categories_v2/travel/default_", "suffix": ".png"}, "primary": true}], "photos": {"count": 0, "groups": []}}, "referralId": "e-0-4fdb2e25e4b08b8160987705-12"}, {"reasons": {"count": 0, "items": [{"summary": "This spot is popular", "type": "general", "reasonName": "globalInteractionReason"}]}, "venue": {"id": "4f1f9257e4b0ec749bff39d5", "name": "TNT - FedEx Express", "location": {"address": "Adam-von-Trott-Strasse 1", "lat": 52.54385625487469, "lng": 13.307957211409303, "labeledLatLngs": [{"label": "display", "lat": 52.54385625487469, "lng": 13.307957211409303}], "distance": 814, "postalCode": "13627", "cc": "DE", "city": "Berlin", "state": "Berlin", "country": "Deutschland", "formattedAddress": ["Adam-von-Trott-Strasse 1", "13627 Berlin", "Deutschland"]}, "categories": [{"id": "5453de49498eade8af355881", "name": "Business Service", "pluralName": "Business Services", "shortName": "Business Services", "icon": {"prefix": "https://ss3.4sqi.net/img/categories_v2/building/default_", "suffix": ".png"}, "primary": true}], "photos": {"count": 0, "groups": []}}, "referralId": "e-0-4f1f9257e4b0ec749bff39d5-13"}, {"reasons": {"count": 0, "items": [{"summary": "This spot is popular", "type": "general", "reasonName": "globalInteractionReason"}]}, "venue": {"id": "4fc44b80e4b0d6790e8505f1", "name": "Fedex", "location": {"address": "Adam-von-Trott Stra\u00dfe 1", "lat": 52.54406, "lng": 13.30794, "labeledLatLngs": [{"label": "display", "lat": 52.54406, "lng": 13.30794}], "distance": 821, "postalCode": "13627", "cc": "DE", "city": "Berlin", "state": "Berlin", "country": "Deutschland", "formattedAddress": ["Adam-von-Trott Stra\u00dfe 1", "13627 Berlin", "Deutschland"]}, "categories": [{"id": "52f2ab2ebcbc57f1066b8b1f", "name": "Shipping Store", "pluralName": "Shipping Stores", "shortName": "Shipping Store", "icon": {"prefix": "https://ss3.4sqi.net/img/categories_v2/shops/default_", "suffix": ".png"}, "primary": true}], "photos": {"count": 0, "groups": []}}, "referralId": "e-0-4fc44b80e4b0d6790e8505f1-14"}, {"reasons": {"count": 0, "items": [{"summary": "This spot is popular", "type": "general", "reasonName": "globalInteractionReason"}]}, "venue": {"id": "4bd9e0f33904a5932e07449e", "name": "U Halemweg", "location": {"address": "Halemweg", "lat": 52.53679482116836, "lng": 13.286578027892837, "labeledLatLngs": [{"label": "display", "lat": 52.53679482116836, "lng": 13.286578027892837}], "distance": 841, "postalCode": "13627", "cc": "DE", "city": "Berlin", "state": "Berlin", "country": "Deutschland", "formattedAddress": ["Halemweg", "13627 Berlin", "Deutschland"]}, "categories": [{"id": "4bf58dd8d48988d1fd931735", "name": "Metro Station", "pluralName": "Metro Stations", "shortName": "Metro", "icon": {"prefix": "https://ss3.4sqi.net/img/categories_v2/travel/subway_", "suffix": ".png"}, "primary": true}], "photos": {"count": 0, "groups": []}}, "referralId": "e-0-4bd9e0f33904a5932e07449e-15"}, {"reasons": {"count": 0, "items": [{"summary": "This spot is popular", "type": "general", "reasonName": "globalInteractionReason"}]}, "venue": {"id": "51bcafde498edfddeb56447f", "name": "Netto Marken-Discount", "location": {"address": "Halemweg 17", "lat": 52.53696187, "lng": 13.28638584, "labeledLatLngs": [{"label": "display", "lat": 52.53696187, "lng": 13.28638584}], "distance": 842, "postalCode": "13627", "cc": "DE", "city": "Berlin", "state": "Berlin", "country": "Deutschland", "formattedAddress": ["Halemweg 17", "13627 Berlin", "Deutschland"]}, "categories": [{"id": "52f2ab2ebcbc57f1066b8b46", "name": "Supermarket", "pluralName": "Supermarkets", "shortName": "Supermarket", "icon": {"prefix": "https://ss3.4sqi.net/img/categories_v2/shops/food_grocery_", "suffix": ".png"}, "primary": true}], "photos": {"count": 0, "groups": []}, "venuePage": {"id": "536530130"}}, "referralId": "e-0-51bcafde498edfddeb56447f-16"}, {"reasons": {"count": 0, "items": [{"summary": "This spot is popular", "type": "general", "reasonName": "globalInteractionReason"}]}, "venue": {"id": "515fe563e4b07ee8102056b2", "name": "Steinecke", "location": {"address": "Halemweg 15 - 19", "lat": 52.5369109446849, "lng": 13.28623116016388, "labeledLatLngs": [{"label": "display", "lat": 52.5369109446849, "lng": 13.28623116016388}], "distance": 854, "postalCode": "13627", "cc": "DE", "city": "Berlin", "state": "Berlin", "country": "Deutschland", "formattedAddress": ["Halemweg 15 - 19", "13627 Berlin", "Deutschland"]}, "categories": [{"id": "4bf58dd8d48988d16a941735", "name": "Bakery", "pluralName": "Bakeries", "shortName": "Bakery", "icon": {"prefix": "https://ss3.4sqi.net/img/categories_v2/food/bakery_", "suffix": ".png"}, "primary": true}], "photos": {"count": 0, "groups": []}}, "referralId": "e-0-515fe563e4b07ee8102056b2-17"}, {"reasons": {"count": 0, "items": [{"summary": "This spot is popular", "type": "general", "reasonName": "globalInteractionReason"}]}, "venue": {"id": "516d87a2498e98432ea7bfb4", "name": "Call a Pizza", "location": {"address": "Halemweg 17-19", "lat": 52.536912602885245, "lng": 13.28591431767606, "labeledLatLngs": [{"label": "display", "lat": 52.536912602885245, "lng": 13.28591431767606}], "distance": 872, "postalCode": "13627", "cc": "DE", "city": "Berlin", "state": "Berlin", "country": "Deutschland", "formattedAddress": ["Halemweg 17-19", "13627 Berlin", "Deutschland"]}, "categories": [{"id": "4bf58dd8d48988d1ca941735", "name": "Pizza Place", "pluralName": "Pizza Places", "shortName": "Pizza", "icon": {"prefix": "https://ss3.4sqi.net/img/categories_v2/food/pizza_", "suffix": ".png"}, "primary": true}], "photos": {"count": 0, "groups": []}}, "referralId": "e-0-516d87a2498e98432ea7bfb4-18"}, {"reasons": {"count": 0, "items": [{"summary": "This spot is popular", "type": "general", "reasonName": "globalInteractionReason"}]}, "venue": {"id": "526fdac4498e11599977ce7d", "name": "H U Halemweg", "location": {"address": "Halemweg", "lat": 52.53639030557153, "lng": 13.286048176034763, "labeledLatLngs": [{"label": "display", "lat": 52.53639030557153, "lng": 13.286048176034763}], "distance": 897, "postalCode": "13627", "cc": "DE", "city": "Berlin", "state": "Berlin", "country": "Deutschland", "formattedAddress": ["Halemweg", "13627 Berlin", "Deutschland"]}, "categories": [{"id": "52f2ab2ebcbc57f1066b8b4f", "name": "Bus Stop", "pluralName": "Bus Stops", "shortName": "Bus Stop", "icon": {"prefix": "https://ss3.4sqi.net/img/categories_v2/travel/busstation_", "suffix": ".png"}, "primary": true}], "photos": {"count": 0, "groups": []}}, "referralId": "e-0-526fdac4498e11599977ce7d-19"}, {"reasons": {"count": 0, "items": [{"summary": "This spot is popular", "type": "general", "reasonName": "globalInteractionReason"}]}, "venue": {"id": "4e136cc8483bee47ff437aa3", "name": "Dreieck Charlottenburg (4) (13)", "location": {"address": "A 100", "crossStreet": "A 111", "lat": 52.5335059677515, "lng": 13.2914400100708, "labeledLatLngs": [{"label": "display", "lat": 52.5335059677515, "lng": 13.2914400100708}], "distance": 917, "postalCode": "13627", "cc": "DE", "city": "Berlin", "state": "Berlin", "country": "Deutschland", "formattedAddress": ["A 100 (A 111)", "13627 Berlin", "Deutschland"]}, "categories": [{"id": "52f2ab2ebcbc57f1066b8b4c", "name": "Intersection", "pluralName": "Intersections", "shortName": "Intersection", "icon": {"prefix": "https://ss3.4sqi.net/img/categories_v2/travel/default_", "suffix": ".png"}, "primary": true}], "photos": {"count": 0, "groups": []}}, "referralId": "e-0-4e136cc8483bee47ff437aa3-20"}, {"reasons": {"count": 0, "items": [{"summary": "This spot is popular", "type": "general", "reasonName": "globalInteractionReason"}]}, "venue": {"id": "512f107de4b0ac135c6073f2", "name": "Wursttreff", "location": {"address": "Saatwinkler Damm 71", "lat": 52.547906, "lng": 13.305212, "labeledLatLngs": [{"label": "display", "lat": 52.547906, "lng": 13.305212}], "distance": 949, "postalCode": "13627", "cc": "DE", "city": "Berlin", "state": "Berlin", "country": "Deutschland", "formattedAddress": ["Saatwinkler Damm 71", "13627 Berlin", "Deutschland"]}, "categories": [{"id": "4bf58dd8d48988d1df931735", "name": "BBQ Joint", "pluralName": "BBQ Joints", "shortName": "BBQ", "icon": {"prefix": "https://ss3.4sqi.net/img/categories_v2/food/bbqalt_", "suffix": ".png"}, "primary": true}], "photos": {"count": 0, "groups": []}}, "referralId": "e-0-512f107de4b0ac135c6073f2-21"}, {"reasons": {"count": 0, "items": [{"summary": "This spot is popular", "type": "general", "reasonName": "globalInteractionReason"}]}, "venue": {"id": "4bfe8ce04cf820a10c07eef4", "name": "H Luftfracht", "location": {"address": "Flughafen Tegel-Zubringer", "lat": 52.5498203009793, "lng": 13.29546496500668, "labeledLatLngs": [{"label": "display", "lat": 52.5498203009793, "lng": 13.29546496500668}], "distance": 979, "postalCode": "13405", "cc": "DE", "city": "Berlin", "state": "Berlin", "country": "Deutschland", "formattedAddress": ["Flughafen Tegel-Zubringer", "13405 Berlin", "Deutschland"]}, "categories": [{"id": "52f2ab2ebcbc57f1066b8b4f", "name": "Bus Stop", "pluralName": "Bus Stops", "shortName": "Bus Stop", "icon": {"prefix": "https://ss3.4sqi.net/img/categories_v2/travel/busstation_", "suffix": ".png"}, "primary": true}], "photos": {"count": 0, "groups": []}}, "referralId": "e-0-4bfe8ce04cf820a10c07eef4-22"}, {"reasons": {"count": 0, "items": [{"summary": "This spot is popular", "type": "general", "reasonName": "globalInteractionReason"}]}, "venue": {"id": "529d9df211d29843a94a9754", "name": "Vorfeldimbiss", "location": {"address": "Flughafen Tegel", "lat": 52.54987289596781, "lng": 13.295479673474109, "labeledLatLngs": [{"label": "display", "lat": 52.54987289596781, "lng": 13.295479673474109}], "distance": 985, "postalCode": "13405", "cc": "DE", "neighborhood": "Flughafen Tegel", "city": "Berlin", "state": "Berlin", "country": "Deutschland", "formattedAddress": ["Flughafen Tegel", "13405 Berlin", "Deutschland"]}, "categories": [{"id": "4bf58dd8d48988d1cb941735", "name": "Food Truck", "pluralName": "Food Trucks", "shortName": "Food Truck", "icon": {"prefix": "https://ss3.4sqi.net/img/categories_v2/food/streetfood_", "suffix": ".png"}, "primary": true}], "photos": {"count": 0, "groups": []}}, "referralId": "e-0-529d9df211d29843a94a9754-23"}, {"reasons": {"count": 0, "items": [{"summary": "This spot is popular", "type": "general", "reasonName": "globalInteractionReason"}]}, "venue": {"id": "5194ceed498e897f46d9a4e0", "name": "Luftfracht", "location": {"address": "Tegel", "lat": 52.549790102641694, "lng": 13.293433956846926, "labeledLatLngs": [{"label": "display", "lat": 52.549790102641694, "lng": 13.293433956846926}], "distance": 998, "cc": "DE", "city": "Berlin", "state": "Berlin", "country": "Deutschland", "formattedAddress": ["Tegel", "Berlin", "Deutschland"]}, "categories": [{"id": "4bf58dd8d48988d1ed931735", "name": "Airport", "pluralName": "Airports", "shortName": "Airport", "icon": {"prefix": "https://ss3.4sqi.net/img/categories_v2/travel/airport_", "suffix": ".png"}, "primary": true}], "photos": {"count": 0, "groups": []}}, "referralId": "e-0-5194ceed498e897f46d9a4e0-24"}]