[{"reasons": {"count": 0, "items": [{"summary": "This spot is popular", "type": "general", "reasonName": "globalInteractionReason"}]}, "venue": {"id": "4f356532e4b0d7a27cdc3269", "name": "Ajanta", "location": {"address": "Bahnhofstra\u00dfe 12", "lat": 52.4556006306489, "lng": 13.57699645118271, "labeledLatLngs": [{"label": "display", "lat": 52.4556006306489, "lng": 13.57699645118271}], "distance": 286, "postalCode": "12555", "cc": "DE", "city": "Berlin", "state": "Berlin", "country": "Deutschland", "formattedAddress": ["Bahnhofstra\u00dfe 12", "12555 Berlin", "Deutschland"]}, "categories": [{"id": "4bf58dd8d48988d10f941735", "name": "Indian Restaurant", "pluralName": "Indian Restaurants", "shortName": "Indian", "icon": {"prefix": "https://ss3.4sqi.net/img/categories_v2/food/indian_", "suffix": ".png"}, "primary": true}], "photos": {"count": 0, "groups": []}}, "referralId": "e-0-4f356532e4b0d7a27cdc3269-0"}, {"reasons": {"count": 0, "items": [{"summary": "This spot is popular", "type": "general", "reasonName": "globalInteractionReason"}]}, "venue": {"id": "4db309ca0cb6729b6a7702cb", "name": "Biergarten in der Freiheit F\u00fcnfzehn", "location": {"address": "Freiheit 15", "lat": 52.44777303997553, "lng": 13.576746067719105, "labeledLatLngs": [{"label": "display", "lat": 52.44777303997553, "lng": 13.576746067719105}], "distance": 670, "postalCode": "12555", "cc": "DE", "city": "Berlin", "state": "Berlin", "country": "Deutschland", "formattedAddress": ["Freiheit 15", "12555 Berlin", "Deutschland"]}, "categories": [{"id": "4bf58dd8d48988d117941735", "name": "Beer Garden", "pluralName": "Beer Gardens", "shortName": "Beer Garden", "icon": {"prefix": "https://ss3.4sqi.net/img/categories_v2/nightlife/beergarden_", "suffix": ".png"}, "primary": true}], "photos": {"count": 0, "groups": []}}, "referralId": "e-0-4db309ca0cb6729b6a7702cb-1"}, {"reasons": {"count": 0, "items": [{"summary": "This spot is popular", "type": "general", "reasonName": "globalInteractionReason"}]}, "venue": {"id": "4ce2da6fc4f6a35d3b19e36c", "name": "SuperFit", "location": {"address": "Bahnhofstr. 25", "lat": 52.45779552128846, "lng": 13.578670667376048, "labeledLatLngs": [{"label": "display", "lat": 52.45779552128846, "lng": 13.578670667376048}], "distance": 476, "postalCode": "12555", "cc": "DE", "city": "Berlin", "state": "Berlin", "country": "Deutschland", "formattedAddress": ["Bahnhofstr. 25", "12555 Berlin", "Deutschland"]}, "categories": [{"id": "4bf58dd8d48988d175941735", "name": "Gym / Fitness Center", "pluralName": "Gyms or Fitness Centers", "shortName": "Gym / Fitness", "icon": {"prefix": "https://ss3.4sqi.net/img/categories_v2/building/gym_", "suffix": ".png"}, "primary": true}], "photos": {"count": 0, "groups": []}}, "referralId": "e-0-4ce2da6fc4f6a35d3b19e36c-2"}, {"reasons": {"count": 0, "items": [{"summary": "This spot is popular", "type": "general", "reasonName": "globalInteractionReason"}]}, "venue": {"id": "4bae6d82f964a5200db13be3", "name": "Duke Bar", "location": {"address": "Freiheit 15", "lat": 52.44767286425836, "lng": 13.576494455337523, "labeledLatLngs": [{"label": "display", "lat": 52.44767286425836, "lng": 13.576494455337523}], "distance": 686, "postalCode": "12555", "cc": "DE", "city": "Berlin", "state": "Berlin", "country": "Deutschland", "formattedAddress": ["Freiheit 15", "12555 Berlin", "Deutschland"]}, "categories": [{"id": "4bf58dd8d48988d11e941735", "name": "Cocktail Bar", "pluralName": "Cocktail Bars", "shortName": "Cocktail", "icon": {"prefix": "https://ss3.4sqi.net/img/categories_v2/nightlife/cocktails_", "suffix": ".png"}, "primary": true}], "photos": {"count": 0, "groups": []}, "venuePage": {"id": "34425186"}}, "referralId": "e-0-4bae6d82f964a5200db13be3-3"}, {"reasons": {"count": 0, "items": [{"summary": "This spot is popular", "type": "general", "reasonName": "globalInteractionReason"}]}, "venue": {"id": "4ed8c4df8231efe38d58724d", "name": "Restaurant Sandmann", "location": {"address": "Parrisiusstr. 19", "lat": 52.45672854859737, "lng": 13.58083963394165, "labeledLatLngs": [{"label": "display", "lat": 52.45672854859737, "lng": 13.58083963394165}], "distance": 364, "postalCode": "12555", "cc": "DE", "city": "Berlin", "state": "Berlin", "country": "Deutschland", "formattedAddress": ["Parrisiusstr. 19", "12555 Berlin", "Deutschland"]}, "categories": [{"id": "4bf58dd8d48988d10d941735", "name": "German Restaurant", "pluralName": "German Restaurants", "shortName": "German", "icon": {"prefix": "https://ss3.4sqi.net/img/categories_v2/food/german_", "suffix": ".png"}, "primary": true}], "photos": {"count": 0, "groups": []}}, "referralId": "e-0-4ed8c4df8231efe38d58724d-4"}, {"reasons": {"count": 0, "items": [{"summary": "This spot is popular", "type": "general", "reasonName": "globalInteractionReason"}]}, "venue": {"id": "59fda1b0364d9770267dd868", "name": "Sektor 3", "location": {"address": "An der Wuhlheide 263", "lat": 52.45781247013437, "lng": 13.568544387817383, "labeledLatLngs": [{"label": "display", "lat": 52.45781247013437, "lng": 13.568544387817383}], "distance": 884, "postalCode": "12555", "cc": "DE", "city": "Berlin", "state": "Berlin", "country": "Deutschland", "formattedAddress": ["An der Wuhlheide 263", "12555 Berlin", "Deutschland"]}, "categories": [{"id": "4bf58dd8d48988d188941735", "name": "Soccer Stadium", "pluralName": "Soccer Stadiums", "shortName": "Soccer", "icon": {"prefix": "https://ss3.4sqi.net/img/categories_v2/arts_entertainment/stadium_soccer_", "suffix": ".png"}, "primary": true}], "photos": {"count": 0, "groups": []}}, "referralId": "e-0-59fda1b0364d9770267dd868-5"}, {"reasons": {"count": 0, "items": [{"summary": "This spot is popular", "type": "general", "reasonName": "globalInteractionReason"}]}, "venue": {"id": "5131d085e4b006d9ca093fe9", "name": "Union-Zeughaus Bahnhofstra\u00dfe", "location": {"address": "Bahnhofstra\u00dfe 23-25", "lat": 52.45767977775213, "lng": 13.57884407043457, "labeledLatLngs": [{"label": "display", "lat": 52.45767977775213, "lng": 13.57884407043457}], "distance": 462, "postalCode": "12555", "cc": "DE", "city": "Berlin", "state": "Berlin", "country": "Deutschland", "formattedAddress": ["Bahnhofstra\u00dfe 23-25", "12555 Berlin", "Deutschland"]}, "categories": [{"id": "4bf58dd8d48988d1f2941735", "name": "Sporting Goods Shop", "pluralName": "Sporting Goods Shops", "shortName": "Sporting Goods", "icon": {"prefix": "https://ss3.4sqi.net/img/categories_v2/shops/sports_outdoors_", "suffix": ".png"}, "primary": true}], "photos": {"count": 0, "groups": []}}, "referralId": "e-0-5131d085e4b006d9ca093fe9-6"}, {"reasons": {"count": 0, "items": [{"summary": "This spot is popular", "type": "general", "reasonName": "globalInteractionReason"}]}, "venue": {"id": "5379daf8498efa79122f0d1b", "name": "Asteria", "location": {"address": "Alt K\u00f6penick 6", "lat": 52.4470886325136, "lng": 13.574690281626037, "labeledLatLngs": [{"label": "display", "lat": 52.4470886325136, "lng": 13.574690281626037}], "distance": 791, "postalCode": "12555", "cc": "DE", "city": "Berlin", "state": "Berlin", "country": "Deutschland", "formattedAddress": ["Alt K\u00f6penick 6", "12555 K\u00f6penick", "Deutschland"]}, "categories": [{"id": "4bf58dd8d48988d10e941735", "name": "Greek Restaurant", "pluralName": "Greek Restaurants", "shortName": "Greek", "icon": {"prefix": "https://ss3.4sqi.net/img/categories_v2/food/greek_", "suffix": ".png"}, "primary": true}], "photos": {"count": 0, "groups": []}}, "referralId": "e-0-5379daf8498efa79122f0d1b-7"}, {"reasons": {"count": 0, "items": [{"summary": "This spot is popular", "type": "general", "reasonName": "globalInteractionReason"}]}, "venue": {"id": "4c93dbe582b56dcbff9ec9aa", "name": "Abseitsfalle", "location": {"address": "H\u00e4mmerlingstra\u00dfe 80", "lat": 52.45963122309717, "lng": 13.57307020247982, "labeledLatLngs": [{"label": "display", "lat": 52.45963122309717, "lng": 13.57307020247982}], "distance": 807, "cc": "DE", "city": "Berlin", "state": "Berlin", "country": "Deutschland", "formattedAddress": ["H\u00e4mmerlingstra\u00dfe 80", "Berlin", "Deutschland"]}, "categories": [{"id": "4bf58dd8d48988d116941735", "name": "Bar", "pluralName": "Bars", "shortName": "Bar", "icon": {"prefix": "https://ss3.4sqi.net/img/categories_v2/nightlife/pub_", "suffix": ".png"}, "primary": true}], "photos": {"count": 0, "groups": []}}, "referralId": "e-0-4c93dbe582b56dcbff9ec9aa-8"}, {"reasons": {"count": 0, "items": [{"summary": "This spot is popular", "type": "general", "reasonName": "globalInteractionReason"}]}, "venue": {"id": "56d58d88498eae82c228c2a5", "name": "Caf\u00e9 Anton\u00ed", "location": {"address": "Gr\u00fcnstr. 10", "lat": 52.44481, "lng": 13.57603, "labeledLatLngs": [{"label": "display", "lat": 52.44481, "lng": 13.57603}], "distance": 1001, "cc": "DE", "city": "Berlin", "state": "Berlin", "country": "Deutschland", "formattedAddress": ["Gr\u00fcnstr. 10", "Berlin", "Deutschland"]}, "categories": [{"id": "4bf58dd8d48988d16d941735", "name": "Caf\u00e9", "pluralName": "Caf\u00e9s", "shortName": "Caf\u00e9", "icon": {"prefix": "https://ss3.4sqi.net/img/categories_v2/food/cafe_", "suffix": ".png"}, "primary": true}], "photos": {"count": 0, "groups": []}}, "referralId": "e-0-56d58d88498eae82c228c2a5-9"}, {"reasons": {"count": 0, "items": [{"summary": "This spot is popular", "type": "general", "reasonName": "globalInteractionReason"}]}, "venue": {"id": "4bb73e6c1344b713257b9e04", "name": "Stadion An der Alten F\u00f6rsterei", "location": {"address": "An der Wuhlheide 263", "lat": 52.457305, "lng": 13.567941, "labeledLatLngs": [{"label": "display", "lat": 52.457305, "lng": 13.567941}], "distance": 891, "postalCode": "12555", "cc": "DE", "city": "Berlin", "state": "Berlin", "country": "Deutschland", "formattedAddress": ["An der Wuhlheide 263", "12555 Berlin", "Deutschland"]}, "categories": [{"id": "4bf58dd8d48988d188941735", "name": "Soccer Stadium", "pluralName": "Soccer Stadiums", "shortName": "Soccer", "icon": {"prefix": "https://ss3.4sqi.net/img/categories_v2/arts_entertainment/stadium_soccer_", "suffix": ".png"}, "primary": true}], "photos": {"count": 0, "groups": []}, "venuePage": {"id": "68746144"}}, "referralId": "e-0-4bb73e6c1344b713257b9e04-10"}, {"reasons": {"count": 0, "items": [{"summary": "This spot is popular", "type": "general", "reasonName": "globalInteractionReason"}]}, "venue": {"id": "4adcda88f964a520534921e3", "name": "Ratskeller K\u00f6penick", "location": {"address": "Alt-K\u00f6penick 21", "lat": 52.44558129407464, "lng": 13.57449759934094, "labeledLatLngs": [{"label": "display", "lat": 52.44558129407464, "lng": 13.57449759934094}], "distance": 950, "postalCode": "12555", "cc": "DE", "city": "Berlin", "state": "Berlin", "country": "Deutschland", "formattedAddress": ["Alt-K\u00f6penick 21", "12555 Berlin", "Deutschland"]}, "categories": [{"id": "4bf58dd8d48988d10d941735", "name": "German Restaurant", "pluralName": "German Restaurants", "shortName": "German", "icon": {"prefix": "https://ss3.4sqi.net/img/categories_v2/food/german_", "suffix": ".png"}, "primary": true}], "photos": {"count": 0, "groups": []}}, "referralId": "e-0-4adcda88f964a520534921e3-11"}, {"reasons": {"count": 0, "items": [{"summary": "This spot is popular", "type": "general", "reasonName": "globalInteractionReason"}]}, "venue": {"id": "53ceaf8a498ed335d809579e", "name": "Burgerb\u00fcro", "location": {"address": "Bahnhofstr. 32-38", "lat": 52.4575663, "lng": 13.57776452, "labeledLatLngs": [{"label": "display", "lat": 52.4575663, "lng": 13.57776452}], "distance": 463, "postalCode": "12555", "cc": "DE", "city": "Berlin", "state": "Berlin", "country": "Deutschland", "formattedAddress": ["Bahnhofstr. 32-38", "12555 Berlin", "Deutschland"]}, "categories": [{"id": "4bf58dd8d48988d16c941735", "name": "Burger Joint", "pluralName": "Burger Joints", "shortName": "Burgers", "icon": {"prefix": "https://ss3.4sqi.net/img/categories_v2/food/burger_", "suffix": ".png"}, "primary": true}], "photos": {"count": 0, "groups": []}, "venuePage": {"id": "565113790"}}, "referralId": "e-0-53ceaf8a498ed335d809579e-12"}, {"reasons": {"count": 0, "items": [{"summary": "This spot is popular", "type": "general", "reasonName": "globalInteractionReason"}]}, "venue": {"id": "50361641e4b06e9703ec7ef4", "name": "dm-drogerie markt", "location": {"address": "Bahnhofstra\u00dfe 25", "lat": 52.45792007446289, "lng": 13.579035758972168, "labeledLatLngs": [{"label": "display", "lat": 52.45792007446289, "lng": 13.579035758972168}], "distance": 487, "postalCode": "12555", "cc": "DE", "city": "Berlin", "state": "Berlin", "country": "Deutschland", "formattedAddress": ["Bahnhofstra\u00dfe 25", "12555 Berlin", "Deutschland"]}, "categories": [{"id": "5745c2e4498e11e7bccabdbd", "name": "Drugstore", "pluralName": "Drugstores", "shortName": "Drugstore", "icon": {"prefix": "https://ss3.4sqi.net/img/categories_v2/shops/pharmacy_", "suffix": ".png"}, "primary": true}], "photos": {"count": 0, "groups": []}, "venuePage": {"id": "449530749"}}, "referralId": "e-0-50361641e4b06e9703ec7ef4-13"}, {"reasons": {"count": 0, "items": [{"summary": "This spot is popular", "type": "general", "reasonName": "globalInteractionReason"}]}, "venue": {"id": "4d85fe2261676dcbd7b195e4", "name": "Mokkafee", "location": {"address": "Gr\u00fcnstr. 21", "lat": 52.44491801008545, "lng": 13.5755769793644, "labeledLatLngs": [{"label": "display", "lat": 52.44491801008545, "lng": 13.5755769793644}], "distance": 997, "postalCode": "12555", "cc": "DE", "city": "Berlin", "state": "Berlin", "country": "Deutschland", "formattedAddress": ["Gr\u00fcnstr. 21", "12555 Berlin", "Deutschland"]}, "categories": [{"id": "4bf58dd8d48988d16d941735", "name": "Caf\u00e9", "pluralName": "Caf\u00e9s", "shortName": "Caf\u00e9", "icon": {"prefix": "https://ss3.4sqi.net/img/categories_v2/food/cafe_", "suffix": ".png"}, "primary": true}], "photos": {"count": 0, "groups": []}}, "referralId": "e-0-4d85fe2261676dcbd7b195e4-14"}, {"reasons": {"count": 0, "items": [{"summary": "This spot is popular", "type": "general", "reasonName": "globalInteractionReason"}]}, "venue": {"id": "4e25e613b3ad13e5a2f1f292", "name": "Restaurant Lehmofen", "location": {"address": "Freiheit 12", "lat": 52.44795112918594, "lng": 13.5783131566226, "labeledLatLngs": [{"label": "display", "lat": 52.44795112918594, "lng": 13.5783131566226}], "distance": 628, "postalCode": "12555", "cc": "DE", "city": "Berlin", "state": "Berlin", "country": "Deutschland", "formattedAddress": ["Freiheit 12", "12555 Berlin", "Deutschland"]}, "categories": [{"id": "4bf58dd8d48988d115941735", "name": "Middle Eastern Restaurant", "pluralName": "Middle Eastern Restaurants", "shortName": "Middle Eastern", "icon": {"prefix": "https://ss3.4sqi.net/img/categories_v2/food/middleeastern_", "suffix": ".png"}, "primary": true}], "photos": {"count": 0, "groups": []}}, "referralId": "e-0-4e25e613b3ad13e5a2f1f292-15"}, {"reasons": {"count": 0, "items": [{"summary": "This spot is popular", "type": "general", "reasonName": "globalInteractionReason"}]}, "venue": {"id": "4ced0ab928abb60c29a2b509", "name": "Gesch\u00e4ftsstelle 1. FC Union Berlin", "location": {"address": "An der Wuhlheide 263", "lat": 52.45643434985291, "lng": 13.565647602081297, "labeledLatLngs": [{"label": "display", "lat": 52.45643434985291, "lng": 13.565647602081297}], "distance": 995, "postalCode": "12555", "cc": "DE", "city": "Berlin", "state": "Berlin", "country": "Deutschland", "formattedAddress": ["An der Wuhlheide 263", "12555 Berlin", "Deutschland"]}, "categories": [{"id": "52e81612bcbc57f1066b7a2e", "name": "Sports Club", "pluralName": "Sports Clubs", "shortName": "Sports Club", "icon": {"prefix": "https://ss3.4sqi.net/img/categories_v2/shops/sports_outdoors_", "suffix": ".png"}, "primary": true}], "photos": {"count": 0, "groups": []}, "venuePage": {"id": "59122612"}}, "referralId": "e-0-4ced0ab928abb60c29a2b509-16"}, {"reasons": {"count": 0, "items": [{"summary": "This spot is popular", "type": "general", "reasonName": "globalInteractionReason"}]}, "venue": {"id": "4ed7ae8f29c216b5c8df5377", "name": "Rossmann", "location": {"address": "Bahnhofstra\u00dfe 33-38", "lat": 52.45783079211367, "lng": 13.578304575871874, "labeledLatLngs": [{"label": "display", "lat": 52.45783079211367, "lng": 13.578304575871874}], "distance": 483, "postalCode": "12555", "cc": "DE", "city": "Berlin", "state": "Berlin", "country": "Deutschland", "formattedAddress": ["Bahnhofstra\u00dfe 33-38", "12555 Berlin", "Deutschland"]}, "categories": [{"id": "5745c2e4498e11e7bccabdbd", "name": "Drugstore", "pluralName": "Drugstores", "shortName": "Drugstore", "icon": {"prefix": "https://ss3.4sqi.net/img/categories_v2/shops/pharmacy_", "suffix": ".png"}, "primary": true}], "photos": {"count": 0, "groups": []}}, "referralId": "e-0-4ed7ae8f29c216b5c8df5377-17"}, {"reasons": {"count": 0, "items": [{"summary": "This spot is popular", "type": "general", "reasonName": "globalInteractionReason"}]}, "venue": {"id": "4c23482a502b95218e296e21", "name": "Altstadtcaf\u00e9 C\u00f6penick", "location": {"address": "Alt-K\u00f6penick 16", "lat": 52.44625517732477, "lng": 13.574837288493715, "labeledLatLngs": [{"label": "display", "lat": 52.44625517732477, "lng": 13.574837288493715}], "distance": 872, "postalCode": "12555", "cc": "DE", "city": "Berlin", "state": "Berlin", "country": "Deutschland", "formattedAddress": ["Alt-K\u00f6penick 16", "12555 Berlin", "Deutschland"]}, "categories": [{"id": "4bf58dd8d48988d16d941735", "name": "Caf\u00e9", "pluralName": "Caf\u00e9s", "shortName": "Caf\u00e9", "icon": {"prefix": "https://ss3.4sqi.net/img/categories_v2/food/cafe_", "suffix": ".png"}, "primary": true}], "photos": {"count": 0, "groups": []}}, "referralId": "e-0-4c23482a502b95218e296e21-18"}, {"reasons": {"count": 0, "items": [{"summary": "This spot is popular", "type": "general", "reasonName": "globalInteractionReason"}]}, "venue": {"id": "4c9e03c354c8a1cd0013894b", "name": "Milchkaffee", "location": {"address": "Kirchstr. 5", "lat": 52.44608643123333, "lng": 13.576188897667334, "labeledLatLngs": [{"label": "display", "lat": 52.44608643123333, "lng": 13.576188897667334}], "distance": 861, "postalCode": "12555", "cc": "DE", "city": "Berlin", "state": "Berlin", "country": "Deutschland", "formattedAddress": ["Kirchstr. 5", "12555 Berlin", "Deutschland"]}, "categories": [{"id": "4bf58dd8d48988d16d941735", "name": "Caf\u00e9", "pluralName": "Caf\u00e9s", "shortName": "Caf\u00e9", "icon": {"prefix": "https://ss3.4sqi.net/img/categories_v2/food/cafe_", "suffix": ".png"}, "primary": true}], "photos": {"count": 0, "groups": []}}, "referralId": "e-0-4c9e03c354c8a1cd0013894b-19"}, {"reasons": {"count": 0, "items": [{"summary": "This spot is popular", "type": "general", "reasonName": "globalInteractionReason"}]}, "venue": {"id": "4ff5a819e4b0cdc6b79637ec", "name": "H&M", "location": {"address": "Bahnhofstr. 33-38", "lat": 52.45781093789208, "lng": 13.578031137476502, "labeledLatLngs": [{"label": "display", "lat": 52.45781093789208, "lng": 13.578031137476502}], "distance": 485, "postalCode": "12555", "cc": "DE", "city": "Berlin", "state": "Berlin", "country": "Deutschland", "formattedAddress": ["Bahnhofstr. 33-38", "12555 Berlin", "Deutschland"]}, "categories": [{"id": "4bf58dd8d48988d103951735", "name": "Clothing Store", "pluralName": "Clothing Stores", "shortName": "Apparel", "icon": {"prefix": "https://ss3.4sqi.net/img/categories_v2/shops/apparel_", "suffix": ".png"}, "primary": true}], "photos": {"count": 0, "groups": []}}, "referralId": "e-0-4ff5a819e4b0cdc6b79637ec-20"}, {"reasons": {"count": 0, "items": [{"summary": "This spot is popular", "type": "general", "reasonName": "globalInteractionReason"}]}, "venue": {"id": "4ff5b551e4b0c98ddc27eadd", "name": "C&A", "location": {"address": "Bahnhofstr. 33-38", "lat": 52.45837752876698, "lng": 13.576572504964156, "labeledLatLngs": [{"label": "display", "lat": 52.45837752876698, "lng": 13.576572504964156}], "distance": 574, "postalCode": "12555", "cc": "DE", "city": "Berlin", "state": "Berlin", "country": "Deutschland", "formattedAddress": ["Bahnhofstr. 33-38", "12555 Berlin", "Deutschland"]}, "categories": [{"id": "4bf58dd8d48988d103951735", "name": "Clothing Store", "pluralName": "Clothing Stores", "shortName": "Apparel", "icon": {"prefix": "https://ss3.4sqi.net/img/categories_v2/shops/apparel_", "suffix": ".png"}, "primary": true}], "photos": {"count": 0, "groups": []}}, "referralId": "e-0-4ff5b551e4b0c98ddc27eadd-21"}, {"reasons": {"count": 0, "items": [{"summary": "This spot is popular", "type": "general", "reasonName": "globalInteractionReason"}]}, "venue": {"id": "50423e2ae4b09ae79bd7fe34", "name": "TK Maxx", "location": {"address": "Bahnhofstr. 33-38", "lat": 52.457994076497265, "lng": 13.578782500574658, "labeledLatLngs": [{"label": "display", "lat": 52.457994076497265, "lng": 13.578782500574658}], "distance": 497, "postalCode": "12555", "cc": "DE", "city": "Berlin", "state": "Berlin", "country": "Deutschland", "formattedAddress": ["Bahnhofstr. 33-38", "12555 Berlin", "Deutschland"]}, "categories": [{"id": "4bf58dd8d48988d103951735", "name": "Clothing Store", "pluralName": "Clothing Stores", "shortName": "Apparel", "icon": {"prefix": "https://ss3.4sqi.net/img/categories_v2/shops/apparel_", "suffix": ".png"}, "primary": true}], "photos": {"count": 0, "groups": []}}, "referralId": "e-0-50423e2ae4b09ae79bd7fe34-22"}, {"reasons": {"count": 0, "items": [{"summary": "This spot is popular", "type": "general", "reasonName": "globalInteractionReason"}]}, "venue": {"id": "4ed4c4655c5c6e2492ed048b", "name": "BackWerk", "location": {"address": "Bahnhofstr. 33-38", "crossStreet": "Forum K\u00f6penick", "lat": 52.45741168679716, "lng": 13.578547290027927, "labeledLatLngs": [{"label": "display", "lat": 52.45741168679716, "lng": 13.578547290027927}], "distance": 435, "postalCode": "12555", "cc": "DE", "city": "Berlin", "state": "Berlin", "country": "Deutschland", "formattedAddress": ["Bahnhofstr. 33-38 (Forum K\u00f6penick)", "12555 Berlin", "Deutschland"]}, "categories": [{"id": "4bf58dd8d48988d16a941735", "name": "Bakery", "pluralName": "Bakeries", "shortName": "Bakery", "icon": {"prefix": "https://ss3.4sqi.net/img/categories_v2/food/bakery_", "suffix": ".png"}, "primary": true}], "photos": {"count": 0, "groups": []}, "venuePage": {"id": "564863908"}}, "referralId": "e-0-4ed4c4655c5c6e2492ed048b-23"}, {"reasons": {"count": 0, "items": [{"summary": "This spot is popular", "type": "general", "reasonName": "globalInteractionReason"}]}, "venue": {"id": "51421e07e4b0fb9a2f9394f0", "name": "Vero Ristorante", "location": {"address": "Alt K\u00f6penick 20", "lat": 52.44598383982776, "lng": 13.574881710370088, "labeledLatLngs": [{"label": "display", "lat": 52.44598383982776, "lng": 13.574881710370088}], "distance": 899, "postalCode": "12555", "cc": "DE", "city": "Berlin", "state": "Berlin", "country": "Deutschland", "formattedAddress": ["Alt K\u00f6penick 20", "12555 Berlin", "Deutschland"]}, "categories": [{"id": "4bf58dd8d48988d110941735", "name": "Italian Restaurant", "pluralName": "Italian Restaurants", "shortName": "Italian", "icon": {"prefix": "https://ss3.4sqi.net/img/categories_v2/food/italian_", "suffix": ".png"}, "primary": true}], "photos": {"count": 0, "groups": []}}, "referralId": "e-0-51421e07e4b0fb9a2f9394f0-24"}, {"reasons": {"count": 0, "items": [{"summary": "This spot is popular", "type": "general", "reasonName": "globalInteractionReason"}]}, "venue": {"id": "4c08956da1b32d7ff85696f0", "name": "Mandrellaplatz", "location": {"address": "Puchanstra\u00dfe", "crossStreet": "Seelenbinderstra\u00dfe", "lat": 52.45515794309953, "lng": 13.579746166356056, "labeledLatLngs": [{"label": "display", "lat": 52.45515794309953, "lng": 13.579746166356056}], "distance": 179, "cc": "DE", "city": "Berlin", "state": "Berlin", "country": "Deutschland", "formattedAddress": ["Puchanstra\u00dfe (Seelenbinderstra\u00dfe)", "Berlin", "Deutschland"]}, "categories": [{"id": "4bf58dd8d48988d164941735", "name": "Plaza", "pluralName": "Plazas", "shortName": "Plaza", "icon": {"prefix": "https://ss3.4sqi.net/img/categories_v2/parks_outdoors/plaza_", "suffix": ".png"}, "primary": true}], "photos": {"count": 0, "groups": []}}, "referralId": "e-0-4c08956da1b32d7ff85696f0-25"}, {"reasons": {"count": 0, "items": [{"summary": "This spot is popular", "type": "general", "reasonName": "globalInteractionReason"}]}, "venue": {"id": "4bd34c6c41b9ef3bf7cfffe5", "name": "Kaufland", "location": {"address": "Friedrichshagener Str. 38-42", "lat": 52.45220545709371, "lng": 13.586724804920372, "labeledLatLngs": [{"label": "display", "lat": 52.45220545709371, "lng": 13.586724804920372}], "distance": 509, "postalCode": "12555", "cc": "DE", "city": "Berlin-K\u00f6penick", "state": "Berlin", "country": "Deutschland", "formattedAddress": ["Friedrichshagener Str. 38-42", "12555 Berlin-K\u00f6penick", "Deutschland"]}, "categories": [{"id": "52f2ab2ebcbc57f1066b8b42", "name": "Big Box Store", "pluralName": "Big Box Stores", "shortName": "Big Box Store", "icon": {"prefix": "https://ss3.4sqi.net/img/categories_v2/shops/default_", "suffix": ".png"}, "primary": true}], "photos": {"count": 0, "groups": []}, "venuePage": {"id": "455564870"}}, "referralId": "e-0-4bd34c6c41b9ef3bf7cfffe5-26"}, {"reasons": {"count": 0, "items": [{"summary": "This spot is popular", "type": "general", "reasonName": "globalInteractionReason"}]}, "venue": {"id": "4d26239395e8f04d1719404d", "name": "Luise", "location": {"address": "Alt-K\u00f6penick 20", "lat": 52.44593578772007, "lng": 13.573819616315847, "labeledLatLngs": [{"label": "display", "lat": 52.44593578772007, "lng": 13.573819616315847}], "distance": 932, "postalCode": "12555", "cc": "DE", "city": "Berlin", "state": "Berlin", "country": "Deutschland", "formattedAddress": ["Alt-K\u00f6penick 20", "12555 Berlin", "Deutschland"]}, "categories": [{"id": "4bf58dd8d48988d10d941735", "name": "German Restaurant", "pluralName": "German Restaurants", "shortName": "German", "icon": {"prefix": "https://ss3.4sqi.net/img/categories_v2/food/german_", "suffix": ".png"}, "primary": true}], "photos": {"count": 0, "groups": []}}, "referralId": "e-0-4d26239395e8f04d1719404d-27"}, {"reasons": {"count": 0, "items": [{"summary": "This spot is popular", "type": "general", "reasonName": "globalInteractionReason"}]}, "venue": {"id": "5040e9bce4b09fb67a65edf4", "name": "Saturn", "location": {"address": "Elcknerplatz 8", "lat": 52.457934742899354, "lng": 13.579935729503632, "labeledLatLngs": [{"label": "display", "lat": 52.457934742899354, "lng": 13.579935729503632}], "distance": 488, "postalCode": "12555", "cc": "DE", "city": "Berlin", "state": "Berlin", "country": "Deutschland", "formattedAddress": ["Elcknerplatz 8", "12555 Berlin", "Deutschland"]}, "categories": [{"id": "4bf58dd8d48988d122951735", "name": "Electronics Store", "pluralName": "Electronics Stores", "shortName": "Electronics", "icon": {"prefix": "https://ss3.4sqi.net/img/categories_v2/shops/technology_", "suffix": ".png"}, "primary": true}], "photos": {"count": 0, "groups": []}}, "referralId": "e-0-5040e9bce4b09fb67a65edf4-28"}, {"reasons": {"count": 0, "items": [{"summary": "This spot is popular", "type": "general", "reasonName": "globalInteractionReason"}]}, "venue": {"id": "4e6b3548ae60950955d15718", "name": "H Bahnhofstra\u00dfe / Seelenbinderstra\u00dfe", "location": {"address": "Bahnhofstra\u00dfe", "crossStreet": "Seelenbinderstra\u00dfe", "lat": 52.45539483188006, "lng": 13.576869964599608, "labeledLatLngs": [{"label": "display", "lat": 52.45539483188006, "lng": 13.576869964599608}], "distance": 274, "postalCode": "12555", "cc": "DE", "city": "Berlin", "state": "Berlin", "country": "Deutschland", "formattedAddress": ["Bahnhofstra\u00dfe (Seelenbinderstra\u00dfe)", "12555 Berlin", "Deutschland"]}, "categories": [{"id": "52f2ab2ebcbc57f1066b8b51", "name": "Tram Station", "pluralName": "Tram Stations", "shortName": "Tram", "icon": {"prefix": "https://ss3.4sqi.net/img/categories_v2/travel/trainstation_", "suffix": ".png"}, "primary": true}], "photos": {"count": 0, "groups": []}}, "referralId": "e-0-4e6b3548ae60950955d15718-29"}, {"reasons": {"count": 0, "items": [{"summary": "This spot is popular", "type": "general", "reasonName": "globalInteractionReason"}]}, "venue": {"id": "4fa65acfe4b0dd0f134a81dd", "name": "Caf\u00e9 Co\u00e9", "location": {"address": "Am Generalshof 3", "lat": 52.4524396410632, "lng": 13.574931233276647, "labeledLatLngs": [{"label": "display", "lat": 52.4524396410632, "lng": 13.574931233276647}], "distance": 336, "postalCode": "12555", "cc": "DE", "city": "Berlin", "state": "Berlin", "country": "Deutschland", "formattedAddress": ["Am Generalshof 3", "12555 Berlin", "Deutschland"]}, "categories": [{"id": "4bf58dd8d48988d16d941735", "name": "Caf\u00e9", "pluralName": "Caf\u00e9s", "shortName": "Caf\u00e9", "icon": {"prefix": "https://ss3.4sqi.net/img/categories_v2/food/cafe_", "suffix": ".png"}, "primary": true}], "photos": {"count": 0, "groups": []}}, "referralId": "e-0-4fa65acfe4b0dd0f134a81dd-30"}, {"reasons": {"count": 0, "items": [{"summary": "This spot is popular", "type": "general", "reasonName": "globalInteractionReason"}]}, "venue": {"id": "517fde21e4b085cc8d2a89f5", "name": "Anlegestelle Lindenstra\u00dfe", "location": {"lat": 52.45100021362305, "lng": 13.573729515075684, "labeledLatLngs": [{"label": "display", "lat": 52.45100021362305, "lng": 13.573729515075684}], "distance": 485, "cc": "DE", "country": "Deutschland", "formattedAddress": ["Deutschland"]}, "categories": [{"id": "4bf58dd8d48988d12d951735", "name": "Boat or Ferry", "pluralName": "Boats or Ferries", "shortName": "Boat / Ferry", "icon": {"prefix": "https://ss3.4sqi.net/img/categories_v2/travel/boat_", "suffix": ".png"}, "primary": true}], "photos": {"count": 0, "groups": []}}, "referralId": "e-0-517fde21e4b085cc8d2a89f5-31"}, {"reasons": {"count": 0, "items": [{"summary": "This spot is popular", "type": "general", "reasonName": "globalInteractionReason"}]}, "venue": {"id": "4f9ea80de4b0d2a3aaec57d9", "name": "Eiscafe Lampe", "location": {"lat": 52.45794182403635, "lng": 13.57774190593927, "labeledLatLngs": [{"label": "display", "lat": 52.45794182403635, "lng": 13.57774190593927}], "distance": 504, "cc": "DE", "country": "Deutschland", "formattedAddress": ["Deutschland"]}, "categories": [{"id": "4bf58dd8d48988d16d941735", "name": "Caf\u00e9", "pluralName": "Caf\u00e9s", "shortName": "Caf\u00e9", "icon": {"prefix": "https://ss3.4sqi.net/img/categories_v2/food/cafe_", "suffix": ".png"}, "primary": true}], "photos": {"count": 0, "groups": []}}, "referralId": "e-0-4f9ea80de4b0d2a3aaec57d9-32"}, {"reasons": {"count": 0, "items": [{"summary": "This spot is popular", "type": "general", "reasonName": "globalInteractionReason"}]}, "venue": {"id": "4c73b3b73c26ef3b4fe0e5d5", "name": "Thalia", "location": {"address": "Bahnhofstr. 33-38", "lat": 52.458082889441535, "lng": 13.577949925550675, "labeledLatLngs": [{"label": "display", "lat": 52.458082889441535, "lng": 13.577949925550675}], "distance": 516, "postalCode": "12555", "cc": "DE", "city": "Berlin", "state": "Berlin", "country": "Deutschland", "formattedAddress": ["Bahnhofstr. 33-38", "12555 Berlin", "Deutschland"]}, "categories": [{"id": "4bf58dd8d48988d114951735", "name": "Bookstore", "pluralName": "Bookstores", "shortName": "Bookstore", "icon": {"prefix": "https://ss3.4sqi.net/img/categories_v2/shops/bookstore_", "suffix": ".png"}, "primary": true}], "photos": {"count": 0, "groups": []}}, "referralId": "e-0-4c73b3b73c26ef3b4fe0e5d5-33"}, {"reasons": {"count": 0, "items": [{"summary": "This spot is popular", "type": "general", "reasonName": "globalInteractionReason"}]}, "venue": {"id": "50506351e4b02c1144c359e4", "name": "Schlemmer-Oase", "location": {"address": "Bahnhofstr. 33-38", "lat": 52.45814067520969, "lng": 13.57835054397583, "labeledLatLngs": [{"label": "display", "lat": 52.45814067520969, "lng": 13.57835054397583}], "distance": 517, "postalCode": "12555", "cc": "DE", "city": "Berlin", "state": "Berlin", "country": "Deutschland", "formattedAddress": ["Bahnhofstr. 33-38", "12555 Berlin", "Deutschland"]}, "categories": [{"id": "4bf58dd8d48988d120951735", "name": "Food Court", "pluralName": "Food Courts", "shortName": "Food Court", "icon": {"prefix": "https://ss3.4sqi.net/img/categories_v2/shops/food_foodcourt_", "suffix": ".png"}, "primary": true}], "photos": {"count": 0, "groups": []}}, "referralId": "e-0-50506351e4b02c1144c359e4-34"}, {"reasons": {"count": 0, "items": [{"summary": "This spot is popular", "type": "general", "reasonName": "globalInteractionReason"}]}, "venue": {"id": "4e4bf66f62e1ce23e57c632a", "name": "MediMax", "location": {"address": "Bahnhofstr. 33-38", "lat": 52.458143815234145, "lng": 13.577679791052615, "labeledLatLngs": [{"label": "display", "lat": 52.458143815234145, "lng": 13.577679791052615}], "distance": 526, "postalCode": "12555", "cc": "DE", "city": "Berlin", "state": "Berlin", "country": "Deutschland", "formattedAddress": ["Bahnhofstr. 33-38", "12555 Berlin", "Deutschland"]}, "categories": [{"id": "4bf58dd8d48988d122951735", "name": "Electronics Store", "pluralName": "Electronics Stores", "shortName": "Electronics", "icon": {"prefix": "https://ss3.4sqi.net/img/categories_v2/shops/technology_", "suffix": ".png"}, "primary": true}], "photos": {"count": 0, "groups": []}}, "referralId": "e-0-4e4bf66f62e1ce23e57c632a-35"}, {"reasons": {"count": 0, "items": [{"summary": "This spot is popular", "type": "general", "reasonName": "globalInteractionReason"}]}, "venue": {"id": "4e68f1e1b61c7d64799c3b4b", "name": "Berliner Sparkasse", "location": {"address": "Bahnhofstr.", "lat": 52.45845199932607, "lng": 13.579226395188854, "labeledLatLngs": [{"label": "display", "lat": 52.45845199932607, "lng": 13.579226395188854}], "distance": 546, "postalCode": "12555", "cc": "DE", "city": "Berlin", "state": "Berlin", "country": "Deutschland", "formattedAddress": ["Bahnhofstr.", "12555 Berlin", "Deutschland"]}, "categories": [{"id": "4bf58dd8d48988d10a951735", "name": "Bank", "pluralName": "Banks", "shortName": "Bank", "icon": {"prefix": "https://ss3.4sqi.net/img/categories_v2/shops/financial_", "suffix": ".png"}, "primary": true}], "photos": {"count": 0, "groups": []}}, "referralId": "e-0-4e68f1e1b61c7d64799c3b4b-36"}, {"reasons": {"count": 0, "items": [{"summary": "This spot is popular", "type": "general", "reasonName": "globalInteractionReason"}]}, "venue": {"id": "4c7121cab5a5236aab285252", "name": "Waschhaus Alt K\u00f6penick", "location": {"address": "Katzengraben 19", "lat": 52.44603966065188, "lng": 13.580177447960414, "labeledLatLngs": [{"label": "display", "lat": 52.44603966065188, "lng": 13.580177447960414}], "distance": 837, "postalCode": "12555", "cc": "DE", "city": "Berlin", "state": "Berlin", "country": "Deutschland", "formattedAddress": ["Katzengraben 19", "12555 Berlin", "Deutschland"]}, "categories": [{"id": "4bf58dd8d48988d10d941735", "name": "German Restaurant", "pluralName": "German Restaurants", "shortName": "German", "icon": {"prefix": "https://ss3.4sqi.net/img/categories_v2/food/german_", "suffix": ".png"}, "primary": true}], "photos": {"count": 0, "groups": []}, "venuePage": {"id": "569653404"}}, "referralId": "e-0-4c7121cab5a5236aab285252-37"}, {"reasons": {"count": 0, "items": [{"summary": "This spot is popular", "type": "general", "reasonName": "globalInteractionReason"}]}, "venue": {"id": "4b289848f964a5201f9424e3", "name": "S K\u00f6penick", "location": {"address": "Bahnhofstr. 1", "lat": 52.458892944940544, "lng": 13.580516315661974, "labeledLatLngs": [{"label": "display", "lat": 52.458892944940544, "lng": 13.580516315661974}], "distance": 598, "postalCode": "12555", "cc": "DE", "city": "Berlin", "state": "Berlin", "country": "Deutschland", "formattedAddress": ["Bahnhofstr. 1", "12555 Berlin", "Deutschland"]}, "categories": [{"id": "4bf58dd8d48988d1fc931735", "name": "Light Rail Station", "pluralName": "Light Rail Stations", "shortName": "Light Rail", "icon": {"prefix": "https://ss3.4sqi.net/img/categories_v2/travel/lightrail_", "suffix": ".png"}, "primary": true}], "photos": {"count": 0, "groups": []}}, "referralId": "e-0-4b289848f964a5201f9424e3-38"}, {"reasons": {"count": 0, "items": [{"summary": "This spot is popular", "type": "general", "reasonName": "globalInteractionReason"}]}, "venue": {"id": "4f33c090e4b0a2c6ac660dd4", "name": "Segafredo", "location": {"lat": 52.45866057043067, "lng": 13.576802069847945, "labeledLatLngs": [{"label": "display", "lat": 52.45866057043067, "lng": 13.576802069847945}], "distance": 598, "cc": "DE", "city": "Berlin - K\u00f6penick", "state": "Berlin", "country": "Deutschland", "formattedAddress": ["Berlin-K\u00f6penick", "Deutschland"]}, "categories": [{"id": "4bf58dd8d48988d16d941735", "name": "Caf\u00e9", "pluralName": "Caf\u00e9s", "shortName": "Caf\u00e9", "icon": {"prefix": "https://ss3.4sqi.net/img/categories_v2/food/cafe_", "suffix": ".png"}, "primary": true}], "photos": {"count": 0, "groups": []}}, "referralId": "e-0-4f33c090e4b0a2c6ac660dd4-39"}, {"reasons": {"count": 0, "items": [{"summary": "This spot is popular", "type": "general", "reasonName": "globalInteractionReason"}]}, "venue": {"id": "4c34bd57ed37a59301646f03", "name": "Ristorante Isola di Capri", "location": {"address": "Alt-K\u00f6penick 1", "lat": 52.447904, "lng": 13.575543, "labeledLatLngs": [{"label": "display", "lat": 52.447904, "lng": 13.575543}], "distance": 684, "postalCode": "12555", "cc": "DE", "city": "Berlin", "state": "Berlin", "country": "Deutschland", "formattedAddress": ["Alt-K\u00f6penick 1", "12555 Berlin", "Deutschland"]}, "categories": [{"id": "4bf58dd8d48988d110941735", "name": "Italian Restaurant", "pluralName": "Italian Restaurants", "shortName": "Italian", "icon": {"prefix": "https://ss3.4sqi.net/img/categories_v2/food/italian_", "suffix": ".png"}, "primary": true}], "photos": {"count": 0, "groups": []}}, "referralId": "e-0-4c34bd57ed37a59301646f03-40"}, {"reasons": {"count": 0, "items": [{"summary": "This spot is popular", "type": "general", "reasonName": "globalInteractionReason"}]}, "venue": {"id": "586a68ac0a3d542ac8665c04", "name": "Futranplatz", "location": {"lat": 52.446843, "lng": 13.578457, "labeledLatLngs": [{"label": "display", "lat": 52.446843, "lng": 13.578457}], "distance": 750, "cc": "DE", "city": "Berlin-K\u00f6penick", "state": "Berlin", "country": "Deutschland", "formattedAddress": ["Berlin-K\u00f6penick", "Deutschland"]}, "categories": [{"id": "4bf58dd8d48988d164941735", "name": "Plaza", "pluralName": "Plazas", "shortName": "Plaza", "icon": {"prefix": "https://ss3.4sqi.net/img/categories_v2/parks_outdoors/plaza_", "suffix": ".png"}, "primary": true}], "photos": {"count": 0, "groups": []}}, "referralId": "e-0-586a68ac0a3d542ac8665c04-41"}, {"reasons": {"count": 0, "items": [{"summary": "This spot is popular", "type": "general", "reasonName": "globalInteractionReason"}]}, "venue": {"id": "5ee375a066aa41666a808eef", "name": "Galabau Artists", "location": {"address": "Stellingdamm 15", "lat": 52.45938238, "lng": 13.58552921, "labeledLatLngs": [{"label": "display", "lat": 52.45938238, "lng": 13.58552921}], "distance": 765, "postalCode": "12555", "cc": "DE", "city": "Berlin", "state": "Berlin", "country": "Deutschland", "formattedAddress": ["Stellingdamm 15", "12555 Berlin", "Deutschland"]}, "categories": [{"id": "4bf58dd8d48988d15a941735", "name": "Garden", "pluralName": "Gardens", "shortName": "Garden", "icon": {"prefix": "https://ss3.4sqi.net/img/categories_v2/parks_outdoors/garden_", "suffix": ".png"}, "primary": true}], "photos": {"count": 0, "groups": []}, "venuePage": {"id": "581303655"}}, "referralId": "e-0-5ee375a066aa41666a808eef-42"}, {"reasons": {"count": 0, "items": [{"summary": "This spot is popular", "type": "general", "reasonName": "globalInteractionReason"}]}, "venue": {"id": "51f56c9d498e264eafbaee0c", "name": "AQUARIS", "location": {"lat": 52.446314102850764, "lng": 13.580363299309553, "labeledLatLngs": [{"label": "display", "lat": 52.446314102850764, "lng": 13.580363299309553}], "distance": 807, "cc": "DE", "country": "Deutschland", "formattedAddress": ["Deutschland"]}, "categories": [{"id": "4bf58dd8d48988d1e0941735", "name": "Harbor / Marina", "pluralName": "Harbors / Marinas", "shortName": "Harbor / Marina", "icon": {"prefix": "https://ss3.4sqi.net/img/categories_v2/parks_outdoors/harbor_", "suffix": ".png"}, "primary": true}], "photos": {"count": 0, "groups": []}}, "referralId": "e-0-51f56c9d498e264eafbaee0c-43"}, {"reasons": {"count": 0, "items": [{"summary": "This spot is popular", "type": "general", "reasonName": "globalInteractionReason"}]}, "venue": {"id": "59eb25bc829b0c7a2708aa09", "name": "Sektor 4", "location": {"address": "An der Wuhlheide 263", "lat": 52.45692468000169, "lng": 13.568887710571289, "labeledLatLngs": [{"label": "display", "lat": 52.45692468000169, "lng": 13.568887710571289}], "distance": 814, "cc": "DE", "city": "Berlin", "state": "Berlin", "country": "Deutschland", "formattedAddress": ["An der Wuhlheide 263", "Berlin", "Deutschland"]}, "categories": [{"id": "4bf58dd8d48988d188941735", "name": "Soccer Stadium", "pluralName": "Soccer Stadiums", "shortName": "Soccer", "icon": {"prefix": "https://ss3.4sqi.net/img/categories_v2/arts_entertainment/stadium_soccer_", "suffix": ".png"}, "primary": true}], "photos": {"count": 0, "groups": []}}, "referralId": "e-0-59eb25bc829b0c7a2708aa09-44"}, {"reasons": {"count": 0, "items": [{"summary": "This spot is popular", "type": "general", "reasonName": "globalInteractionReason"}]}, "venue": {"id": "53b01066498e59958f2a8f76", "name": "Wuhlem\u00fcndung", "location": {"lat": 52.454946447179424, "lng": 13.567488507829772, "labeledLatLngs": [{"label": "display", "lat": 52.454946447179424, "lng": 13.567488507829772}], "distance": 832, "cc": "DE", "country": "Deutschland", "formattedAddress": ["Deutschland"]}, "categories": [{"id": "4eb1d4dd4b900d56c88a45fd", "name": "River", "pluralName": "Rivers", "shortName": "River", "icon": {"prefix": "https://ss3.4sqi.net/img/categories_v2/parks_outdoors/river_", "suffix": ".png"}, "primary": true}], "photos": {"count": 0, "groups": []}}, "referralId": "e-0-53b01066498e59958f2a8f76-45"}, {"reasons": {"count": 0, "items": [{"summary": "This spot is popular", "type": "general", "reasonName": "globalInteractionReason"}]}, "venue": {"id": "51a33ebe498ef6824f960944", "name": "M\u00fcggelspree", "location": {"address": "M\u00fcggelspree", "lat": 52.44630617691003, "lng": 13.582706451416014, "labeledLatLngs": [{"label": "display", "lat": 52.44630617691003, "lng": 13.582706451416014}], "distance": 834, "cc": "DE", "city": "Berlin", "state": "Berlin", "country": "Deutschland", "formattedAddress": ["M\u00fcggelspree", "Berlin", "Deutschland"]}, "categories": [{"id": "4eb1d4dd4b900d56c88a45fd", "name": "River", "pluralName": "Rivers", "shortName": "River", "icon": {"prefix": "https://ss3.4sqi.net/img/categories_v2/parks_outdoors/river_", "suffix": ".png"}, "primary": true}], "photos": {"count": 0, "groups": []}}, "referralId": "e-0-51a33ebe498ef6824f960944-46"}, {"reasons": {"count": 0, "items": [{"summary": "This spot is popular", "type": "general", "reasonName": "globalInteractionReason"}]}, "venue": {"id": "4c34958309a99c74ba2e0c2a", "name": "Mentzelpark", "location": {"address": "Mentzelstr. 33", "lat": 52.44818944795439, "lng": 13.569402694702148, "labeledLatLngs": [{"label": "display", "lat": 52.44818944795439, "lng": 13.569402694702148}], "distance": 910, "postalCode": "12555", "cc": "DE", "city": "Berlin", "state": "Berlin", "country": "Deutschland", "formattedAddress": ["Mentzelstr. 33", "12555 Berlin", "Deutschland"]}, "categories": [{"id": "4bf58dd8d48988d163941735", "name": "Park", "pluralName": "Parks", "shortName": "Park", "icon": {"prefix": "https://ss3.4sqi.net/img/categories_v2/parks_outdoors/park_", "suffix": ".png"}, "primary": true}], "photos": {"count": 0, "groups": []}}, "referralId": "e-0-4c34958309a99c74ba2e0c2a-47"}, {"reasons": {"count": 0, "items": [{"summary": "This spot is popular", "type": "general", "reasonName": "globalInteractionReason"}]}, "venue": {"id": "4f1a780ee4b035290d3f7938", "name": "Hauptmann von K\u00f6penick", "location": {"address": "Alt-K\u00f6penick 21", "crossStreet": "Rosenstr.", "lat": 52.445783031774795, "lng": 13.574638366699219, "labeledLatLngs": [{"label": "display", "lat": 52.445783031774795, "lng": 13.574638366699219}], "distance": 926, "postalCode": "12555", "cc": "DE", "city": "Berlin", "state": "Berlin", "country": "Deutschland", "formattedAddress": ["Alt-K\u00f6penick 21 (Rosenstr.)", "12555 Berlin", "Deutschland"]}, "categories": [{"id": "4bf58dd8d48988d12d941735", "name": "Monument / Landmark", "pluralName": "Monuments / Landmarks", "shortName": "Landmark", "icon": {"prefix": "https://ss3.4sqi.net/img/categories_v2/building/government_monument_", "suffix": ".png"}, "primary": true}], "photos": {"count": 0, "groups": []}}, "referralId": "e-0-4f1a780ee4b035290d3f7938-48"}, {"reasons": {"count": 0, "items": [{"summary": "This spot is popular", "type": "general", "reasonName": "globalInteractionReason"}]}, "venue": {"id": "4e54d2d8ae60e3d6b7f1d091", "name": "H Hirtestra\u00dfe / Janitzkystra\u00dfe", "location": {"address": "Hirtestr.", "crossStreet": "Janitzkystr.", "lat": 52.46153760721576, "lng": 13.583906051127368, "labeledLatLngs": [{"label": "display", "lat": 52.46153760721576, "lng": 13.583906051127368}], "distance": 937, "postalCode": "12555", "cc": "DE", "city": "Berlin", "state": "Berlin", "country": "Deutschland", "formattedAddress": ["Hirtestr. (Janitzkystr.)", "12555 Berlin", "Deutschland"]}, "categories": [{"id": "52f2ab2ebcbc57f1066b8b51", "name": "Tram Station", "pluralName": "Tram Stations", "shortName": "Tram", "icon": {"prefix": "https://ss3.4sqi.net/img/categories_v2/travel/trainstation_", "suffix": ".png"}, "primary": true}], "photos": {"count": 0, "groups": []}}, "referralId": "e-0-4e54d2d8ae60e3d6b7f1d091-49"}, {"reasons": {"count": 0, "items": [{"summary": "This spot is popular", "type": "general", "reasonName": "globalInteractionReason"}]}, "venue": {"id": "5358f3ec498eaf5cd053b860", "name": "Katzengraben", "location": {"address": "Katzengraben", "lat": 52.45360860542529, "lng": 13.565685577899478, "labeledLatLngs": [{"label": "display", "lat": 52.45360860542529, "lng": 13.565685577899478}], "distance": 940, "postalCode": "12555", "cc": "DE", "city": "Berlin", "state": "Berlin", "country": "Deutschland", "formattedAddress": ["Katzengraben", "12555 Berlin", "Deutschland"]}, "categories": [{"id": "4eb1d4dd4b900d56c88a45fd", "name": "River", "pluralName": "Rivers", "shortName": "River", "icon": {"prefix": "https://ss3.4sqi.net/img/categories_v2/parks_outdoors/river_", "suffix": ".png"}, "primary": true}], "photos": {"count": 0, "groups": []}}, "referralId": "e-0-5358f3ec498eaf5cd053b860-50"}, {"reasons": {"count": 0, "items": [{"summary": "This spot is popular", "type": "general", "reasonName": "globalInteractionReason"}]}, "venue": {"id": "511274bde4b09fcaae512d1a", "name": "H Bellevuestra\u00dfe", "location": {"address": "F\u00fcrstenwalder Damm", "crossStreet": "Bellevuestr.", "lat": 52.45305419214872, "lng": 13.593842983245848, "labeledLatLngs": [{"label": "display", "lat": 52.45305419214872, "lng": 13.593842983245848}], "distance": 971, "postalCode": "12555", "cc": "DE", "city": "Berlin", "state": "Berlin", "country": "Deutschland", "formattedAddress": ["F\u00fcrstenwalder Damm (Bellevuestr.)", "12555 Berlin", "Deutschland"]}, "categories": [{"id": "52f2ab2ebcbc57f1066b8b51", "name": "Tram Station", "pluralName": "Tram Stations", "shortName": "Tram", "icon": {"prefix": "https://ss3.4sqi.net/img/categories_v2/travel/trainstation_", "suffix": ".png"}, "primary": true}], "photos": {"count": 0, "groups": []}}, "referralId": "e-0-511274bde4b09fcaae512d1a-51"}]