[{"reasons": {"count": 0, "items": [{"summary": "This spot is popular", "type": "general", "reasonName": "globalInteractionReason"}]}, "venue": {"id": "4be6f7cdd4f7c9b6a1442720", "name": "IL GRANO", "location": {"address": "Finckensteinallee 58", "lat": 52.432462, "lng": 13.300019, "labeledLatLngs": [{"label": "display", "lat": 52.432462, "lng": 13.300019}], "distance": 268, "postalCode": "12205", "cc": "DE", "city": "Berlin", "state": "Berlin", "country": "Deutschland", "formattedAddress": ["Finckensteinallee 58", "12205 Berlin", "Deutschland"]}, "categories": [{"id": "4bf58dd8d48988d110941735", "name": "Italian Restaurant", "pluralName": "Italian Restaurants", "shortName": "Italian", "icon": {"prefix": "https://ss3.4sqi.net/img/categories_v2/food/italian_", "suffix": ".png"}, "primary": true}], "photos": {"count": 0, "groups": []}}, "referralId": "e-0-4be6f7cdd4f7c9b6a1442720-0"}, {"reasons": {"count": 0, "items": [{"summary": "This spot is popular", "type": "general", "reasonName": "globalInteractionReason"}]}, "venue": {"id": "552cf63b498e9331a3dfa2f0", "name": "Frau L\u00fcske Kaffeehaus", "location": {"address": "Baseler Str. 46", "lat": 52.437968562092124, "lng": 13.29537607701631, "labeledLatLngs": [{"label": "display", "lat": 52.437968562092124, "lng": 13.29537607701631}], "distance": 627, "postalCode": "12205", "cc": "DE", "city": "Berlin", "state": "Berlin", "country": "Deutschland", "formattedAddress": ["Baseler Str. 46", "12205 Berlin", "Deutschland"]}, "categories": [{"id": "4bf58dd8d48988d16d941735", "name": "Caf\u00e9", "pluralName": "Caf\u00e9s", "shortName": "Caf\u00e9", "icon": {"prefix": "https://ss3.4sqi.net/img/categories_v2/food/cafe_", "suffix": ".png"}, "primary": true}], "photos": {"count": 0, "groups": []}}, "referralId": "e-0-552cf63b498e9331a3dfa2f0-1"}, {"reasons": {"count": 0, "items": [{"summary": "This spot is popular", "type": "general", "reasonName": "globalInteractionReason"}]}, "venue": {"id": "4b5c928df964a520503729e3", "name": "dm-drogerie markt", "location": {"address": "Glarner Str. 53", "lat": 52.42761272174024, "lng": 13.303464357648863, "labeledLatLngs": [{"label": "display", "lat": 52.42761272174024, "lng": 13.303464357648863}], "distance": 727, "postalCode": "12205", "cc": "DE", "city": "Berlin", "state": "Berlin", "country": "Deutschland", "formattedAddress": ["Glarner Str. 53", "12205 Berlin", "Deutschland"]}, "categories": [{"id": "5745c2e4498e11e7bccabdbd", "name": "Drugstore", "pluralName": "Drugstores", "shortName": "Drugstore", "icon": {"prefix": "https://ss3.4sqi.net/img/categories_v2/shops/pharmacy_", "suffix": ".png"}, "primary": true}], "photos": {"count": 0, "groups": []}, "venuePage": {"id": "449781723"}}, "referralId": "e-0-4b5c928df964a520503729e3-2"}, {"reasons": {"count": 0, "items": [{"summary": "This spot is popular", "type": "general", "reasonName": "globalInteractionReason"}]}, "venue": {"id": "4c6ec34d06ed6dcbafada722", "name": "REWE", "location": {"address": "Goerzallee 82", "lat": 52.42627999999999, "lng": 13.302502822090219, "labeledLatLngs": [{"label": "display", "lat": 52.42627999999999, "lng": 13.302502822090219}], "distance": 804, "postalCode": "12205", "cc": "DE", "city": "Berlin", "state": "Berlin", "country": "Deutschland", "formattedAddress": ["Goerzallee 82", "12205 Berlin", "Deutschland"]}, "categories": [{"id": "52f2ab2ebcbc57f1066b8b46", "name": "Supermarket", "pluralName": "Supermarkets", "shortName": "Supermarket", "icon": {"prefix": "https://ss3.4sqi.net/img/categories_v2/shops/food_grocery_", "suffix": ".png"}, "primary": true}], "photos": {"count": 0, "groups": []}, "venuePage": {"id": "558862561"}}, "referralId": "e-0-4c6ec34d06ed6dcbafada722-3"}, {"reasons": {"count": 0, "items": [{"summary": "This spot is popular", "type": "general", "reasonName": "globalInteractionReason"}]}, "venue": {"id": "5103bb48e4b0967f7366c926", "name": "Hot Grill", "location": {"address": "Lausanner Str. 81", "lat": 52.426885, "lng": 13.303155, "labeledLatLngs": [{"label": "display", "lat": 52.426885, "lng": 13.303155}], "distance": 775, "postalCode": "12205", "cc": "DE", "city": "Berlin", "state": "Berlin", "country": "Deutschland", "formattedAddress": ["Lausanner Str. 81", "12205 Berlin-Lichterfelde", "Deutschland"]}, "categories": [{"id": "4bf58dd8d48988d1df931735", "name": "BBQ Joint", "pluralName": "BBQ Joints", "shortName": "BBQ", "icon": {"prefix": "https://ss3.4sqi.net/img/categories_v2/food/bbqalt_", "suffix": ".png"}, "primary": true}], "photos": {"count": 0, "groups": []}}, "referralId": "e-0-5103bb48e4b0967f7366c926-4"}, {"reasons": {"count": 0, "items": [{"summary": "This spot is popular", "type": "general", "reasonName": "globalInteractionReason"}]}, "venue": {"id": "4bc1ed3cf8219c745df0b310", "name": "Aparion Apartments Berlin", "location": {"address": "Theklastr. 20", "lat": 52.42936200045318, "lng": 13.302472482881802, "labeledLatLngs": [{"label": "display", "lat": 52.42936200045318, "lng": 13.302472482881802}], "distance": 546, "postalCode": "12205", "cc": "DE", "city": "Berlin", "state": "Berlin", "country": "Deutschland", "formattedAddress": ["Theklastr. 20", "12205 Berlin", "Deutschland"]}, "categories": [{"id": "4bf58dd8d48988d1fa931735", "name": "Hotel", "pluralName": "Hotels", "shortName": "Hotel", "icon": {"prefix": "https://ss3.4sqi.net/img/categories_v2/travel/hotel_", "suffix": ".png"}, "primary": true}], "photos": {"count": 0, "groups": []}}, "referralId": "e-0-4bc1ed3cf8219c745df0b310-5"}, {"reasons": {"count": 0, "items": [{"summary": "This spot is popular", "type": "general", "reasonName": "globalInteractionReason"}]}, "venue": {"id": "50ec8017e4b0348f5a273fe2", "name": "H Berner Stra\u00dfe", "location": {"address": "Finckensteinallee", "crossStreet": "Berner Str.", "lat": 52.43267844899602, "lng": 13.293195148600518, "labeledLatLngs": [{"label": "display", "lat": 52.43267844899602, "lng": 13.293195148600518}], "distance": 198, "postalCode": "12205", "cc": "DE", "city": "Berlin", "state": "Berlin", "country": "Deutschland", "formattedAddress": ["Finckensteinallee (Berner Str.)", "12205 Berlin", "Deutschland"]}, "categories": [{"id": "52f2ab2ebcbc57f1066b8b4f", "name": "Bus Stop", "pluralName": "Bus Stops", "shortName": "Bus Stop", "icon": {"prefix": "https://ss3.4sqi.net/img/categories_v2/travel/busstation_", "suffix": ".png"}, "primary": true}], "photos": {"count": 0, "groups": []}}, "referralId": "e-0-50ec8017e4b0348f5a273fe2-6"}, {"reasons": {"count": 0, "items": [{"summary": "This spot is popular", "type": "general", "reasonName": "globalInteractionReason"}]}, "venue": {"id": "4dd8ec1d1838b8561d0c4bd5", "name": "Zeus", "location": {"address": "Finckensteinallee 62", "lat": 52.43247374, "lng": 13.29974757, "labeledLatLngs": [{"label": "display", "lat": 52.43247374, "lng": 13.29974757}], "distance": 249, "postalCode": "12205", "cc": "DE", "city": "Berlin", "state": "Berlin", "country": "Deutschland", "formattedAddress": ["Finckensteinallee 62", "12205 Berlin", "Deutschland"]}, "categories": [{"id": "4bf58dd8d48988d10e941735", "name": "Greek Restaurant", "pluralName": "Greek Restaurants", "shortName": "Greek", "icon": {"prefix": "https://ss3.4sqi.net/img/categories_v2/food/greek_", "suffix": ".png"}, "primary": true}], "photos": {"count": 0, "groups": []}}, "referralId": "e-0-4dd8ec1d1838b8561d0c4bd5-7"}, {"reasons": {"count": 0, "items": [{"summary": "This spot is popular", "type": "general", "reasonName": "globalInteractionReason"}]}, "venue": {"id": "4ffef4dee4b0f8be9c13f819", "name": "Johanneskirchplatz", "location": {"address": "Johanneskirchplatz", "crossStreet": "Ringstr.", "lat": 52.436691615773924, "lng": 13.29266754004638, "labeledLatLngs": [{"label": "display", "lat": 52.436691615773924, "lng": 13.29266754004638}], "distance": 535, "postalCode": "12205", "cc": "DE", "city": "Berlin", "state": "Berlin", "country": "Deutschland", "formattedAddress": ["Johanneskirchplatz (Ringstr.)", "12205 Berlin", "Deutschland"]}, "categories": [{"id": "4bf58dd8d48988d164941735", "name": "Plaza", "pluralName": "Plazas", "shortName": "Plaza", "icon": {"prefix": "https://ss3.4sqi.net/img/categories_v2/parks_outdoors/plaza_", "suffix": ".png"}, "primary": true}], "photos": {"count": 0, "groups": []}}, "referralId": "e-0-4ffef4dee4b0f8be9c13f819-8"}, {"reasons": {"count": 0, "items": [{"summary": "This spot is popular", "type": "general", "reasonName": "globalInteractionReason"}]}, "venue": {"id": "4d8c44f837535481cd454e56", "name": "B\u00e4ckerei Hillmann", "location": {"address": "Glarner Str. 55", "lat": 52.42743020562898, "lng": 13.303610343733766, "labeledLatLngs": [{"label": "display", "lat": 52.42743020562898, "lng": 13.303610343733766}], "distance": 749, "postalCode": "12205", "cc": "DE", "city": "Berlin", "state": "Berlin", "country": "Deutschland", "formattedAddress": ["Glarner Str. 55", "12205 Berlin", "Deutschland"]}, "categories": [{"id": "4bf58dd8d48988d16a941735", "name": "Bakery", "pluralName": "Bakeries", "shortName": "Bakery", "icon": {"prefix": "https://ss3.4sqi.net/img/categories_v2/food/bakery_", "suffix": ".png"}, "primary": true}], "photos": {"count": 0, "groups": []}}, "referralId": "e-0-4d8c44f837535481cd454e56-9"}, {"reasons": {"count": 0, "items": [{"summary": "This spot is popular", "type": "general", "reasonName": "globalInteractionReason"}]}, "venue": {"id": "4b5c9242f964a5203a3729e3", "name": "ALDI NORD", "location": {"address": "Lausanner Str. 83", "lat": 52.427059688849965, "lng": 13.303381931428433, "labeledLatLngs": [{"label": "display", "lat": 52.427059688849965, "lng": 13.303381931428433}], "distance": 769, "postalCode": "12207", "cc": "DE", "city": "Berlin", "state": "Berlin", "country": "Deutschland", "formattedAddress": ["Lausanner Str. 83", "12207 Berlin", "Deutschland"]}, "categories": [{"id": "52f2ab2ebcbc57f1066b8b46", "name": "Supermarket", "pluralName": "Supermarkets", "shortName": "Supermarket", "icon": {"prefix": "https://ss3.4sqi.net/img/categories_v2/shops/food_grocery_", "suffix": ".png"}, "primary": true}], "photos": {"count": 0, "groups": []}}, "referralId": "e-0-4b5c9242f964a5203a3729e3-10"}, {"reasons": {"count": 0, "items": [{"summary": "This spot is popular", "type": "general", "reasonName": "globalInteractionReason"}]}, "venue": {"id": "4e605600a80951b317967216", "name": "H Drakestra\u00dfe / Ringstra\u00dfe", "location": {"address": "Drakestr.", "crossStreet": "Ringstr.", "lat": 52.439962623106105, "lng": 13.300001621246338, "labeledLatLngs": [{"label": "display", "lat": 52.439962623106105, "lng": 13.300001621246338}], "distance": 888, "postalCode": "12205", "cc": "DE", "city": "Berlin", "state": "Berlin", "country": "Deutschland", "formattedAddress": ["Drakestr. (Ringstr.)", "12205 Berlin", "Deutschland"]}, "categories": [{"id": "52f2ab2ebcbc57f1066b8b4f", "name": "Bus Stop", "pluralName": "Bus Stops", "shortName": "Bus Stop", "icon": {"prefix": "https://ss3.4sqi.net/img/categories_v2/travel/busstation_", "suffix": ".png"}, "primary": true}], "photos": {"count": 0, "groups": []}}, "referralId": "e-0-4e605600a80951b317967216-11"}, {"reasons": {"count": 0, "items": [{"summary": "This spot is popular", "type": "general", "reasonName": "globalInteractionReason"}]}, "venue": {"id": "4e19959a45dd120c12198c7c", "name": "K&B Croissanterie", "location": {"address": "Finckensteinallee 1", "crossStreet": "Goerzallee", "lat": 52.43152169496422, "lng": 13.309902663632739, "labeledLatLngs": [{"label": "display", "lat": 52.43152169496422, "lng": 13.309902663632739}], "distance": 943, "postalCode": "12205", "cc": "DE", "city": "Berlin", "state": "Berlin", "country": "Deutschland", "formattedAddress": ["Finckensteinallee 1 (Goerzallee)", "12205 Berlin", "Deutschland"]}, "categories": [{"id": "4bf58dd8d48988d16a941735", "name": "Bakery", "pluralName": "Bakeries", "shortName": "Bakery", "icon": {"prefix": "https://ss3.4sqi.net/img/categories_v2/food/bakery_", "suffix": ".png"}, "primary": true}], "photos": {"count": 0, "groups": []}}, "referralId": "e-0-4e19959a45dd120c12198c7c-12"}, {"reasons": {"count": 0, "items": [{"summary": "This spot is popular", "type": "general", "reasonName": "globalInteractionReason"}]}, "venue": {"id": "4c820944dc018cfa9982cb6c", "name": "Wiener Feinb\u00e4ckerei Heberer Bakers Drive", "location": {"address": "Goerzallee 1", "lat": 52.431435, "lng": 13.310261, "labeledLatLngs": [{"label": "display", "lat": 52.431435, "lng": 13.310261}], "distance": 968, "postalCode": "12207", "cc": "DE", "city": "Berlin", "state": "Berlin", "country": "Deutschland", "formattedAddress": ["Goerzallee 1", "12207 Berlin", "Deutschland"]}, "categories": [{"id": "4bf58dd8d48988d16a941735", "name": "Bakery", "pluralName": "Bakeries", "shortName": "Bakery", "icon": {"prefix": "https://ss3.4sqi.net/img/categories_v2/food/bakery_", "suffix": ".png"}, "primary": true}], "photos": {"count": 0, "groups": []}}, "referralId": "e-0-4c820944dc018cfa9982cb6c-13"}, {"reasons": {"count": 0, "items": [{"summary": "This spot is popular", "type": "general", "reasonName": "globalInteractionReason"}]}, "venue": {"id": "4b980257f964a520cd2535e3", "name": "EDEKA K\u00fcther", "location": {"address": "Drakestr. 28-29", "lat": 52.44118191451254, "lng": 13.298743882559899, "labeledLatLngs": [{"label": "display", "lat": 52.44118191451254, "lng": 13.298743882559899}], "distance": 999, "postalCode": "12205", "cc": "DE", "city": "Berlin", "state": "Berlin", "country": "Deutschland", "formattedAddress": ["Drakestr. 28-29", "12205 Berlin", "Deutschland"]}, "categories": [{"id": "52f2ab2ebcbc57f1066b8b46", "name": "Supermarket", "pluralName": "Supermarkets", "shortName": "Supermarket", "icon": {"prefix": "https://ss3.4sqi.net/img/categories_v2/shops/food_grocery_", "suffix": ".png"}, "primary": true}], "photos": {"count": 0, "groups": []}}, "referralId": "e-0-4b980257f964a520cd2535e3-14"}]