[{"reasons": {"count": 0, "items": [{"summary": "This spot is popular", "type": "general", "reasonName": "globalInteractionReason"}]}, "venue": {"id": "4c07aad90ed3c928b0d6797d", "name": "Thaiwiese im Preu\u00dfenpark", "location": {"address": "Pommersche Str.", "crossStreet": "W\u00fcrttembergische Str.", "lat": 52.493177777374655, "lng": 13.31206873172159, "labeledLatLngs": [{"label": "display", "lat": 52.493177777374655, "lng": 13.31206873172159}], "distance": 336, "postalCode": "10707", "cc": "DE", "neighborhood": "Fehrbelliner Platz", "city": "Berlin", "state": "Berlin", "country": "Deutschland", "formattedAddress": ["Pommersche Str. (W\u00fcrttembergische Str.)", "10707 Berlin", "Deutschland"]}, "categories": [{"id": "53e0feef498e5aac066fd8a9", "name": "Street Food Gathering", "pluralName": "Street Food Gatherings", "shortName": "Street Food Gathering", "icon": {"prefix": "https://ss3.4sqi.net/img/categories_v2/food/streetfood_", "suffix": ".png"}, "primary": true}], "photos": {"count": 0, "groups": []}}, "referralId": "e-0-4c07aad90ed3c928b0d6797d-0"}, {"reasons": {"count": 0, "items": [{"summary": "This spot is popular", "type": "general", "reasonName": "globalInteractionReason"}]}, "venue": {"id": "4e2533318877099df4bc1d1d", "name": "B\u00e4ckerMann", "location": {"address": "Pariser Str. 20", "lat": 52.49837514519333, "lng": 13.317846621563133, "labeledLatLngs": [{"label": "display", "lat": 52.49837514519333, "lng": 13.317846621563133}], "distance": 394, "postalCode": "10707", "cc": "DE", "city": "Berlin", "state": "Berlin", "country": "Deutschland", "formattedAddress": ["Pariser Str. 20", "10707 Berlin", "Deutschland"]}, "categories": [{"id": "4bf58dd8d48988d16a941735", "name": "Bakery", "pluralName": "Bakeries", "shortName": "Bakery", "icon": {"prefix": "https://ss3.4sqi.net/img/categories_v2/food/bakery_", "suffix": ".png"}, "primary": true}], "photos": {"count": 0, "groups": []}}, "referralId": "e-0-4e2533318877099df4bc1d1d-1"}, {"reasons": {"count": 0, "items": [{"summary": "This spot is popular", "type": "general", "reasonName": "globalInteractionReason"}]}, "venue": {"id": "593475794b78c57ea61ae715", "name": "Nata de Lisboa", "location": {"address": "Pariser Str. 24", "lat": 52.49862611564884, "lng": 13.316698925490817, "labeledLatLngs": [{"label": "display", "lat": 52.49862611564884, "lng": 13.316698925490817}], "distance": 404, "postalCode": "10707", "cc": "DE", "neighborhood": "Wilmersdorf", "city": "Berlin", "state": "Berlin", "country": "Deutschland", "formattedAddress": ["Pariser Str. 24", "10707 Berlin", "Deutschland"]}, "categories": [{"id": "4def73e84765ae376e57713a", "name": "Portuguese Restaurant", "pluralName": "Portuguese Restaurants", "shortName": "Portuguese", "icon": {"prefix": "https://ss3.4sqi.net/img/categories_v2/food/portuguese_", "suffix": ".png"}, "primary": true}], "photos": {"count": 0, "groups": []}}, "referralId": "e-0-593475794b78c57ea61ae715-2"}, {"reasons": {"count": 0, "items": [{"summary": "This spot is popular", "type": "general", "reasonName": "globalInteractionReason"}]}, "venue": {"id": "4e8c55630cd65621ed614f02", "name": "Ma\u00eetre Philippe", "location": {"address": "Emser Stra\u00dfe 42", "lat": 52.497374746215776, "lng": 13.32023027527773, "labeledLatLngs": [{"label": "display", "lat": 52.497374746215776, "lng": 13.32023027527773}], "distance": 388, "postalCode": "10719", "cc": "DE", "city": "Berlin", "state": "Berlin", "country": "Deutschland", "formattedAddress": ["Emser Stra\u00dfe 42", "10719 Berlin", "Deutschland"]}, "categories": [{"id": "4bf58dd8d48988d1f5941735", "name": "Gourmet Shop", "pluralName": "Gourmet Shops", "shortName": "Gourmet", "icon": {"prefix": "https://ss3.4sqi.net/img/categories_v2/shops/food_gourmet_", "suffix": ".png"}, "primary": true}], "photos": {"count": 0, "groups": []}}, "referralId": "e-0-4e8c55630cd65621ed614f02-3"}, {"reasons": {"count": 0, "items": [{"summary": "This spot is popular", "type": "general", "reasonName": "globalInteractionReason"}]}, "venue": {"id": "54f990e0498e33ea0f38b1ed", "name": "ZUKA", "location": {"address": "Emser Str. 25", "crossStreet": "Ludwigkirchplatz", "lat": 52.497434427228406, "lng": 13.320355248219334, "labeledLatLngs": [{"label": "display", "lat": 52.497434427228406, "lng": 13.320355248219334}], "distance": 398, "postalCode": "10719", "cc": "DE", "city": "Berlin", "state": "Berlin", "country": "Deutschland", "formattedAddress": ["Emser Str. 25 (Ludwigkirchplatz)", "10719 Berlin", "Deutschland"]}, "categories": [{"id": "4bf58dd8d48988d1d0941735", "name": "Dessert Shop", "pluralName": "Dessert Shops", "shortName": "Desserts", "icon": {"prefix": "https://ss3.4sqi.net/img/categories_v2/food/dessert_", "suffix": ".png"}, "primary": true}], "photos": {"count": 0, "groups": []}}, "referralId": "e-0-54f990e0498e33ea0f38b1ed-4"}, {"reasons": {"count": 0, "items": [{"summary": "This spot is popular", "type": "general", "reasonName": "globalInteractionReason"}]}, "venue": {"id": "4b79846cf964a5204dfe2ee3", "name": "Gusto", "location": {"address": "Bregenzer Str. 1", "crossStreet": "D\u00fcsseldorfer", "lat": 52.4969649238186, "lng": 13.312799365977831, "labeledLatLngs": [{"label": "display", "lat": 52.4969649238186, "lng": 13.312799365977831}], "distance": 307, "postalCode": "10707", "cc": "DE", "city": "Berlin", "state": "Berlin", "country": "Deutschland", "formattedAddress": ["Bregenzer Str. 1 (D\u00fcsseldorfer)", "10707 Berlin", "Deutschland"]}, "categories": [{"id": "4bf58dd8d48988d110941735", "name": "Italian Restaurant", "pluralName": "Italian Restaurants", "shortName": "Italian", "icon": {"prefix": "https://ss3.4sqi.net/img/categories_v2/food/italian_", "suffix": ".png"}, "primary": true}], "photos": {"count": 0, "groups": []}}, "referralId": "e-0-4b79846cf964a5204dfe2ee3-5"}, {"reasons": {"count": 0, "items": [{"summary": "This spot is popular", "type": "general", "reasonName": "globalInteractionReason"}]}, "venue": {"id": "586679cc45c3ed1e7d4c5723", "name": "Zeit f\u00fcr Brot", "location": {"address": "Xantener Str. 1", "crossStreet": "Konstanzer Str.", "lat": 52.4991316980378, "lng": 13.312422366163116, "labeledLatLngs": [{"label": "display", "lat": 52.4991316980378, "lng": 13.312422366163116}], "distance": 519, "postalCode": "10707", "cc": "DE", "city": "Berlin", "state": "Berlin", "country": "Deutschland", "formattedAddress": ["Xantener Str. 1 (Konstanzer Str.)", "10707 Berlin", "Deutschland"]}, "categories": [{"id": "4bf58dd8d48988d16a941735", "name": "Bakery", "pluralName": "Bakeries", "shortName": "Bakery", "icon": {"prefix": "https://ss3.4sqi.net/img/categories_v2/food/bakery_", "suffix": ".png"}, "primary": true}], "photos": {"count": 0, "groups": []}}, "referralId": "e-0-586679cc45c3ed1e7d4c5723-6"}, {"reasons": {"count": 0, "items": [{"summary": "This spot is popular", "type": "general", "reasonName": "globalInteractionReason"}]}, "venue": {"id": "58832b2216f0007b20c844d9", "name": "Taniel Beauty Club", "location": {"address": "Pariser Str. 24", "lat": 52.49862224777032, "lng": 13.316942388747902, "labeledLatLngs": [{"label": "display", "lat": 52.49862224777032, "lng": 13.316942388747902}], "distance": 406, "postalCode": "10707", "cc": "DE", "neighborhood": "Wilmersdorf", "city": "Berlin", "state": "Berlin", "country": "Deutschland", "formattedAddress": ["Pariser Str. 24", "10707 Berlin", "Deutschland"]}, "categories": [{"id": "54541900498ea6ccd0202697", "name": "Health & Beauty Service", "pluralName": "Health & Beauty Services", "shortName": "Health & Beauty", "icon": {"prefix": "https://ss3.4sqi.net/img/categories_v2/shops/salon_barber_", "suffix": ".png"}, "primary": true}], "photos": {"count": 0, "groups": []}}, "referralId": "e-0-58832b2216f0007b20c844d9-7"}, {"reasons": {"count": 0, "items": [{"summary": "This spot is popular", "type": "general", "reasonName": "globalInteractionReason"}]}, "venue": {"id": "4b3b66b2f964a520577325e3", "name": "Preu\u00dfenpark", "location": {"address": "Brandenburgische Str.", "crossStreet": "W\u00fcrttembergische Str.", "lat": 52.49274801972638, "lng": 13.31295132637024, "labeledLatLngs": [{"label": "display", "lat": 52.49274801972638, "lng": 13.31295132637024}], "distance": 326, "postalCode": "10707", "cc": "DE", "city": "Berlin", "state": "Berlin", "country": "Deutschland", "formattedAddress": ["Brandenburgische Str. (W\u00fcrttembergische Str.)", "10707 Berlin", "Deutschland"]}, "categories": [{"id": "4bf58dd8d48988d163941735", "name": "Park", "pluralName": "Parks", "shortName": "Park", "icon": {"prefix": "https://ss3.4sqi.net/img/categories_v2/parks_outdoors/park_", "suffix": ".png"}, "primary": true}], "photos": {"count": 0, "groups": []}}, "referralId": "e-0-4b3b66b2f964a520577325e3-8"}, {"reasons": {"count": 0, "items": [{"summary": "This spot is popular", "type": "general", "reasonName": "globalInteractionReason"}]}, "venue": {"id": "58c12c2d65be585bf1f74a20", "name": "Hotel Provocateur", "location": {"address": "Brandenburgische Str. 21", "lat": 52.495754400364, "lng": 13.308515882988877, "labeledLatLngs": [{"label": "display", "lat": 52.495754400364, "lng": 13.308515882988877}], "distance": 515, "postalCode": "10707", "cc": "DE", "city": "Berlin", "state": "Berlin", "country": "Deutschland", "formattedAddress": ["Brandenburgische Str. 21", "10707 Berlin", "Deutschland"]}, "categories": [{"id": "4bf58dd8d48988d1fa931735", "name": "Hotel", "pluralName": "Hotels", "shortName": "Hotel", "icon": {"prefix": "https://ss3.4sqi.net/img/categories_v2/travel/hotel_", "suffix": ".png"}, "primary": true}], "photos": {"count": 0, "groups": []}}, "referralId": "e-0-58c12c2d65be585bf1f74a20-9"}, {"reasons": {"count": 0, "items": [{"summary": "This spot is popular", "type": "general", "reasonName": "globalInteractionReason"}]}, "venue": {"id": "4c3627a918e72d7fd75714f5", "name": "La Caleta", "location": {"address": "Wielandstr. 26a", "lat": 52.5002413686734, "lng": 13.31500818149948, "labeledLatLngs": [{"label": "display", "lat": 52.5002413686734, "lng": 13.31500818149948}], "distance": 585, "postalCode": "10707", "cc": "DE", "city": "Berlin", "state": "Berlin", "country": "Deutschland", "formattedAddress": ["Wielandstr. 26a", "10707 Berlin", "Deutschland"]}, "categories": [{"id": "4bf58dd8d48988d150941735", "name": "Spanish Restaurant", "pluralName": "Spanish Restaurants", "shortName": "Spanish", "icon": {"prefix": "https://ss3.4sqi.net/img/categories_v2/food/spanish_", "suffix": ".png"}, "primary": true}], "photos": {"count": 0, "groups": []}}, "referralId": "e-0-4c3627a918e72d7fd75714f5-10"}, {"reasons": {"count": 0, "items": [{"summary": "This spot is popular", "type": "general", "reasonName": "globalInteractionReason"}]}, "venue": {"id": "526a62c611d28edc63bef0f3", "name": "Freni & Frizioni", "location": {"address": "Pariser Stra\u00dfe 18a", "crossStreet": "S\u00e4chsische Stra\u00dfe", "lat": 52.49819283994478, "lng": 13.318780205220385, "labeledLatLngs": [{"label": "display", "lat": 52.49819283994478, "lng": 13.318780205220385}], "distance": 400, "postalCode": "10707", "cc": "DE", "city": "Berlin", "state": "Berlin", "country": "Deutschland", "formattedAddress": ["Pariser Stra\u00dfe 18a (S\u00e4chsische Stra\u00dfe)", "10707 Berlin", "Deutschland"]}, "categories": [{"id": "4bf58dd8d48988d110941735", "name": "Italian Restaurant", "pluralName": "Italian Restaurants", "shortName": "Italian", "icon": {"prefix": "https://ss3.4sqi.net/img/categories_v2/food/italian_", "suffix": ".png"}, "primary": true}], "photos": {"count": 0, "groups": []}}, "referralId": "e-0-526a62c611d28edc63bef0f3-11"}, {"reasons": {"count": 0, "items": [{"summary": "This spot is popular", "type": "general", "reasonName": "globalInteractionReason"}]}, "venue": {"id": "4e628839d164ddd5e5d21463", "name": "Restaurant  Zum Hax'nwirt", "location": {"address": "Hohenzollerndamm 185", "lat": 52.49152434969363, "lng": 13.317789540479223, "labeledLatLngs": [{"label": "display", "lat": 52.49152434969363, "lng": 13.317789540479223}], "distance": 406, "postalCode": "10713", "cc": "DE", "city": "Berlin", "state": "Berlin", "country": "Deutschland", "formattedAddress": ["Hohenzollerndamm 185", "10713 Berlin", "Deutschland"]}, "categories": [{"id": "4bf58dd8d48988d10d941735", "name": "German Restaurant", "pluralName": "German Restaurants", "shortName": "German", "icon": {"prefix": "https://ss3.4sqi.net/img/categories_v2/food/german_", "suffix": ".png"}, "primary": true}], "photos": {"count": 0, "groups": []}}, "referralId": "e-0-4e628839d164ddd5e5d21463-12"}, {"reasons": {"count": 0, "items": [{"summary": "This spot is popular", "type": "general", "reasonName": "globalInteractionReason"}]}, "venue": {"id": "4b609427f964a5208eee29e3", "name": "Witwe Bolte", "location": {"address": "Uhlandstra\u00dfe 133", "lat": 52.4925, "lng": 13.323716, "labeledLatLngs": [{"label": "display", "lat": 52.4925, "lng": 13.323716}], "distance": 592, "postalCode": "10717", "cc": "DE", "city": "Berlin", "state": "Berlin", "country": "Deutschland", "formattedAddress": ["Uhlandstra\u00dfe 133", "10717 Berlin", "Deutschland"]}, "categories": [{"id": "4bf58dd8d48988d10d941735", "name": "German Restaurant", "pluralName": "German Restaurants", "shortName": "German", "icon": {"prefix": "https://ss3.4sqi.net/img/categories_v2/food/german_", "suffix": ".png"}, "primary": true}], "photos": {"count": 0, "groups": []}}, "referralId": "e-0-4b609427f964a5208eee29e3-13"}, {"reasons": {"count": 0, "items": [{"summary": "This spot is popular", "type": "general", "reasonName": "globalInteractionReason"}]}, "venue": {"id": "56670809498eba82ce7def90", "name": "Genazvale", "location": {"address": "Hohenzollerndamm 33", "crossStreet": "Ruhrstr.", "lat": 52.48980267116557, "lng": 13.312003992147847, "labeledLatLngs": [{"label": "display", "lat": 52.48980267116557, "lng": 13.312003992147847}], "distance": 640, "postalCode": "10713", "cc": "DE", "neighborhood": "Fehrbelliner Platz", "city": "Berlin", "state": "Berlin", "country": "Deutschland", "formattedAddress": ["Hohenzollerndamm 33 (Ruhrstr.)", "10713 Berlin", "Deutschland"]}, "categories": [{"id": "5293a7d53cf9994f4e043a45", "name": "Caucasian Restaurant", "pluralName": "Caucasian Restaurants", "shortName": "Caucasian", "icon": {"prefix": "https://ss3.4sqi.net/img/categories_v2/food/caucasian_", "suffix": ".png"}, "primary": true}], "photos": {"count": 0, "groups": []}}, "referralId": "e-0-56670809498eba82ce7def90-14"}, {"reasons": {"count": 0, "items": [{"summary": "This spot is popular", "type": "general", "reasonName": "globalInteractionReason"}]}, "venue": {"id": "4d68f6edde28224ba2c53cbe", "name": "Nan Spa", "location": {"address": "Pfalzburger Str. 20", "lat": 52.49426760256519, "lng": 13.322007822380952, "labeledLatLngs": [{"label": "display", "lat": 52.49426760256519, "lng": 13.322007822380952}], "distance": 414, "postalCode": "10719", "cc": "DE", "city": "Berlin", "state": "Berlin", "country": "Deutschland", "formattedAddress": ["Pfalzburger Str. 20", "10719 Berlin", "Deutschland"]}, "categories": [{"id": "4bf58dd8d48988d1ed941735", "name": "Spa", "pluralName": "Spas", "shortName": "Spa", "icon": {"prefix": "https://ss3.4sqi.net/img/categories_v2/shops/spa_", "suffix": ".png"}, "primary": true}], "photos": {"count": 0, "groups": []}}, "referralId": "e-0-4d68f6edde28224ba2c53cbe-15"}, {"reasons": {"count": 0, "items": [{"summary": "This spot is popular", "type": "general", "reasonName": "globalInteractionReason"}]}, "venue": {"id": "4fd33bf9e4b054c5993d53ac", "name": "M\u00f6venpick Weinkeller", "location": {"address": "Lietzenburger Str. 93-95", "lat": 52.49955597339877, "lng": 13.320364952087402, "labeledLatLngs": [{"label": "display", "lat": 52.49955597339877, "lng": 13.320364952087402}], "distance": 585, "postalCode": "10719", "cc": "DE", "city": "Berlin", "state": "Berlin", "country": "Deutschland", "formattedAddress": ["Lietzenburger Str. 93-95", "10719 Berlin", "Deutschland"]}, "categories": [{"id": "4bf58dd8d48988d119951735", "name": "Wine Shop", "pluralName": "Wine Shops", "shortName": "Wine Shop", "icon": {"prefix": "https://ss3.4sqi.net/img/categories_v2/shops/food_wineshop_", "suffix": ".png"}, "primary": true}], "photos": {"count": 0, "groups": []}}, "referralId": "e-0-4fd33bf9e4b054c5993d53ac-16"}, {"reasons": {"count": 0, "items": [{"summary": "This spot is popular", "type": "general", "reasonName": "globalInteractionReason"}]}, "venue": {"id": "4b191ddff964a52030d823e3", "name": "Louis Vuitton", "location": {"address": "Kurf\u00fcrstendamm 185", "lat": 52.50053471204056, "lng": 13.314569544209007, "labeledLatLngs": [{"label": "display", "lat": 52.50053471204056, "lng": 13.314569544209007}], "distance": 622, "postalCode": "10707", "cc": "DE", "city": "Berlin", "state": "Berlin", "country": "Deutschland", "formattedAddress": ["Kurf\u00fcrstendamm 185", "10707 Berlin", "Deutschland"]}, "categories": [{"id": "4bf58dd8d48988d104951735", "name": "Boutique", "pluralName": "Boutiques", "shortName": "Boutique", "icon": {"prefix": "https://ss3.4sqi.net/img/categories_v2/shops/apparel_boutique_", "suffix": ".png"}, "primary": true}], "photos": {"count": 0, "groups": []}}, "referralId": "e-0-4b191ddff964a52030d823e3-17"}, {"reasons": {"count": 0, "items": [{"summary": "This spot is popular", "type": "general", "reasonName": "globalInteractionReason"}]}, "venue": {"id": "5810973938fa6ecbf4f5249c", "name": "Benedict", "location": {"address": "Uhlandstr. 49", "crossStreet": "Pariser Str.", "lat": 52.497324, "lng": 13.323777, "labeledLatLngs": [{"label": "display", "lat": 52.497324, "lng": 13.323777}], "distance": 585, "postalCode": "10719", "cc": "DE", "city": "Berlin", "state": "Berlin", "country": "Deutschland", "formattedAddress": ["Uhlandstr. 49 (Pariser Str.)", "10719 Berlin", "Deutschland"]}, "categories": [{"id": "4bf58dd8d48988d143941735", "name": "Breakfast Spot", "pluralName": "Breakfast Spots", "shortName": "Breakfast", "icon": {"prefix": "https://ss3.4sqi.net/img/categories_v2/food/breakfast_", "suffix": ".png"}, "primary": true}], "photos": {"count": 0, "groups": []}}, "referralId": "e-0-5810973938fa6ecbf4f5249c-18"}, {"reasons": {"count": 0, "items": [{"summary": "This spot is popular", "type": "general", "reasonName": "globalInteractionReason"}]}, "venue": {"id": "4b095c16f964a520271623e3", "name": "Sweet2go", "location": {"address": "Ludwigkirchplatz", "crossStreet": "Pfalzburger Str.", "lat": 52.49777633276767, "lng": 13.322637969921093, "labeledLatLngs": [{"label": "display", "lat": 52.49777633276767, "lng": 13.322637969921093}], "distance": 543, "postalCode": "10719", "cc": "DE", "city": "Berlin", "state": "Berlin", "country": "Deutschland", "formattedAddress": ["Ludwigkirchplatz (Pfalzburger Str.)", "10719 Berlin", "Deutschland"]}, "categories": [{"id": "4bf58dd8d48988d1d0941735", "name": "Dessert Shop", "pluralName": "Dessert Shops", "shortName": "Desserts", "icon": {"prefix": "https://ss3.4sqi.net/img/categories_v2/food/dessert_", "suffix": ".png"}, "primary": true}], "photos": {"count": 0, "groups": []}}, "referralId": "e-0-4b095c16f964a520271623e3-19"}, {"reasons": {"count": 0, "items": [{"summary": "This spot is popular", "type": "general", "reasonName": "globalInteractionReason"}]}, "venue": {"id": "4c45f7c9f1d80f47f990a23c", "name": "Tian Fu", "location": {"address": "Uhlandstr. 142", "crossStreet": "Hohenzollerndamm", "lat": 52.494873, "lng": 13.324235, "labeledLatLngs": [{"label": "display", "lat": 52.494873, "lng": 13.324235}], "distance": 557, "postalCode": "10719", "cc": "DE", "neighborhood": "Hohenzollernplatz", "city": "Berlin", "state": "Berlin", "country": "Deutschland", "formattedAddress": ["Uhlandstr. 142 (Hohenzollerndamm)", "10719 Berlin", "Deutschland"]}, "categories": [{"id": "52af3b773cf9994f4e043c03", "name": "Szechuan Restaurant", "pluralName": "Szechuan Restaurants", "shortName": "Szechuan", "icon": {"prefix": "https://ss3.4sqi.net/img/categories_v2/food/asian_", "suffix": ".png"}, "primary": true}], "photos": {"count": 0, "groups": []}}, "referralId": "e-0-4c45f7c9f1d80f47f990a23c-20"}, {"reasons": {"count": 0, "items": [{"summary": "This spot is popular", "type": "general", "reasonName": "globalInteractionReason"}]}, "venue": {"id": "4d2c51a1849f37047c999941", "name": "Spielvogel", "location": {"address": "Uhlandstr. 137", "lat": 52.49359722077878, "lng": 13.323959112167358, "labeledLatLngs": [{"label": "display", "lat": 52.49359722077878, "lng": 13.323959112167358}], "distance": 560, "postalCode": "10717", "cc": "DE", "city": "Berlin", "state": "Berlin", "country": "Deutschland", "formattedAddress": ["Uhlandstr. 137", "10717 Berlin", "Deutschland"]}, "categories": [{"id": "4bf58dd8d48988d1f3941735", "name": "Toy / Game Store", "pluralName": "Toy / Game Stores", "shortName": "Toys & Games", "icon": {"prefix": "https://ss3.4sqi.net/img/categories_v2/shops/toys_", "suffix": ".png"}, "primary": true}], "photos": {"count": 0, "groups": []}}, "referralId": "e-0-4d2c51a1849f37047c999941-21"}, {"reasons": {"count": 0, "items": [{"summary": "This spot is popular", "type": "general", "reasonName": "globalInteractionReason"}]}, "venue": {"id": "4c66e091e75ac92853cff8da", "name": "Paracas", "location": {"address": "G\u00fcntzelstr. 37a", "lat": 52.491891, "lng": 13.321121, "labeledLatLngs": [{"label": "display", "lat": 52.491891, "lng": 13.321121}], "distance": 490, "postalCode": "10717", "cc": "DE", "city": "Berlin", "state": "Berlin", "country": "Deutschland", "formattedAddress": ["G\u00fcntzelstr. 37a", "10717 Berlin", "Deutschland"]}, "categories": [{"id": "4bf58dd8d48988d1be941735", "name": "Latin American Restaurant", "pluralName": "Latin American Restaurants", "shortName": "Latin American", "icon": {"prefix": "https://ss3.4sqi.net/img/categories_v2/food/latinamerican_", "suffix": ".png"}, "primary": true}], "photos": {"count": 0, "groups": []}}, "referralId": "e-0-4c66e091e75ac92853cff8da-22"}, {"reasons": {"count": 0, "items": [{"summary": "This spot is popular", "type": "general", "reasonName": "globalInteractionReason"}]}, "venue": {"id": "518538de498e846a1ad83ae3", "name": "Rosario's Ristorante", "location": {"address": "Xantener Str. 9", "lat": 52.499203699370774, "lng": 13.31077694895988, "labeledLatLngs": [{"label": "display", "lat": 52.499203699370774, "lng": 13.31077694895988}], "distance": 586, "postalCode": "10707", "cc": "DE", "city": "Berlin", "state": "Berlin", "country": "Deutschland", "formattedAddress": ["Xantener Str. 9", "10707 Berlin", "Deutschland"]}, "categories": [{"id": "4bf58dd8d48988d110941735", "name": "Italian Restaurant", "pluralName": "Italian Restaurants", "shortName": "Italian", "icon": {"prefix": "https://ss3.4sqi.net/img/categories_v2/food/italian_", "suffix": ".png"}, "primary": true}], "photos": {"count": 0, "groups": []}}, "referralId": "e-0-518538de498e846a1ad83ae3-23"}, {"reasons": {"count": 0, "items": [{"summary": "This spot is popular", "type": "general", "reasonName": "globalInteractionReason"}]}, "venue": {"id": "4af727b3f964a5207f0622e3", "name": "Mr. Hai Shabuki", "location": {"address": "Olivaer Platz 9", "lat": 52.49887457937958, "lng": 13.31639078668747, "labeledLatLngs": [{"label": "display", "lat": 52.49887457937958, "lng": 13.31639078668747}], "distance": 430, "postalCode": "10707", "cc": "DE", "city": "Berlin", "state": "Berlin", "country": "Deutschland", "formattedAddress": ["Olivaer Platz 9", "10707 Berlin", "Deutschland"]}, "categories": [{"id": "4bf58dd8d48988d1d2941735", "name": "Sushi Restaurant", "pluralName": "Sushi Restaurants", "shortName": "Sushi", "icon": {"prefix": "https://ss3.4sqi.net/img/categories_v2/food/sushi_", "suffix": ".png"}, "primary": true}], "photos": {"count": 0, "groups": []}}, "referralId": "e-0-4af727b3f964a5207f0622e3-24"}, {"reasons": {"count": 0, "items": [{"summary": "This spot is popular", "type": "general", "reasonName": "globalInteractionReason"}]}, "venue": {"id": "4bddb02b587b2d7f40ab5409", "name": "A Telha", "location": {"address": "Holsteinische Str. 17", "lat": 52.49052, "lng": 13.325013, "labeledLatLngs": [{"label": "display", "lat": 52.49052, "lng": 13.325013}], "distance": 788, "postalCode": "10717", "cc": "DE", "city": "Berlin", "state": "Berlin", "country": "Deutschland", "formattedAddress": ["Holsteinische Str. 17", "10717 Berlin", "Deutschland"]}, "categories": [{"id": "4bf58dd8d48988d1ce941735", "name": "Seafood Restaurant", "pluralName": "Seafood Restaurants", "shortName": "Seafood", "icon": {"prefix": "https://ss3.4sqi.net/img/categories_v2/food/seafood_", "suffix": ".png"}, "primary": true}], "photos": {"count": 0, "groups": []}}, "referralId": "e-0-4bddb02b587b2d7f40ab5409-25"}, {"reasons": {"count": 0, "items": [{"summary": "This spot is popular", "type": "general", "reasonName": "globalInteractionReason"}]}, "venue": {"id": "55048b1d498efeb43b1ca17c", "name": "Ojo De Agua", "location": {"address": "Ludwigkirchstra\u00dfe 10a", "lat": 52.498033087380385, "lng": 13.324939004986236, "labeledLatLngs": [{"label": "display", "lat": 52.498033087380385, "lng": 13.324939004986236}], "distance": 691, "postalCode": "10719", "cc": "DE", "neighborhood": "Charlottenburg-Wilmersdorf", "city": "Berlin-Wilmersdorf", "state": "Berlin", "country": "Deutschland", "formattedAddress": ["Ludwigkirchstra\u00dfe 10a", "10719 Berlin-Wilmersdorf", "Deutschland"]}, "categories": [{"id": "4bf58dd8d48988d107941735", "name": "Argentinian Restaurant", "pluralName": "Argentinian Restaurants", "shortName": "Argentinian", "icon": {"prefix": "https://ss3.4sqi.net/img/categories_v2/food/argentinian_", "suffix": ".png"}, "primary": true}], "photos": {"count": 0, "groups": []}}, "referralId": "e-0-55048b1d498efeb43b1ca17c-26"}, {"reasons": {"count": 0, "items": [{"summary": "This spot is popular", "type": "general", "reasonName": "globalInteractionReason"}]}, "venue": {"id": "4ccd2e3bba79a1cd031640cb", "name": "Backshop e' Cafe", "location": {"address": "Olivaer Platz 3", "lat": 52.499173355795214, "lng": 13.313899261469013, "labeledLatLngs": [{"label": "display", "lat": 52.499173355795214, "lng": 13.313899261469013}], "distance": 484, "postalCode": "10707", "cc": "DE", "city": "Berlin", "state": "Berlin", "country": "Deutschland", "formattedAddress": ["Olivaer Platz 3", "10707 Berlin", "Deutschland"]}, "categories": [{"id": "4bf58dd8d48988d16a941735", "name": "Bakery", "pluralName": "Bakeries", "shortName": "Bakery", "icon": {"prefix": "https://ss3.4sqi.net/img/categories_v2/food/bakery_", "suffix": ".png"}, "primary": true}], "photos": {"count": 0, "groups": []}}, "referralId": "e-0-4ccd2e3bba79a1cd031640cb-27"}, {"reasons": {"count": 0, "items": [{"summary": "This spot is popular", "type": "general", "reasonName": "globalInteractionReason"}]}, "venue": {"id": "5960ae77a3061967d0773f4d", "name": "Aux Merveilleux de Fred", "location": {"address": "Olivaer Platz 2", "lat": 52.49929029867753, "lng": 13.313169041409923, "labeledLatLngs": [{"label": "display", "lat": 52.49929029867753, "lng": 13.313169041409923}], "distance": 513, "postalCode": "10707", "cc": "DE", "neighborhood": "Hohenzollernplatz", "city": "Berlin", "state": "Berlin", "country": "Deutschland", "formattedAddress": ["Olivaer Platz 2", "10707 Berlin", "Deutschland"]}, "categories": [{"id": "5744ccdfe4b0c0459246b4e2", "name": "Pastry Shop", "pluralName": "Pastry Shops", "shortName": "Pastry", "icon": {"prefix": "https://ss3.4sqi.net/img/categories_v2/food/dessert_", "suffix": ".png"}, "primary": true}], "photos": {"count": 0, "groups": []}}, "referralId": "e-0-5960ae77a3061967d0773f4d-28"}, {"reasons": {"count": 0, "items": [{"summary": "This spot is popular", "type": "general", "reasonName": "globalInteractionReason"}]}, "venue": {"id": "508d2ed5e4b0d26217a55276", "name": "Nicos s\u00fc\u00dfes Atelier", "location": {"address": "Fasanenstr. 42", "lat": 52.497713827458966, "lng": 13.326676648580573, "labeledLatLngs": [{"label": "display", "lat": 52.497713827458966, "lng": 13.326676648580573}], "distance": 782, "postalCode": "10719", "cc": "DE", "city": "Berlin", "state": "Berlin", "country": "Deutschland", "formattedAddress": ["Fasanenstr. 42", "10719 Berlin", "Deutschland"]}, "categories": [{"id": "4bf58dd8d48988d1d0941735", "name": "Dessert Shop", "pluralName": "Dessert Shops", "shortName": "Desserts", "icon": {"prefix": "https://ss3.4sqi.net/img/categories_v2/food/dessert_", "suffix": ".png"}, "primary": true}], "photos": {"count": 0, "groups": []}}, "referralId": "e-0-508d2ed5e4b0d26217a55276-29"}, {"reasons": {"count": 0, "items": [{"summary": "This spot is popular", "type": "general", "reasonName": "globalInteractionReason"}]}, "venue": {"id": "507e4827e4b0de411adfe6a6", "name": "Vitaminchen", "location": {"address": "Olivaer Platz 17", "lat": 52.49946912918665, "lng": 13.312693052526233, "labeledLatLngs": [{"label": "display", "lat": 52.49946912918665, "lng": 13.312693052526233}], "distance": 544, "postalCode": "10707", "cc": "DE", "neighborhood": "Olivaer Platz", "city": "Berlin", "state": "Berlin", "country": "Deutschland", "formattedAddress": ["Olivaer Platz 17", "10707 Berlin", "Deutschland"]}, "categories": [{"id": "4bf58dd8d48988d112941735", "name": "Juice Bar", "pluralName": "Juice Bars", "shortName": "Juice Bar", "icon": {"prefix": "https://ss3.4sqi.net/img/categories_v2/food/juicebar_", "suffix": ".png"}, "primary": true}], "photos": {"count": 0, "groups": []}}, "referralId": "e-0-507e4827e4b0de411adfe6a6-30"}, {"reasons": {"count": 0, "items": [{"summary": "This spot is popular", "type": "general", "reasonName": "globalInteractionReason"}]}, "venue": {"id": "4bc823b592b376b03fef503a", "name": "Herm\u00e8s", "location": {"address": "Kurf\u00fcrstendamm 58", "lat": 52.50085859266073, "lng": 13.313935733452563, "labeledLatLngs": [{"label": "display", "lat": 52.50085859266073, "lng": 13.313935733452563}], "distance": 665, "postalCode": "10707", "cc": "DE", "city": "Berlin", "state": "Berlin", "country": "Deutschland", "formattedAddress": ["Kurf\u00fcrstendamm 58", "10707 Berlin", "Deutschland"]}, "categories": [{"id": "4bf58dd8d48988d104951735", "name": "Boutique", "pluralName": "Boutiques", "shortName": "Boutique", "icon": {"prefix": "https://ss3.4sqi.net/img/categories_v2/shops/apparel_boutique_", "suffix": ".png"}, "primary": true}], "photos": {"count": 0, "groups": []}}, "referralId": "e-0-4bc823b592b376b03fef503a-31"}, {"reasons": {"count": 0, "items": [{"summary": "This spot is popular", "type": "general", "reasonName": "globalInteractionReason"}]}, "venue": {"id": "54ecbda4498e37198455b1a1", "name": "DUDU 31", "location": {"address": "Bleibtreustr. 31", "lat": 52.50010975265674, "lng": 13.319504709254893, "labeledLatLngs": [{"label": "display", "lat": 52.50010975265674, "lng": 13.319504709254893}], "distance": 614, "postalCode": "10707", "cc": "DE", "city": "Berlin", "state": "Berlin", "country": "Deutschland", "formattedAddress": ["Bleibtreustr. 31", "10707 Berlin", "Deutschland"]}, "categories": [{"id": "4bf58dd8d48988d14a941735", "name": "Vietnamese Restaurant", "pluralName": "Vietnamese Restaurants", "shortName": "Vietnamese", "icon": {"prefix": "https://ss3.4sqi.net/img/categories_v2/food/vietnamese_", "suffix": ".png"}, "primary": true}], "photos": {"count": 0, "groups": []}}, "referralId": "e-0-54ecbda4498e37198455b1a1-32"}, {"reasons": {"count": 0, "items": [{"summary": "This spot is popular", "type": "general", "reasonName": "globalInteractionReason"}]}, "venue": {"id": "5216360e11d210fcd198295b", "name": "Shaniu's House of Noodles", "location": {"address": "Pariser Str. 58", "lat": 52.496075, "lng": 13.327859, "labeledLatLngs": [{"label": "display", "lat": 52.496075, "lng": 13.327859}], "distance": 811, "postalCode": "10719", "cc": "DE", "neighborhood": "Wilmersdorf", "city": "Berlin", "state": "Berlin", "country": "Deutschland", "formattedAddress": ["Pariser Str. 58", "10719 Berlin", "Deutschland"]}, "categories": [{"id": "4bf58dd8d48988d1d1941735", "name": "Noodle House", "pluralName": "Noodle Houses", "shortName": "Noodles", "icon": {"prefix": "https://ss3.4sqi.net/img/categories_v2/food/ramen_", "suffix": ".png"}, "primary": true}], "photos": {"count": 0, "groups": []}}, "referralId": "e-0-5216360e11d210fcd198295b-33"}, {"reasons": {"count": 0, "items": [{"summary": "This spot is popular", "type": "general", "reasonName": "globalInteractionReason"}]}, "venue": {"id": "4adcda70f964a520f34421e3", "name": "Hotel Bleibtreu", "location": {"address": "Bleibtreustr. 31", "lat": 52.50011841051571, "lng": 13.319680836787287, "labeledLatLngs": [{"label": "display", "lat": 52.50011841051571, "lng": 13.319680836787287}], "distance": 620, "postalCode": "10707", "cc": "DE", "city": "Berlin", "state": "Berlin", "country": "Deutschland", "formattedAddress": ["Bleibtreustr. 31", "10707 Berlin", "Deutschland"]}, "categories": [{"id": "4bf58dd8d48988d1fa931735", "name": "Hotel", "pluralName": "Hotels", "shortName": "Hotel", "icon": {"prefix": "https://ss3.4sqi.net/img/categories_v2/travel/hotel_", "suffix": ".png"}, "primary": true}], "photos": {"count": 0, "groups": []}, "venuePage": {"id": "38016150"}}, "referralId": "e-0-4adcda70f964a520f34421e3-34"}, {"reasons": {"count": 0, "items": [{"summary": "This spot is popular", "type": "general", "reasonName": "globalInteractionReason"}]}, "venue": {"id": "4adcda75f964a520964521e3", "name": "Caf\u00e9 Menta", "location": {"address": "Emser Stra\u00dfe 24", "lat": 52.497221811306815, "lng": 13.32019640214895, "labeledLatLngs": [{"label": "display", "lat": 52.497221811306815, "lng": 13.32019640214895}], "distance": 374, "postalCode": "10719", "cc": "DE", "neighborhood": "Hohenzollernplatz", "city": "Berlin", "state": "Berlin", "country": "Deutschland", "formattedAddress": ["Emser Stra\u00dfe 24", "10719 Berlin", "Deutschland"]}, "categories": [{"id": "4bf58dd8d48988d116941735", "name": "Bar", "pluralName": "Bars", "shortName": "Bar", "icon": {"prefix": "https://ss3.4sqi.net/img/categories_v2/nightlife/pub_", "suffix": ".png"}, "primary": true}], "photos": {"count": 0, "groups": []}}, "referralId": "e-0-4adcda75f964a520964521e3-35"}, {"reasons": {"count": 0, "items": [{"summary": "This spot is popular", "type": "general", "reasonName": "globalInteractionReason"}]}, "venue": {"id": "4c738b67ad69b60c185f86b9", "name": "Ludwigkirchplatz", "location": {"address": "Pariser Str. 47", "lat": 52.4970554, "lng": 13.323500099999999, "labeledLatLngs": [{"label": "display", "lat": 52.4970554, "lng": 13.323500099999999}], "distance": 555, "postalCode": "10719", "cc": "DE", "city": "Berlin", "state": "Berlin", "country": "Deutschland", "formattedAddress": ["Pariser Str. 47", "10719 Berlin", "Deutschland"]}, "categories": [{"id": "4bf58dd8d48988d164941735", "name": "Plaza", "pluralName": "Plazas", "shortName": "Plaza", "icon": {"prefix": "https://ss3.4sqi.net/img/categories_v2/parks_outdoors/plaza_", "suffix": ".png"}, "primary": true}], "photos": {"count": 0, "groups": []}}, "referralId": "e-0-4c738b67ad69b60c185f86b9-36"}, {"reasons": {"count": 0, "items": [{"summary": "This spot is popular", "type": "general", "reasonName": "globalInteractionReason"}]}, "venue": {"id": "4d600424e4fe548135eb7a9e", "name": "Restaurante Serrano", "location": {"address": "Pfalzburger Str. 83", "lat": 52.49872789500794, "lng": 13.322806899174262, "labeledLatLngs": [{"label": "display", "lat": 52.49872789500794, "lng": 13.322806899174262}], "distance": 618, "postalCode": "10719", "cc": "DE", "city": "Berlin", "state": "Berlin", "country": "Deutschland", "formattedAddress": ["Pfalzburger Str. 83", "10719 Berlin", "Deutschland"]}, "categories": [{"id": "4bf58dd8d48988d1cd941735", "name": "South American Restaurant", "pluralName": "South American Restaurants", "shortName": "South American", "icon": {"prefix": "https://ss3.4sqi.net/img/categories_v2/food/argentinian_", "suffix": ".png"}, "primary": true}], "photos": {"count": 0, "groups": []}}, "referralId": "e-0-4d600424e4fe548135eb7a9e-37"}, {"reasons": {"count": 0, "items": [{"summary": "This spot is popular", "type": "general", "reasonName": "globalInteractionReason"}]}, "venue": {"id": "598c2fa1123a190a434e7cf2", "name": "Kerszberg's", "location": {"lat": 52.495876, "lng": 13.323911, "labeledLatLngs": [{"label": "display", "lat": 52.495876, "lng": 13.323911}], "distance": 543, "postalCode": "10719", "cc": "DE", "city": "Berlin", "state": "Berlin", "country": "Deutschland", "formattedAddress": ["10719 Berlin", "Deutschland"]}, "categories": [{"id": "4bf58dd8d48988d143941735", "name": "Breakfast Spot", "pluralName": "Breakfast Spots", "shortName": "Breakfast", "icon": {"prefix": "https://ss3.4sqi.net/img/categories_v2/food/breakfast_", "suffix": ".png"}, "primary": true}], "photos": {"count": 0, "groups": []}}, "referralId": "e-0-598c2fa1123a190a434e7cf2-38"}, {"reasons": {"count": 0, "items": [{"summary": "This spot is popular", "type": "general", "reasonName": "globalInteractionReason"}]}, "venue": {"id": "4dbb15acf7b1ab37dd3bc1da", "name": "Bellucci", "location": {"address": "Brandenburgische Str. 35", "crossStreet": "Kurf\u00fcrstendamm", "lat": 52.4994299, "lng": 13.3068, "labeledLatLngs": [{"label": "display", "lat": 52.4994299, "lng": 13.3068}], "distance": 794, "postalCode": "10707", "cc": "DE", "city": "Berlin", "state": "Berlin", "country": "Deutschland", "formattedAddress": ["Brandenburgische Str. 35 (Kurf\u00fcrstendamm)", "10707 Berlin", "Deutschland"]}, "categories": [{"id": "4bf58dd8d48988d110941735", "name": "Italian Restaurant", "pluralName": "Italian Restaurants", "shortName": "Italian", "icon": {"prefix": "https://ss3.4sqi.net/img/categories_v2/food/italian_", "suffix": ".png"}, "primary": true}], "photos": {"count": 0, "groups": []}, "venuePage": {"id": "396422824"}}, "referralId": "e-0-4dbb15acf7b1ab37dd3bc1da-39"}, {"reasons": {"count": 0, "items": [{"summary": "This spot is popular", "type": "general", "reasonName": "globalInteractionReason"}]}, "venue": {"id": "4d559b93d8f7a090cba2d60a", "name": "Trattoria Pizzeria Salento", "location": {"address": "Eisenzahnstr. 16", "lat": 52.49479362582716, "lng": 13.304751853005637, "labeledLatLngs": [{"label": "display", "lat": 52.49479362582716, "lng": 13.304751853005637}], "distance": 763, "postalCode": "10709", "cc": "DE", "city": "Berlin", "state": "Berlin", "country": "Deutschland", "formattedAddress": ["Eisenzahnstr. 16", "10709 Berlin", "Deutschland"]}, "categories": [{"id": "55a5a1ebe4b013909087cb7f", "name": "Trattoria/Osteria", "pluralName": "Trattorias/Osterias", "shortName": "Trattoria/Osteria", "icon": {"prefix": "https://ss3.4sqi.net/img/categories_v2/food/italian_", "suffix": ".png"}, "primary": true}], "photos": {"count": 0, "groups": []}}, "referralId": "e-0-4d559b93d8f7a090cba2d60a-40"}, {"reasons": {"count": 0, "items": [{"summary": "This spot is popular", "type": "general", "reasonName": "globalInteractionReason"}]}, "venue": {"id": "4b969a06f964a520ced734e3", "name": "Taberna de Bellas Artes", "location": {"address": "Pfalzburger Str. 72A", "lat": 52.49630947595289, "lng": 13.32253337529159, "labeledLatLngs": [{"label": "display", "lat": 52.49630947595289, "lng": 13.32253337529159}], "distance": 464, "postalCode": "10719", "cc": "DE", "city": "Berlin", "state": "Berlin", "country": "Deutschland", "formattedAddress": ["Pfalzburger Str. 72A", "10719 Berlin", "Deutschland"]}, "categories": [{"id": "4bf58dd8d48988d1db931735", "name": "Tapas Restaurant", "pluralName": "Tapas Restaurants", "shortName": "Tapas", "icon": {"prefix": "https://ss3.4sqi.net/img/categories_v2/food/tapas_", "suffix": ".png"}, "primary": true}], "photos": {"count": 0, "groups": []}, "venuePage": {"id": "146793437"}}, "referralId": "e-0-4b969a06f964a520ced734e3-41"}, {"reasons": {"count": 0, "items": [{"summary": "This spot is popular", "type": "general", "reasonName": "globalInteractionReason"}]}, "venue": {"id": "58a04ec901f0772d803c209d", "name": "Bahadur", "location": {"address": "Sigmaringer Str. 36", "lat": 52.48779080041393, "lng": 13.319594974738457, "labeledLatLngs": [{"label": "display", "lat": 52.48779080041393, "lng": 13.319594974738457}], "distance": 839, "postalCode": "10713", "cc": "DE", "city": "Berlin", "state": "Berlin", "country": "Deutschland", "formattedAddress": ["Sigmaringer Str. 36", "10713 Berlin", "Deutschland"]}, "categories": [{"id": "4bf58dd8d48988d10f941735", "name": "Indian Restaurant", "pluralName": "Indian Restaurants", "shortName": "Indian", "icon": {"prefix": "https://ss3.4sqi.net/img/categories_v2/food/indian_", "suffix": ".png"}, "primary": true}], "photos": {"count": 0, "groups": []}}, "referralId": "e-0-58a04ec901f0772d803c209d-42"}, {"reasons": {"count": 0, "items": [{"summary": "This spot is popular", "type": "general", "reasonName": "globalInteractionReason"}]}, "venue": {"id": "4fd65b4ce4b09c16586f8962", "name": "bar 47", "location": {"address": "Fasenanstr. 47", "lat": 52.496160828503356, "lng": 13.326805409914595, "labeledLatLngs": [{"label": "display", "lat": 52.496160828503356, "lng": 13.326805409914595}], "distance": 742, "cc": "DE", "city": "Berlin", "state": "Berlin", "country": "Deutschland", "formattedAddress": ["Fasenanstr. 47", "Berlin", "Deutschland"]}, "categories": [{"id": "4bf58dd8d48988d11e941735", "name": "Cocktail Bar", "pluralName": "Cocktail Bars", "shortName": "Cocktail", "icon": {"prefix": "https://ss3.4sqi.net/img/categories_v2/nightlife/cocktails_", "suffix": ".png"}, "primary": true}], "photos": {"count": 0, "groups": []}}, "referralId": "e-0-4fd65b4ce4b09c16586f8962-43"}, {"reasons": {"count": 0, "items": [{"summary": "This spot is popular", "type": "general", "reasonName": "globalInteractionReason"}]}, "venue": {"id": "4b2ce2e9f964a52054ca24e3", "name": "Olivaer Platz", "location": {"address": "Lietzenburger Str.", "crossStreet": "Schl\u00fcterstr.", "lat": 52.49937309472746, "lng": 13.314635753631592, "labeledLatLngs": [{"label": "display", "lat": 52.49937309472746, "lng": 13.314635753631592}], "distance": 494, "postalCode": "10707", "cc": "DE", "city": "Berlin", "state": "Berlin", "country": "Deutschland", "formattedAddress": ["Lietzenburger Str. (Schl\u00fcterstr.)", "10707 Berlin", "Deutschland"]}, "categories": [{"id": "4bf58dd8d48988d164941735", "name": "Plaza", "pluralName": "Plazas", "shortName": "Plaza", "icon": {"prefix": "https://ss3.4sqi.net/img/categories_v2/parks_outdoors/plaza_", "suffix": ".png"}, "primary": true}], "photos": {"count": 0, "groups": []}}, "referralId": "e-0-4b2ce2e9f964a52054ca24e3-44"}, {"reasons": {"count": 0, "items": [{"summary": "This spot is popular", "type": "general", "reasonName": "globalInteractionReason"}]}, "venue": {"id": "4e3bd5c91850d7b505e58171", "name": "Die gute Stube", "location": {"address": "Pfalzburger Str. 24", "lat": 52.493399408770166, "lng": 13.32171142532367, "labeledLatLngs": [{"label": "display", "lat": 52.493399408770166, "lng": 13.32171142532367}], "distance": 425, "postalCode": "10719", "cc": "DE", "neighborhood": "Hohenzollernplatz", "city": "Berlin", "state": "Berlin", "country": "Deutschland", "formattedAddress": ["Pfalzburger Str. 24", "10719 Berlin", "Deutschland"]}, "categories": [{"id": "4bf58dd8d48988d10d941735", "name": "German Restaurant", "pluralName": "German Restaurants", "shortName": "German", "icon": {"prefix": "https://ss3.4sqi.net/img/categories_v2/food/german_", "suffix": ".png"}, "primary": true}], "photos": {"count": 0, "groups": []}}, "referralId": "e-0-4e3bd5c91850d7b505e58171-45"}, {"reasons": {"count": 0, "items": [{"summary": "This spot is popular", "type": "general", "reasonName": "globalInteractionReason"}]}, "venue": {"id": "4adcda76f964a520ac4521e3", "name": "Hamlet", "location": {"address": "Ludwigkirchstr. 6", "crossStreet": "Uhlandstr.", "lat": 52.49787182666313, "lng": 13.323996370727691, "labeledLatLngs": [{"label": "display", "lat": 52.49787182666313, "lng": 13.323996370727691}], "distance": 627, "postalCode": "10719", "cc": "DE", "city": "Berlin", "state": "Berlin", "country": "Deutschland", "formattedAddress": ["Ludwigkirchstr. 6 (Uhlandstr.)", "10719 Berlin", "Deutschland"]}, "categories": [{"id": "4bf58dd8d48988d110941735", "name": "Italian Restaurant", "pluralName": "Italian Restaurants", "shortName": "Italian", "icon": {"prefix": "https://ss3.4sqi.net/img/categories_v2/food/italian_", "suffix": ".png"}, "primary": true}], "photos": {"count": 0, "groups": []}}, "referralId": "e-0-4adcda76f964a520ac4521e3-46"}, {"reasons": {"count": 0, "items": [{"summary": "This spot is popular", "type": "general", "reasonName": "globalInteractionReason"}]}, "venue": {"id": "4b9ca97df964a520237536e3", "name": "Tillmann Bio Konditorei", "location": {"address": "Ludwigkirchstr. 14", "lat": 52.498158379086824, "lng": 13.326088605004422, "labeledLatLngs": [{"label": "display", "lat": 52.498158379086824, "lng": 13.326088605004422}], "distance": 767, "postalCode": "10719", "cc": "DE", "city": "Berlin", "state": "Berlin", "country": "Deutschland", "formattedAddress": ["Ludwigkirchstr. 14", "10719 Berlin", "Deutschland"]}, "categories": [{"id": "5744ccdfe4b0c0459246b4e2", "name": "Pastry Shop", "pluralName": "Pastry Shops", "shortName": "Pastry", "icon": {"prefix": "https://ss3.4sqi.net/img/categories_v2/food/dessert_", "suffix": ".png"}, "primary": true}], "photos": {"count": 0, "groups": []}}, "referralId": "e-0-4b9ca97df964a520237536e3-47"}, {"reasons": {"count": 0, "items": [{"summary": "This spot is popular", "type": "general", "reasonName": "globalInteractionReason"}]}, "venue": {"id": "4ebc0ad9b803cf8e0edd0200", "name": "Rolex Boutique", "location": {"address": "Kurf\u00fcrstendamm 184", "lat": 52.50073426281435, "lng": 13.314097125142466, "labeledLatLngs": [{"label": "display", "lat": 52.50073426281435, "lng": 13.314097125142466}], "distance": 649, "postalCode": "10707", "cc": "DE", "city": "Berlin", "state": "Berlin", "country": "Deutschland", "formattedAddress": ["Kurf\u00fcrstendamm 184", "10707 Berlin", "Deutschland"]}, "categories": [{"id": "52f2ab2ebcbc57f1066b8b2e", "name": "Watch Shop", "pluralName": "Watch Shops", "shortName": "Watch Shops", "icon": {"prefix": "https://ss3.4sqi.net/img/categories_v2/shops/default_", "suffix": ".png"}, "primary": true}], "photos": {"count": 0, "groups": []}}, "referralId": "e-0-4ebc0ad9b803cf8e0edd0200-48"}, {"reasons": {"count": 0, "items": [{"summary": "This spot is popular", "type": "general", "reasonName": "globalInteractionReason"}]}, "venue": {"id": "53a405e1498ea7107d9a9439", "name": "Delicious Berlin", "location": {"address": "Pariser Strasse 54", "lat": 52.496433868869055, "lng": 13.326137065887451, "labeledLatLngs": [{"label": "display", "lat": 52.496433868869055, "lng": 13.326137065887451}], "distance": 703, "postalCode": "10719", "cc": "DE", "city": "Berlin", "state": "Berlin", "country": "Deutschland", "formattedAddress": ["Pariser Strasse 54", "10719 Berlin", "Deutschland"]}, "categories": [{"id": "4bf58dd8d48988d186941735", "name": "Liquor Store", "pluralName": "Liquor Stores", "shortName": "Liquor Store", "icon": {"prefix": "https://ss3.4sqi.net/img/categories_v2/shops/food_liquor_", "suffix": ".png"}, "primary": true}], "photos": {"count": 0, "groups": []}, "venuePage": {"id": "88578424"}}, "referralId": "e-0-53a405e1498ea7107d9a9439-49"}, {"reasons": {"count": 0, "items": [{"summary": "This spot is popular", "type": "general", "reasonName": "globalInteractionReason"}]}, "venue": {"id": "4bc8e74e762beee155ac3d38", "name": "Louisa\u00b4s Place", "location": {"address": "Kurf\u00fcrstendamm 160", "lat": 52.49950044843784, "lng": 13.305003752517328, "labeledLatLngs": [{"label": "display", "lat": 52.49950044843784, "lng": 13.305003752517328}], "distance": 898, "postalCode": "10709", "cc": "DE", "city": "Berlin", "state": "Berlin", "country": "Deutschland", "formattedAddress": ["Kurf\u00fcrstendamm 160", "10709 Berlin", "Deutschland"]}, "categories": [{"id": "4bf58dd8d48988d1fa931735", "name": "Hotel", "pluralName": "Hotels", "shortName": "Hotel", "icon": {"prefix": "https://ss3.4sqi.net/img/categories_v2/travel/hotel_", "suffix": ".png"}, "primary": true}], "photos": {"count": 0, "groups": []}, "venuePage": {"id": "83907820"}}, "referralId": "e-0-4bc8e74e762beee155ac3d38-50"}, {"reasons": {"count": 0, "items": [{"summary": "This spot is popular", "type": "general", "reasonName": "globalInteractionReason"}]}, "venue": {"id": "59233ff31de76541b8976d74", "name": "EDEKA", "location": {"address": "Knesebeckstr. 56-58", "lat": 52.5004541, "lng": 13.3220817, "labeledLatLngs": [{"label": "display", "lat": 52.5004541, "lng": 13.3220817}], "distance": 731, "postalCode": "10719", "cc": "DE", "city": "Berlin", "state": "Berlin", "country": "Deutschland", "formattedAddress": ["Knesebeckstr. 56-58", "10719 Berlin", "Deutschland"]}, "categories": [{"id": "52f2ab2ebcbc57f1066b8b46", "name": "Supermarket", "pluralName": "Supermarkets", "shortName": "Supermarket", "icon": {"prefix": "https://ss3.4sqi.net/img/categories_v2/shops/food_grocery_", "suffix": ".png"}, "primary": true}], "photos": {"count": 0, "groups": []}, "venuePage": {"id": "556453626"}}, "referralId": "e-0-59233ff31de76541b8976d74-51"}, {"reasons": {"count": 0, "items": [{"summary": "This spot is popular", "type": "general", "reasonName": "globalInteractionReason"}]}, "venue": {"id": "534188b2498eed252015139b", "name": "Somtam Thai Restaurant", "location": {"address": "S\u00e4chsische Str. 1", "crossStreet": "Lietzenburger Str.", "lat": 52.499306, "lng": 13.318832, "labeledLatLngs": [{"label": "display", "lat": 52.499306, "lng": 13.318832}], "distance": 514, "cc": "DE", "city": "Berlin", "state": "Berlin", "country": "Deutschland", "formattedAddress": ["S\u00e4chsische Str. 1 (Lietzenburger Str.)", "Berlin", "Deutschland"]}, "categories": [{"id": "4bf58dd8d48988d149941735", "name": "Thai Restaurant", "pluralName": "Thai Restaurants", "shortName": "Thai", "icon": {"prefix": "https://ss3.4sqi.net/img/categories_v2/food/thai_", "suffix": ".png"}, "primary": true}], "photos": {"count": 0, "groups": []}}, "referralId": "e-0-534188b2498eed252015139b-52"}, {"reasons": {"count": 0, "items": [{"summary": "This spot is popular", "type": "general", "reasonName": "globalInteractionReason"}]}, "venue": {"id": "4ba79b1ef964a520bfa139e3", "name": "Citadines Kurf\u00fcrstendamm Berlin", "location": {"address": "Olivaer Platz 1", "crossStreet": "Xantener Str.", "lat": 52.49907918130208, "lng": 13.312656810779947, "labeledLatLngs": [{"label": "display", "lat": 52.49907918130208, "lng": 13.312656810779947}], "distance": 506, "postalCode": "10707", "cc": "DE", "city": "Berlin", "state": "Berlin", "country": "Deutschland", "formattedAddress": ["Olivaer Platz 1 (Xantener Str.)", "10707 Berlin", "Deutschland"]}, "categories": [{"id": "4bf58dd8d48988d1fa931735", "name": "Hotel", "pluralName": "Hotels", "shortName": "Hotel", "icon": {"prefix": "https://ss3.4sqi.net/img/categories_v2/travel/hotel_", "suffix": ".png"}, "primary": true}], "photos": {"count": 0, "groups": []}}, "referralId": "e-0-4ba79b1ef964a520bfa139e3-53"}, {"reasons": {"count": 0, "items": [{"summary": "This spot is popular", "type": "general", "reasonName": "globalInteractionReason"}]}, "venue": {"id": "5d053dbb10fe5a0023e0eaf9", "name": "The Catch", "location": {"address": "Bleibtreustra\u00dfe 41", "lat": 52.502867, "lng": 13.319718, "labeledLatLngs": [{"label": "display", "lat": 52.502867, "lng": 13.319718}], "distance": 909, "cc": "DE", "country": "Deutschland", "formattedAddress": ["Bleibtreustra\u00dfe 41", "Deutschland"]}, "categories": [{"id": "4bf58dd8d48988d1ce941735", "name": "Seafood Restaurant", "pluralName": "Seafood Restaurants", "shortName": "Seafood", "icon": {"prefix": "https://ss3.4sqi.net/img/categories_v2/food/seafood_", "suffix": ".png"}, "primary": true}], "photos": {"count": 0, "groups": []}}, "referralId": "e-0-5d053dbb10fe5a0023e0eaf9-54"}, {"reasons": {"count": 0, "items": [{"summary": "This spot is popular", "type": "general", "reasonName": "globalInteractionReason"}]}, "venue": {"id": "4d481aa4febd8eec4f651282", "name": "BERLINRODEO interior concepts GmbH", "location": {"address": "Kadiner Stra\u00dfe 20a", "lat": 52.50116261839336, "lng": 13.325813509105057, "labeledLatLngs": [{"label": "display", "lat": 52.50116261839336, "lng": 13.325813509105057}], "distance": 953, "postalCode": "10243", "cc": "DE", "city": "Berlin", "state": "Berlin", "country": "Deutschland", "formattedAddress": ["Kadiner Stra\u00dfe 20a", "10243 Berlin", "Deutschland"]}, "categories": [{"id": "4bf58dd8d48988d1f8941735", "name": "Furniture / Home Store", "pluralName": "Furniture / Home Stores", "shortName": "Furniture / Home", "icon": {"prefix": "https://ss3.4sqi.net/img/categories_v2/shops/furniture_", "suffix": ".png"}, "primary": true}], "photos": {"count": 0, "groups": []}}, "referralId": "e-0-4d481aa4febd8eec4f651282-55"}, {"reasons": {"count": 0, "items": [{"summary": "This spot is popular", "type": "general", "reasonName": "globalInteractionReason"}]}, "venue": {"id": "555b276b498eae864bc2cf97", "name": "BIO COMPANY", "location": {"address": "Fehrbelliner Platz 5", "lat": 52.49062387825447, "lng": 13.313468848806771, "labeledLatLngs": [{"label": "display", "lat": 52.49062387825447, "lng": 13.313468848806771}], "distance": 518, "postalCode": "10707", "cc": "DE", "city": "Berlin", "state": "Berlin", "country": "Deutschland", "formattedAddress": ["Fehrbelliner Platz 5", "10707 Berlin", "Deutschland"]}, "categories": [{"id": "52f2ab2ebcbc57f1066b8b45", "name": "Organic Grocery", "pluralName": "Organic Groceries", "shortName": "Organic Grocery", "icon": {"prefix": "https://ss3.4sqi.net/img/categories_v2/shops/food_grocery_", "suffix": ".png"}, "primary": true}], "photos": {"count": 0, "groups": []}, "venuePage": {"id": "453038825"}}, "referralId": "e-0-555b276b498eae864bc2cf97-56"}, {"reasons": {"count": 0, "items": [{"summary": "This spot is popular", "type": "general", "reasonName": "globalInteractionReason"}]}, "venue": {"id": "51549c63e4b0ac96a8613d22", "name": "Samrat", "location": {"address": "G\u00fcntzelstr. 19-20", "lat": 52.49112966356372, "lng": 13.325864431952068, "labeledLatLngs": [{"label": "display", "lat": 52.49112966356372, "lng": 13.325864431952068}], "distance": 795, "postalCode": "10717", "cc": "DE", "city": "Berlin", "state": "Berlin", "country": "Deutschland", "formattedAddress": ["G\u00fcntzelstr. 19-20", "10717 Berlin", "Deutschland"]}, "categories": [{"id": "4bf58dd8d48988d10f941735", "name": "Indian Restaurant", "pluralName": "Indian Restaurants", "shortName": "Indian", "icon": {"prefix": "https://ss3.4sqi.net/img/categories_v2/food/indian_", "suffix": ".png"}, "primary": true}], "photos": {"count": 0, "groups": []}}, "referralId": "e-0-51549c63e4b0ac96a8613d22-57"}, {"reasons": {"count": 0, "items": [{"summary": "This spot is popular", "type": "general", "reasonName": "globalInteractionReason"}]}, "venue": {"id": "4adcda8ff964a520ea4a21e3", "name": "CHANEL", "location": {"address": "Kurf\u00fcrstendamm 188-189", "lat": 52.500815718286525, "lng": 13.316032029430403, "labeledLatLngs": [{"label": "display", "lat": 52.500815718286525, "lng": 13.316032029430403}], "distance": 645, "postalCode": "10707", "cc": "DE", "city": "Berlin", "state": "Berlin", "country": "Deutschland", "formattedAddress": ["Kurf\u00fcrstendamm 188-189", "10707 Berlin", "Deutschland"]}, "categories": [{"id": "4bf58dd8d48988d104951735", "name": "Boutique", "pluralName": "Boutiques", "shortName": "Boutique", "icon": {"prefix": "https://ss3.4sqi.net/img/categories_v2/shops/apparel_boutique_", "suffix": ".png"}, "primary": true}], "photos": {"count": 0, "groups": []}}, "referralId": "e-0-4adcda8ff964a520ea4a21e3-58"}, {"reasons": {"count": 0, "items": [{"summary": "This spot is popular", "type": "general", "reasonName": "globalInteractionReason"}]}, "venue": {"id": "56b8e7b6498e53579eaf155c", "name": "Kame", "location": {"address": "Leibnizstr. 45", "lat": 52.50385597300255, "lng": 13.313506884965676, "labeledLatLngs": [{"label": "display", "lat": 52.50385597300255, "lng": 13.313506884965676}], "distance": 998, "cc": "DE", "city": "Berlin", "state": "Berlin", "country": "Deutschland", "formattedAddress": ["Leibnizstr. 45", "Berlin", "Deutschland"]}, "categories": [{"id": "4bf58dd8d48988d16a941735", "name": "Bakery", "pluralName": "Bakeries", "shortName": "Bakery", "icon": {"prefix": "https://ss3.4sqi.net/img/categories_v2/food/bakery_", "suffix": ".png"}, "primary": true}], "photos": {"count": 0, "groups": []}}, "referralId": "e-0-56b8e7b6498e53579eaf155c-59"}, {"reasons": {"count": 0, "items": [{"summary": "This spot is popular", "type": "general", "reasonName": "globalInteractionReason"}]}, "venue": {"id": "4fddc220e4b0f11e359caa0a", "name": "What do you fancy love?", "location": {"address": "Knesebeckstr. 68-69", "lat": 52.502873, "lng": 13.322322, "labeledLatLngs": [{"label": "display", "lat": 52.502873, "lng": 13.322322}], "distance": 973, "postalCode": "10623", "cc": "DE", "neighborhood": "Charlottenburg", "city": "Berlin", "state": "Berlin", "country": "Deutschland", "formattedAddress": ["Knesebeckstr. 68-69", "10623 Berlin", "Deutschland"]}, "categories": [{"id": "4bf58dd8d48988d16d941735", "name": "Caf\u00e9", "pluralName": "Caf\u00e9s", "shortName": "Caf\u00e9", "icon": {"prefix": "https://ss3.4sqi.net/img/categories_v2/food/cafe_", "suffix": ".png"}, "primary": true}], "photos": {"count": 0, "groups": []}}, "referralId": "e-0-4fddc220e4b0f11e359caa0a-60"}, {"reasons": {"count": 0, "items": [{"summary": "This spot is popular", "type": "general", "reasonName": "globalInteractionReason"}]}, "venue": {"id": "4db43b0d0437fa536a26ba54", "name": "Kuchel-Eck", "location": {"address": "Ludwigkirchplatz 1", "lat": 52.497983, "lng": 13.322444, "labeledLatLngs": [{"label": "display", "lat": 52.497983, "lng": 13.322444}], "distance": 546, "postalCode": "10719", "cc": "DE", "city": "Berlin", "state": "Berlin", "country": "Deutschland", "formattedAddress": ["Ludwigkirchplatz 1", "10719 Berlin", "Deutschland"]}, "categories": [{"id": "4bf58dd8d48988d116941735", "name": "Bar", "pluralName": "Bars", "shortName": "Bar", "icon": {"prefix": "https://ss3.4sqi.net/img/categories_v2/nightlife/pub_", "suffix": ".png"}, "primary": true}], "photos": {"count": 0, "groups": []}}, "referralId": "e-0-4db43b0d0437fa536a26ba54-61"}, {"reasons": {"count": 0, "items": [{"summary": "This spot is popular", "type": "general", "reasonName": "globalInteractionReason"}]}, "venue": {"id": "4b8945cff964a5209e2732e3", "name": "Block House", "location": {"address": "Kurf\u00fcrstendamm 161a", "crossStreet": "Adenauer Platz", "lat": 52.49984567817438, "lng": 13.306932507476587, "labeledLatLngs": [{"label": "display", "lat": 52.49984567817438, "lng": 13.306932507476587}], "distance": 817, "postalCode": "10709", "cc": "DE", "city": "Berlin", "state": "Berlin", "country": "Deutschland", "formattedAddress": ["Kurf\u00fcrstendamm 161a (Adenauer Platz)", "10709 Berlin", "Deutschland"]}, "categories": [{"id": "4bf58dd8d48988d1cc941735", "name": "Steakhouse", "pluralName": "Steakhouses", "shortName": "Steakhouse", "icon": {"prefix": "https://ss3.4sqi.net/img/categories_v2/food/steakhouse_", "suffix": ".png"}, "primary": true}], "photos": {"count": 0, "groups": []}, "venuePage": {"id": "534171387"}}, "referralId": "e-0-4b8945cff964a5209e2732e3-62"}, {"reasons": {"count": 0, "items": [{"summary": "This spot is popular", "type": "general", "reasonName": "globalInteractionReason"}]}, "venue": {"id": "563f3ffecd10627b5f52b02f", "name": "earlybean", "location": {"address": "Clausewitzstr. 9", "lat": 52.50188858792343, "lng": 13.309739981661298, "labeledLatLngs": [{"label": "display", "lat": 52.50188858792343, "lng": 13.309739981661298}], "distance": 875, "cc": "DE", "neighborhood": "Charlottenburg", "city": "Berlin", "state": "Berlin", "country": "Deutschland", "formattedAddress": ["Clausewitzstr. 9", "Berlin", "Deutschland"]}, "categories": [{"id": "4bf58dd8d48988d179941735", "name": "Bagel Shop", "pluralName": "Bagel Shops", "shortName": "Bagels", "icon": {"prefix": "https://ss3.4sqi.net/img/categories_v2/food/bagels_", "suffix": ".png"}, "primary": true}], "photos": {"count": 0, "groups": []}}, "referralId": "e-0-563f3ffecd10627b5f52b02f-63"}, {"reasons": {"count": 0, "items": [{"summary": "This spot is popular", "type": "general", "reasonName": "globalInteractionReason"}]}, "venue": {"id": "4adcda8af964a520bb4921e3", "name": "Schaub\u00fchne am Lehniner Platz", "location": {"address": "Kurf\u00fcrstendamm 153", "lat": 52.49893053247921, "lng": 13.302726330794998, "labeledLatLngs": [{"label": "display", "lat": 52.49893053247921, "lng": 13.302726330794998}], "distance": 1000, "postalCode": "10709", "cc": "DE", "city": "Berlin", "state": "Berlin", "country": "Deutschland", "formattedAddress": ["Kurf\u00fcrstendamm 153", "10709 Berlin", "Deutschland"]}, "categories": [{"id": "4bf58dd8d48988d137941735", "name": "Theater", "pluralName": "Theaters", "shortName": "Theater", "icon": {"prefix": "https://ss3.4sqi.net/img/categories_v2/arts_entertainment/performingarts_theater_", "suffix": ".png"}, "primary": true}], "photos": {"count": 0, "groups": []}}, "referralId": "e-0-4adcda8af964a520bb4921e3-64"}, {"reasons": {"count": 0, "items": [{"summary": "This spot is popular", "type": "general", "reasonName": "globalInteractionReason"}]}, "venue": {"id": "4b5416f1f964a520eab127e3", "name": "Manzini", "location": {"address": "Ludwigkirchstr. 11", "lat": 52.498053203986764, "lng": 13.325015907016061, "labeledLatLngs": [{"label": "display", "lat": 52.498053203986764, "lng": 13.325015907016061}], "distance": 697, "postalCode": "10719", "cc": "DE", "city": "Berlin", "state": "Berlin", "country": "Deutschland", "formattedAddress": ["Ludwigkirchstr. 11", "10719 Berlin", "Deutschland"]}, "categories": [{"id": "4bf58dd8d48988d10c941735", "name": "French Restaurant", "pluralName": "French Restaurants", "shortName": "French", "icon": {"prefix": "https://ss3.4sqi.net/img/categories_v2/food/french_", "suffix": ".png"}, "primary": true}], "photos": {"count": 0, "groups": []}, "venuePage": {"id": "378817187"}}, "referralId": "e-0-4b5416f1f964a520eab127e3-65"}, {"reasons": {"count": 0, "items": [{"summary": "This spot is popular", "type": "general", "reasonName": "globalInteractionReason"}]}, "venue": {"id": "4bbb91b4ed7776b0289e3e51", "name": "Baba Angora", "location": {"address": "Schl\u00fcterstr. 29", "crossStreet": "Niebuhrstr.", "lat": 52.50397748686864, "lng": 13.31718921661377, "labeledLatLngs": [{"label": "display", "lat": 52.50397748686864, "lng": 13.31718921661377}], "distance": 1001, "postalCode": "10629", "cc": "DE", "city": "Berlin", "state": "Berlin", "country": "Deutschland", "formattedAddress": ["Schl\u00fcterstr. 29 (Niebuhrstr.)", "10629 Berlin", "Deutschland"]}, "categories": [{"id": "5283c7b4e4b094cb91ec88d8", "name": "Doner Restaurant", "pluralName": "Doner Restaurants", "shortName": "Doner", "icon": {"prefix": "https://ss3.4sqi.net/img/categories_v2/food/turkish_", "suffix": ".png"}, "primary": true}], "photos": {"count": 0, "groups": []}}, "referralId": "e-0-4bbb91b4ed7776b0289e3e51-66"}, {"reasons": {"count": 0, "items": [{"summary": "This spot is popular", "type": "general", "reasonName": "globalInteractionReason"}]}, "venue": {"id": "517a94f7498ef2a2ee4474e1", "name": "Alnatura", "location": {"address": "Giesebrechtstr. 4", "lat": 52.50225728395031, "lng": 13.309252745146406, "labeledLatLngs": [{"label": "display", "lat": 52.50225728395031, "lng": 13.309252745146406}], "distance": 927, "postalCode": "10629", "cc": "DE", "city": "Berlin", "state": "Berlin", "country": "Deutschland", "formattedAddress": ["Giesebrechtstr. 4", "10629 Berlin", "Deutschland"]}, "categories": [{"id": "52f2ab2ebcbc57f1066b8b45", "name": "Organic Grocery", "pluralName": "Organic Groceries", "shortName": "Organic Grocery", "icon": {"prefix": "https://ss3.4sqi.net/img/categories_v2/shops/food_grocery_", "suffix": ".png"}, "primary": true}], "photos": {"count": 0, "groups": []}}, "referralId": "e-0-517a94f7498ef2a2ee4474e1-67"}, {"reasons": {"count": 0, "items": [{"summary": "This spot is popular", "type": "general", "reasonName": "globalInteractionReason"}]}, "venue": {"id": "5a196577d1a40265804e38f4", "name": "Viet Bowl", "location": {"address": "Uhlandstra\u00dfe 156", "lat": 52.498319, "lng": 13.324653, "labeledLatLngs": [{"label": "display", "lat": 52.498319, "lng": 13.324653}], "distance": 691, "postalCode": "10719", "cc": "DE", "city": "Berlin", "state": "Berlin", "country": "Deutschland", "formattedAddress": ["Uhlandstra\u00dfe 156", "10719 Berlin", "Deutschland"]}, "categories": [{"id": "4bf58dd8d48988d14a941735", "name": "Vietnamese Restaurant", "pluralName": "Vietnamese Restaurants", "shortName": "Vietnamese", "icon": {"prefix": "https://ss3.4sqi.net/img/categories_v2/food/vietnamese_", "suffix": ".png"}, "primary": true}], "photos": {"count": 0, "groups": []}, "venuePage": {"id": "545911307"}}, "referralId": "e-0-5a196577d1a40265804e38f4-68"}, {"reasons": {"count": 0, "items": [{"summary": "This spot is popular", "type": "general", "reasonName": "globalInteractionReason"}]}, "venue": {"id": "514b67e0e4b0e04b86738232", "name": "Handoyos", "location": {"lat": 52.49781067140737, "lng": 13.32186040736209, "labeledLatLngs": [{"label": "display", "lat": 52.49781067140737, "lng": 13.32186040736209}], "distance": 503, "cc": "DE", "city": "Berlin", "state": "Berlin", "country": "Deutschland", "formattedAddress": ["Berlin", "Deutschland"]}, "categories": [{"id": "4deefc054765f83613cdba6f", "name": "Indonesian Restaurant", "pluralName": "Indonesian Restaurants", "shortName": "Indonesian", "icon": {"prefix": "https://ss3.4sqi.net/img/categories_v2/food/indonesian_", "suffix": ".png"}, "primary": true}], "photos": {"count": 0, "groups": []}}, "referralId": "e-0-514b67e0e4b0e04b86738232-69"}, {"reasons": {"count": 0, "items": [{"summary": "This spot is popular", "type": "general", "reasonName": "globalInteractionReason"}]}, "venue": {"id": "4bc6f8d5af07a593f6487e2d", "name": "Ikesu Japanisches Restaurant", "location": {"address": "Uhlandstr. 157", "lat": 52.498633, "lng": 13.324695, "labeledLatLngs": [{"label": "display", "lat": 52.498633, "lng": 13.324695}], "distance": 712, "postalCode": "10719", "cc": "DE", "city": "Berlin", "state": "Berlin", "country": "Deutschland", "formattedAddress": ["Uhlandstr. 157", "10719 Berlin", "Deutschland"]}, "categories": [{"id": "4bf58dd8d48988d111941735", "name": "Japanese Restaurant", "pluralName": "Japanese Restaurants", "shortName": "Japanese", "icon": {"prefix": "https://ss3.4sqi.net/img/categories_v2/food/japanese_", "suffix": ".png"}, "primary": true}], "photos": {"count": 0, "groups": []}, "venuePage": {"id": "163468990"}}, "referralId": "e-0-4bc6f8d5af07a593f6487e2d-70"}, {"reasons": {"count": 0, "items": [{"summary": "This spot is popular", "type": "general", "reasonName": "globalInteractionReason"}]}, "venue": {"id": "4bc49989abf495213c3fc593", "name": "Bier\u2019s Kudamm 195", "location": {"address": "Kurf\u00fcrstendamm 195", "crossStreet": "Bleibtreustra\u00dfe", "lat": 52.50147913818119, "lng": 13.318797451427804, "labeledLatLngs": [{"label": "display", "lat": 52.50147913818119, "lng": 13.318797451427804}], "distance": 743, "postalCode": "10707", "cc": "DE", "city": "Berlin", "state": "Berlin", "country": "Deutschland", "formattedAddress": ["Kurf\u00fcrstendamm 195 (Bleibtreustra\u00dfe)", "10707 Berlin", "Deutschland"]}, "categories": [{"id": "4bf58dd8d48988d1c7941735", "name": "Snack Place", "pluralName": "Snack Places", "shortName": "Snacks", "icon": {"prefix": "https://ss3.4sqi.net/img/categories_v2/food/snacks_", "suffix": ".png"}, "primary": true}], "photos": {"count": 0, "groups": []}}, "referralId": "e-0-4bc49989abf495213c3fc593-71"}, {"reasons": {"count": 0, "items": [{"summary": "This spot is popular", "type": "general", "reasonName": "globalInteractionReason"}]}, "venue": {"id": "5aeb3a067564f700390f38e7", "name": "SAVU", "location": {"address": "Kurf\u00fcrstendamm 160", "crossStreet": "Eisenzahnstr.", "lat": 52.49932297539343, "lng": 13.305033296055626, "labeledLatLngs": [{"label": "display", "lat": 52.49932297539343, "lng": 13.305033296055626}], "distance": 885, "postalCode": "10709", "cc": "DE", "city": "Berlin", "state": "Berlin", "country": "Deutschland", "formattedAddress": ["Kurf\u00fcrstendamm 160 (Eisenzahnstr.)", "10709 Berlin", "Deutschland"]}, "categories": [{"id": "52e81612bcbc57f1066b79f9", "name": "Modern European Restaurant", "pluralName": "Modern European Restaurants", "shortName": "Modern European", "icon": {"prefix": "https://ss3.4sqi.net/img/categories_v2/food/default_", "suffix": ".png"}, "primary": true}], "photos": {"count": 0, "groups": []}}, "referralId": "e-0-5aeb3a067564f700390f38e7-72"}, {"reasons": {"count": 0, "items": [{"summary": "This spot is popular", "type": "general", "reasonName": "globalInteractionReason"}]}, "venue": {"id": "4be17a0fc1732d7ff0195c9a", "name": "Gucci", "location": {"address": "Kurf\u00fcrstendamm 190,192", "lat": 52.5009512146488, "lng": 13.317289799451828, "labeledLatLngs": [{"label": "display", "lat": 52.5009512146488, "lng": 13.317289799451828}], "distance": 666, "postalCode": "10707", "cc": "DE", "city": "Berlin", "state": "Berlin", "country": "Deutschland", "formattedAddress": ["Kurf\u00fcrstendamm 190,192", "10707 Berlin", "Deutschland"]}, "categories": [{"id": "4bf58dd8d48988d104951735", "name": "Boutique", "pluralName": "Boutiques", "shortName": "Boutique", "icon": {"prefix": "https://ss3.4sqi.net/img/categories_v2/shops/apparel_boutique_", "suffix": ".png"}, "primary": true}], "photos": {"count": 0, "groups": []}}, "referralId": "e-0-4be17a0fc1732d7ff0195c9a-73"}, {"reasons": {"count": 0, "items": [{"summary": "This spot is popular", "type": "general", "reasonName": "globalInteractionReason"}]}, "venue": {"id": "4b9ff279f964a520b44c37e3", "name": "Hotel Q!", "location": {"address": "Knesebeckstr. 67", "lat": 52.50260284042012, "lng": 13.322196759843308, "labeledLatLngs": [{"label": "display", "lat": 52.50260284042012, "lng": 13.322196759843308}], "distance": 942, "postalCode": "10623", "cc": "DE", "city": "Berlin", "state": "Berlin", "country": "Deutschland", "formattedAddress": ["Knesebeckstr. 67", "10623 Berlin", "Deutschland"]}, "categories": [{"id": "4bf58dd8d48988d1fa931735", "name": "Hotel", "pluralName": "Hotels", "shortName": "Hotel", "icon": {"prefix": "https://ss3.4sqi.net/img/categories_v2/travel/hotel_", "suffix": ".png"}, "primary": true}], "photos": {"count": 0, "groups": []}}, "referralId": "e-0-4b9ff279f964a520b44c37e3-74"}, {"reasons": {"count": 0, "items": [{"summary": "This spot is popular", "type": "general", "reasonName": "globalInteractionReason"}]}, "venue": {"id": "55f9a48e498ee737a1893058", "name": "Heno Heno", "location": {"address": "Wielandstr. 37", "lat": 52.503964035304826, "lng": 13.315577685864188, "labeledLatLngs": [{"label": "display", "lat": 52.503964035304826, "lng": 13.315577685864188}], "distance": 996, "postalCode": "10623", "cc": "DE", "city": "Berlin", "state": "Berlin", "country": "Deutschland", "formattedAddress": ["Wielandstr. 37", "10623 Berlin", "Deutschland"]}, "categories": [{"id": "4bf58dd8d48988d111941735", "name": "Japanese Restaurant", "pluralName": "Japanese Restaurants", "shortName": "Japanese", "icon": {"prefix": "https://ss3.4sqi.net/img/categories_v2/food/japanese_", "suffix": ".png"}, "primary": true}], "photos": {"count": 0, "groups": []}}, "referralId": "e-0-55f9a48e498ee737a1893058-75"}, {"reasons": {"count": 0, "items": [{"summary": "This spot is popular", "type": "general", "reasonName": "globalInteractionReason"}]}, "venue": {"id": "4c375dc31e06d13adeca753e", "name": "SUBWAY", "location": {"address": "Kurfurstendamm 180", "crossStreet": "Lietzenburger", "lat": 52.50014561129244, "lng": 13.311897749911509, "labeledLatLngs": [{"label": "display", "lat": 52.50014561129244, "lng": 13.311897749911509}], "distance": 635, "postalCode": "10707", "cc": "DE", "neighborhood": "Olivaer Platz", "city": "Berlin", "state": "Berlin", "country": "Deutschland", "formattedAddress": ["Kurfurstendamm 180 (Lietzenburger)", "10707 Berlin", "Deutschland"]}, "categories": [{"id": "4bf58dd8d48988d1c5941735", "name": "Sandwich Place", "pluralName": "Sandwich Places", "shortName": "Sandwiches", "icon": {"prefix": "https://ss3.4sqi.net/img/categories_v2/food/deli_", "suffix": ".png"}, "primary": true}], "photos": {"count": 0, "groups": []}, "venuePage": {"id": "574003958"}}, "referralId": "e-0-4c375dc31e06d13adeca753e-76"}, {"reasons": {"count": 0, "items": [{"summary": "This spot is popular", "type": "general", "reasonName": "globalInteractionReason"}]}, "venue": {"id": "4adcda75f964a520954521e3", "name": "Bar jeder Vernunft", "location": {"address": "Schaperstr. 24", "lat": 52.498096199185134, "lng": 13.329669143076423, "labeledLatLngs": [{"label": "display", "lat": 52.498096199185134, "lng": 13.329669143076423}], "distance": 986, "postalCode": "10719", "cc": "DE", "city": "Berlin", "state": "Berlin", "country": "Deutschland", "formattedAddress": ["Schaperstr. 24", "10719 Berlin", "Deutschland"]}, "categories": [{"id": "4bf58dd8d48988d18e941735", "name": "Comedy Club", "pluralName": "Comedy Clubs", "shortName": "Comedy Club", "icon": {"prefix": "https://ss3.4sqi.net/img/categories_v2/arts_entertainment/comedyclub_", "suffix": ".png"}, "primary": true}], "photos": {"count": 0, "groups": []}}, "referralId": "e-0-4adcda75f964a520954521e3-77"}, {"reasons": {"count": 0, "items": [{"summary": "This spot is popular", "type": "general", "reasonName": "globalInteractionReason"}]}, "venue": {"id": "4bbdc6e6a8cf76b0891eb2fd", "name": "BioBackHaus", "location": {"address": "Nassauische Str. 16a", "lat": 52.49091896268291, "lng": 13.326505487682153, "labeledLatLngs": [{"label": "display", "lat": 52.49091896268291, "lng": 13.326505487682153}], "distance": 844, "postalCode": "10717", "cc": "DE", "city": "Berlin", "state": "Berlin", "country": "Deutschland", "formattedAddress": ["Nassauische Str. 16a", "10717 Berlin", "Deutschland"]}, "categories": [{"id": "4bf58dd8d48988d16a941735", "name": "Bakery", "pluralName": "Bakeries", "shortName": "Bakery", "icon": {"prefix": "https://ss3.4sqi.net/img/categories_v2/food/bakery_", "suffix": ".png"}, "primary": true}], "photos": {"count": 0, "groups": []}}, "referralId": "e-0-4bbdc6e6a8cf76b0891eb2fd-78"}, {"reasons": {"count": 0, "items": [{"summary": "This spot is popular", "type": "general", "reasonName": "globalInteractionReason"}]}, "venue": {"id": "4b730d7af964a5204a982de3", "name": "Marjellchen Restaurant", "location": {"address": "Mommsenstr. 9", "lat": 52.50306473540549, "lng": 13.317762505288629, "labeledLatLngs": [{"label": "display", "lat": 52.50306473540549, "lng": 13.317762505288629}], "distance": 904, "postalCode": "10629", "cc": "DE", "city": "Berlin", "state": "Berlin", "country": "Deutschland", "formattedAddress": ["Mommsenstr. 9", "10629 Berlin", "Deutschland"]}, "categories": [{"id": "4bf58dd8d48988d10d941735", "name": "German Restaurant", "pluralName": "German Restaurants", "shortName": "German", "icon": {"prefix": "https://ss3.4sqi.net/img/categories_v2/food/german_", "suffix": ".png"}, "primary": true}], "photos": {"count": 0, "groups": []}}, "referralId": "e-0-4b730d7af964a5204a982de3-79"}, {"reasons": {"count": 0, "items": [{"summary": "This spot is popular", "type": "general", "reasonName": "globalInteractionReason"}]}, "venue": {"id": "54061fbe498ed729c0896951", "name": "FitX", "location": {"address": "Kurf\u00fcrstendamm 156", "lat": 52.498851, "lng": 13.303223, "labeledLatLngs": [{"label": "display", "lat": 52.498851, "lng": 13.303223}], "distance": 966, "postalCode": "10709", "cc": "DE", "city": "Berlin", "state": "Berlin", "country": "Deutschland", "formattedAddress": ["Kurf\u00fcrstendamm 156", "10709 Berlin", "Deutschland"]}, "categories": [{"id": "4bf58dd8d48988d175941735", "name": "Gym / Fitness Center", "pluralName": "Gyms or Fitness Centers", "shortName": "Gym / Fitness", "icon": {"prefix": "https://ss3.4sqi.net/img/categories_v2/building/gym_", "suffix": ".png"}, "primary": true}], "photos": {"count": 0, "groups": []}}, "referralId": "e-0-54061fbe498ed729c0896951-80"}, {"reasons": {"count": 0, "items": [{"summary": "This spot is popular", "type": "general", "reasonName": "globalInteractionReason"}]}, "venue": {"id": "4dac31cea86e771ea7483544", "name": "Piccola Taormina", "location": {"address": "Uhlandstr. 29", "lat": 52.501230610988856, "lng": 13.324883986963448, "labeledLatLngs": [{"label": "display", "lat": 52.501230610988856, "lng": 13.324883986963448}], "distance": 916, "postalCode": "10719", "cc": "DE", "city": "Berlin", "state": "Berlin", "country": "Deutschland", "formattedAddress": ["Uhlandstr. 29", "10719 Berlin", "Deutschland"]}, "categories": [{"id": "4bf58dd8d48988d110941735", "name": "Italian Restaurant", "pluralName": "Italian Restaurants", "shortName": "Italian", "icon": {"prefix": "https://ss3.4sqi.net/img/categories_v2/food/italian_", "suffix": ".png"}, "primary": true}], "photos": {"count": 0, "groups": []}}, "referralId": "e-0-4dac31cea86e771ea7483544-81"}, {"reasons": {"count": 0, "items": [{"summary": "This spot is popular", "type": "general", "reasonName": "globalInteractionReason"}]}, "venue": {"id": "4b6a0001f964a520d5c02be3", "name": "Marooush", "location": {"address": "Knesebeckstr. 48", "crossStreet": "Kurf\u00fcrstendamm", "lat": 52.500923111717704, "lng": 13.32170763794281, "labeledLatLngs": [{"label": "display", "lat": 52.500923111717704, "lng": 13.32170763794281}], "distance": 762, "postalCode": "10719", "cc": "DE", "city": "Berlin", "state": "Berlin", "country": "Deutschland", "formattedAddress": ["Knesebeckstr. 48 (Kurf\u00fcrstendamm)", "10719 Berlin", "Deutschland"]}, "categories": [{"id": "4bf58dd8d48988d115941735", "name": "Middle Eastern Restaurant", "pluralName": "Middle Eastern Restaurants", "shortName": "Middle Eastern", "icon": {"prefix": "https://ss3.4sqi.net/img/categories_v2/food/middleeastern_", "suffix": ".png"}, "primary": true}], "photos": {"count": 0, "groups": []}, "venuePage": {"id": "88417532"}}, "referralId": "e-0-4b6a0001f964a520d5c02be3-82"}, {"reasons": {"count": 0, "items": [{"summary": "This spot is popular", "type": "general", "reasonName": "globalInteractionReason"}]}, "venue": {"id": "4af7296af964a520a10622e3", "name": "SETs", "location": {"address": "Schl\u00fcterstr. 36", "lat": 52.50254, "lng": 13.316714, "labeledLatLngs": [{"label": "display", "lat": 52.50254, "lng": 13.316714}], "distance": 839, "postalCode": "10629", "cc": "DE", "city": "Berlin", "state": "Berlin", "country": "Deutschland", "formattedAddress": ["Schl\u00fcterstr. 36", "10629 Berlin", "Deutschland"]}, "categories": [{"id": "4bf58dd8d48988d143941735", "name": "Breakfast Spot", "pluralName": "Breakfast Spots", "shortName": "Breakfast", "icon": {"prefix": "https://ss3.4sqi.net/img/categories_v2/food/breakfast_", "suffix": ".png"}, "primary": true}], "photos": {"count": 0, "groups": []}}, "referralId": "e-0-4af7296af964a520a10622e3-83"}, {"reasons": {"count": 0, "items": [{"summary": "This spot is popular", "type": "general", "reasonName": "globalInteractionReason"}]}, "venue": {"id": "4b6d7863f964a52095762ce3", "name": "Frau Behrens Torten", "location": {"address": "Wilmersdorfer Str. 96-97", "crossStreet": "Sybelstr.", "lat": 52.5016526514001, "lng": 13.30766311815256, "labeledLatLngs": [{"label": "display", "lat": 52.5016526514001, "lng": 13.30766311815256}], "distance": 931, "postalCode": "10629", "cc": "DE", "city": "Berlin", "state": "Berlin", "country": "Deutschland", "formattedAddress": ["Wilmersdorfer Str. 96-97 (Sybelstr.)", "10629 Berlin", "Deutschland"]}, "categories": [{"id": "4bf58dd8d48988d16d941735", "name": "Caf\u00e9", "pluralName": "Caf\u00e9s", "shortName": "Caf\u00e9", "icon": {"prefix": "https://ss3.4sqi.net/img/categories_v2/food/cafe_", "suffix": ".png"}, "primary": true}], "photos": {"count": 0, "groups": []}}, "referralId": "e-0-4b6d7863f964a52095762ce3-84"}, {"reasons": {"count": 0, "items": [{"summary": "This spot is popular", "type": "general", "reasonName": "globalInteractionReason"}]}, "venue": {"id": "5c3f5bb37c891c002d9a7a5e", "name": "Thai-Art", "location": {"address": "Berliner Stra\u00dfe 42A", "lat": 52.486654, "lng": 13.319444, "labeledLatLngs": [{"label": "display", "lat": 52.486654, "lng": 13.319444}], "distance": 959, "postalCode": "10713", "cc": "DE", "city": "Berlin", "state": "Berlin", "country": "Deutschland", "formattedAddress": ["Berliner Stra\u00dfe 42A", "10713 Berlin", "Deutschland"]}, "categories": [{"id": "4bf58dd8d48988d149941735", "name": "Thai Restaurant", "pluralName": "Thai Restaurants", "shortName": "Thai", "icon": {"prefix": "https://ss3.4sqi.net/img/categories_v2/food/thai_", "suffix": ".png"}, "primary": true}], "photos": {"count": 0, "groups": []}}, "referralId": "e-0-5c3f5bb37c891c002d9a7a5e-85"}, {"reasons": {"count": 0, "items": [{"summary": "This spot is popular", "type": "general", "reasonName": "globalInteractionReason"}]}, "venue": {"id": "4e270970e4cd60a2c62b6083", "name": "Ku'damm Bar", "location": {"lat": 52.50175559864341, "lng": 13.318987182669593, "labeledLatLngs": [{"label": "display", "lat": 52.50175559864341, "lng": 13.318987182669593}], "distance": 777, "cc": "DE", "city": "Berlin", "state": "Berlin", "country": "Deutschland", "formattedAddress": ["Berlin", "Deutschland"]}, "categories": [{"id": "4bf58dd8d48988d11e941735", "name": "Cocktail Bar", "pluralName": "Cocktail Bars", "shortName": "Cocktail", "icon": {"prefix": "https://ss3.4sqi.net/img/categories_v2/nightlife/cocktails_", "suffix": ".png"}, "primary": true}], "photos": {"count": 0, "groups": []}}, "referralId": "e-0-4e270970e4cd60a2c62b6083-86"}, {"reasons": {"count": 0, "items": [{"summary": "This spot is popular", "type": "general", "reasonName": "globalInteractionReason"}]}, "venue": {"id": "4c5a84947b049521a156891f", "name": "Burberry", "location": {"address": "Kurf\u00fcrstendamm 183", "lat": 52.5001373, "lng": 13.3135918, "labeledLatLngs": [{"label": "display", "lat": 52.5001373, "lng": 13.3135918}], "distance": 593, "postalCode": "10707", "cc": "DE", "city": "Berlin", "state": "Berlin", "country": "Deutschland", "formattedAddress": ["Kurf\u00fcrstendamm 183", "10707 Berlin", "Deutschland"]}, "categories": [{"id": "4bf58dd8d48988d103951735", "name": "Clothing Store", "pluralName": "Clothing Stores", "shortName": "Apparel", "icon": {"prefix": "https://ss3.4sqi.net/img/categories_v2/shops/apparel_", "suffix": ".png"}, "primary": true}], "photos": {"count": 0, "groups": []}}, "referralId": "e-0-4c5a84947b049521a156891f-87"}, {"reasons": {"count": 0, "items": [{"summary": "This spot is popular", "type": "general", "reasonName": "globalInteractionReason"}]}, "venue": {"id": "4b22840ef964a520244824e3", "name": "Weyers", "location": {"address": "Pariser Str. 16", "lat": 52.49747787191282, "lng": 13.322697758946683, "labeledLatLngs": [{"label": "display", "lat": 52.49747787191282, "lng": 13.322697758946683}], "distance": 529, "postalCode": "10719", "cc": "DE", "city": "Berlin", "state": "Berlin", "country": "Deutschland", "formattedAddress": ["Pariser Str. 16", "10719 Berlin", "Deutschland"]}, "categories": [{"id": "4bf58dd8d48988d16d941735", "name": "Caf\u00e9", "pluralName": "Caf\u00e9s", "shortName": "Caf\u00e9", "icon": {"prefix": "https://ss3.4sqi.net/img/categories_v2/food/cafe_", "suffix": ".png"}, "primary": true}], "photos": {"count": 0, "groups": []}}, "referralId": "e-0-4b22840ef964a520244824e3-88"}, {"reasons": {"count": 0, "items": [{"summary": "This spot is popular", "type": "general", "reasonName": "globalInteractionReason"}]}, "venue": {"id": "4adcda8ff964a5200b4b21e3", "name": "mientus", "location": {"address": "Kurf\u00fcrstendamm 52", "lat": 52.5014424400796, "lng": 13.317003271916917, "labeledLatLngs": [{"label": "display", "lat": 52.5014424400796, "lng": 13.317003271916917}], "distance": 718, "postalCode": "10707", "cc": "DE", "city": "Berlin", "state": "Berlin", "country": "Deutschland", "formattedAddress": ["Kurf\u00fcrstendamm 52", "10707 Berlin", "Deutschland"]}, "categories": [{"id": "4bf58dd8d48988d106951735", "name": "Men's Store", "pluralName": "Men's Stores", "shortName": "Men's Store", "icon": {"prefix": "https://ss3.4sqi.net/img/categories_v2/shops/apparel_men_", "suffix": ".png"}, "primary": true}], "photos": {"count": 0, "groups": []}}, "referralId": "e-0-4adcda8ff964a5200b4b21e3-89"}, {"reasons": {"count": 0, "items": [{"summary": "This spot is popular", "type": "general", "reasonName": "globalInteractionReason"}]}, "venue": {"id": "593bf365e185f37c5a8cb73d", "name": "LaMa", "location": {"address": "Hohenzollerndamm 7", "lat": 52.495335, "lng": 13.328488, "labeledLatLngs": [{"label": "display", "lat": 52.495335, "lng": 13.328488}], "distance": 845, "postalCode": "10717", "cc": "DE", "neighborhood": "Wilmersdorf", "city": "Berlin", "state": "Berlin", "country": "Deutschland", "formattedAddress": ["Hohenzollerndamm 7", "10717 Berlin", "Deutschland"]}, "categories": [{"id": "4bf58dd8d48988d1e0931735", "name": "Coffee Shop", "pluralName": "Coffee Shops", "shortName": "Coffee Shop", "icon": {"prefix": "https://ss3.4sqi.net/img/categories_v2/food/coffeeshop_", "suffix": ".png"}, "primary": true}], "photos": {"count": 0, "groups": []}}, "referralId": "e-0-593bf365e185f37c5a8cb73d-90"}, {"reasons": {"count": 0, "items": [{"summary": "This spot is popular", "type": "general", "reasonName": "globalInteractionReason"}]}, "venue": {"id": "4c304295a0ced13addf9116e", "name": "Gr\u00fcne Lampe", "location": {"address": "Uhlandstr. 51", "lat": 52.4965, "lng": 13.32373, "labeledLatLngs": [{"label": "display", "lat": 52.4965, "lng": 13.32373}], "distance": 548, "postalCode": "10719", "cc": "DE", "city": "Berlin", "state": "Berlin", "country": "Deutschland", "formattedAddress": ["Uhlandstr. 51", "10719 Berlin", "Deutschland"]}, "categories": [{"id": "5293a7563cf9994f4e043a44", "name": "Russian Restaurant", "pluralName": "Russian Restaurants", "shortName": "Russian", "icon": {"prefix": "https://ss3.4sqi.net/img/categories_v2/food/russian_", "suffix": ".png"}, "primary": true}], "photos": {"count": 0, "groups": []}, "venuePage": {"id": "580008294"}}, "referralId": "e-0-4c304295a0ced13addf9116e-91"}, {"reasons": {"count": 0, "items": [{"summary": "This spot is popular", "type": "general", "reasonName": "globalInteractionReason"}]}, "venue": {"id": "4b116498f964a520947b23e3", "name": "TTP Sushi", "location": {"address": "Olivaer Platz 5-6", "lat": 52.498992527605026, "lng": 13.315205665043964, "labeledLatLngs": [{"label": "display", "lat": 52.498992527605026, "lng": 13.315205665043964}], "distance": 446, "postalCode": "10707", "cc": "DE", "city": "Berlin", "state": "Berlin", "country": "Deutschland", "formattedAddress": ["Olivaer Platz 5-6", "10707 Berlin", "Deutschland"]}, "categories": [{"id": "4bf58dd8d48988d1d2941735", "name": "Sushi Restaurant", "pluralName": "Sushi Restaurants", "shortName": "Sushi", "icon": {"prefix": "https://ss3.4sqi.net/img/categories_v2/food/sushi_", "suffix": ".png"}, "primary": true}], "photos": {"count": 0, "groups": []}}, "referralId": "e-0-4b116498f964a520947b23e3-92"}, {"reasons": {"count": 0, "items": [{"summary": "This spot is popular", "type": "general", "reasonName": "globalInteractionReason"}]}, "venue": {"id": "4adcda8ff964a520d54a21e3", "name": "Marga Sch\u00f6ller B\u00fccherstube", "location": {"address": "Knesebeckstr. 33", "crossStreet": "Mommsenstr.", "lat": 52.50289990640109, "lng": 13.321802616119385, "labeledLatLngs": [{"label": "display", "lat": 52.50289990640109, "lng": 13.321802616119385}], "distance": 961, "postalCode": "10623", "cc": "DE", "city": "Berlin", "state": "Berlin", "country": "Deutschland", "formattedAddress": ["Knesebeckstr. 33 (Mommsenstr.)", "10623 Berlin", "Deutschland"]}, "categories": [{"id": "4bf58dd8d48988d114951735", "name": "Bookstore", "pluralName": "Bookstores", "shortName": "Bookstore", "icon": {"prefix": "https://ss3.4sqi.net/img/categories_v2/shops/bookstore_", "suffix": ".png"}, "primary": true}], "photos": {"count": 0, "groups": []}}, "referralId": "e-0-4adcda8ff964a520d54a21e3-93"}, {"reasons": {"count": 0, "items": [{"summary": "This spot is popular", "type": "general", "reasonName": "globalInteractionReason"}]}, "venue": {"id": "4b1e3feef964a5201e1824e3", "name": "Mondo Pazzo", "location": {"address": "Schl\u00fcterstr. 52", "lat": 52.503300552038375, "lng": 13.317076548185462, "labeledLatLngs": [{"label": "display", "lat": 52.503300552038375, "lng": 13.317076548185462}], "distance": 925, "postalCode": "10629", "cc": "DE", "city": "Berlin", "state": "Berlin", "country": "Deutschland", "formattedAddress": ["Schl\u00fcterstr. 52", "10629 Berlin", "Deutschland"]}, "categories": [{"id": "4bf58dd8d48988d110941735", "name": "Italian Restaurant", "pluralName": "Italian Restaurants", "shortName": "Italian", "icon": {"prefix": "https://ss3.4sqi.net/img/categories_v2/food/italian_", "suffix": ".png"}, "primary": true}], "photos": {"count": 0, "groups": []}}, "referralId": "e-0-4b1e3feef964a5201e1824e3-94"}, {"reasons": {"count": 0, "items": [{"summary": "This spot is popular", "type": "general", "reasonName": "globalInteractionReason"}]}, "venue": {"id": "4c1cd789eac020a1d51a47c2", "name": "Roberta caff\u00e8 e gelateria", "location": {"address": "Dahlmannstr. 16", "lat": 52.49980441050502, "lng": 13.303983427530305, "labeledLatLngs": [{"label": "display", "lat": 52.49980441050502, "lng": 13.303983427530305}], "distance": 974, "postalCode": "10629", "cc": "DE", "city": "Berlin", "state": "Berlin", "country": "Deutschland", "formattedAddress": ["Dahlmannstr. 16", "10629 Berlin", "Deutschland"]}, "categories": [{"id": "4bf58dd8d48988d1c9941735", "name": "Ice Cream Shop", "pluralName": "Ice Cream Shops", "shortName": "Ice Cream", "icon": {"prefix": "https://ss3.4sqi.net/img/categories_v2/food/icecream_", "suffix": ".png"}, "primary": true}], "photos": {"count": 0, "groups": []}}, "referralId": "e-0-4c1cd789eac020a1d51a47c2-95"}, {"reasons": {"count": 0, "items": [{"summary": "This spot is popular", "type": "general", "reasonName": "globalInteractionReason"}]}, "venue": {"id": "56bce1ce498e2d6b8c85c03c", "name": "Zen", "location": {"address": "Uhlandstr. 170 a, 10719 Berlin", "lat": 52.50078766006307, "lng": 13.32588684288832, "labeledLatLngs": [{"label": "display", "lat": 52.50078766006307, "lng": 13.32588684288832}], "distance": 927, "cc": "DE", "city": "Berlin", "state": "Berlin", "country": "Deutschland", "formattedAddress": ["Uhlandstr. 170 a, 10719 Berlin", "Berlin", "Deutschland"]}, "categories": [{"id": "52af3b773cf9994f4e043c03", "name": "Szechuan Restaurant", "pluralName": "Szechuan Restaurants", "shortName": "Szechuan", "icon": {"prefix": "https://ss3.4sqi.net/img/categories_v2/food/asian_", "suffix": ".png"}, "primary": true}], "photos": {"count": 0, "groups": []}}, "referralId": "e-0-56bce1ce498e2d6b8c85c03c-96"}, {"reasons": {"count": 0, "items": [{"summary": "This spot is popular", "type": "general", "reasonName": "globalInteractionReason"}]}, "venue": {"id": "4db1891d6e81a2637eed52fd", "name": "Les 3 veuves de Wilmersdorf", "location": {"address": "Fechnerstr. 30", "lat": 52.489290357815726, "lng": 13.319579852846745, "labeledLatLngs": [{"label": "display", "lat": 52.489290357815726, "lng": 13.319579852846745}], "distance": 681, "postalCode": "10717", "cc": "DE", "city": "Berlin", "state": "Berlin", "country": "Deutschland", "formattedAddress": ["Fechnerstr. 30", "10717 Berlin", "Deutschland"]}, "categories": [{"id": "4bf58dd8d48988d10c941735", "name": "French Restaurant", "pluralName": "French Restaurants", "shortName": "French", "icon": {"prefix": "https://ss3.4sqi.net/img/categories_v2/food/french_", "suffix": ".png"}, "primary": true}], "photos": {"count": 0, "groups": []}}, "referralId": "e-0-4db1891d6e81a2637eed52fd-97"}, {"reasons": {"count": 0, "items": [{"summary": "This spot is popular", "type": "general", "reasonName": "globalInteractionReason"}]}, "venue": {"id": "4f5ca2c6e4b024154323edab", "name": "Pho 56", "location": {"address": "Olivaer Platz 4", "crossStreet": "Bayerische Str. 1", "lat": 52.498973782514604, "lng": 13.314508593134018, "labeledLatLngs": [{"label": "display", "lat": 52.498973782514604, "lng": 13.314508593134018}], "distance": 452, "postalCode": "10707", "cc": "DE", "city": "Berlin", "state": "Berlin", "country": "Deutschland", "formattedAddress": ["Olivaer Platz 4 (Bayerische Str. 1)", "10707 Berlin", "Deutschland"]}, "categories": [{"id": "4bf58dd8d48988d14a941735", "name": "Vietnamese Restaurant", "pluralName": "Vietnamese Restaurants", "shortName": "Vietnamese", "icon": {"prefix": "https://ss3.4sqi.net/img/categories_v2/food/vietnamese_", "suffix": ".png"}, "primary": true}], "photos": {"count": 0, "groups": []}}, "referralId": "e-0-4f5ca2c6e4b024154323edab-98"}, {"reasons": {"count": 0, "items": [{"summary": "This spot is popular", "type": "general", "reasonName": "globalInteractionReason"}]}, "venue": {"id": "4bdb1ada63c5c9b65d5c2668", "name": "Da Giorgio", "location": {"address": "Uhlandstr. 153", "lat": 52.49761305933476, "lng": 13.32426927804315, "labeledLatLngs": [{"label": "display", "lat": 52.49761305933476, "lng": 13.32426927804315}], "distance": 629, "postalCode": "10719", "cc": "DE", "city": "Berlin", "state": "Berlin", "country": "Deutschland", "formattedAddress": ["Uhlandstr. 153", "10719 Berlin", "Deutschland"]}, "categories": [{"id": "4bf58dd8d48988d110941735", "name": "Italian Restaurant", "pluralName": "Italian Restaurants", "shortName": "Italian", "icon": {"prefix": "https://ss3.4sqi.net/img/categories_v2/food/italian_", "suffix": ".png"}, "primary": true}], "photos": {"count": 0, "groups": []}}, "referralId": "e-0-4bdb1ada63c5c9b65d5c2668-99"}]