[{"reasons": {"count": 0, "items": [{"summary": "This spot is popular", "type": "general", "reasonName": "globalInteractionReason"}]}, "venue": {"id": "503fbd0c7e2752ec471b5845", "name": "Rossmann", "location": {"address": "Falkenseer Chaussee 198", "lat": 52.55064824425841, "lng": 13.163899152872736, "labeledLatLngs": [{"label": "display", "lat": 52.55064824425841, "lng": 13.163899152872736}], "distance": 97, "postalCode": "13589", "cc": "DE", "city": "Berlin", "state": "Berlin", "country": "Deutschland", "formattedAddress": ["Falkenseer Chaussee 198", "13589 Berlin", "Deutschland"]}, "categories": [{"id": "5745c2e4498e11e7bccabdbd", "name": "Drugstore", "pluralName": "Drugstores", "shortName": "Drugstore", "icon": {"prefix": "https://ss3.4sqi.net/img/categories_v2/shops/pharmacy_", "suffix": ".png"}, "primary": true}], "photos": {"count": 0, "groups": []}}, "referralId": "e-0-503fbd0c7e2752ec471b5845-0"}, {"reasons": {"count": 0, "items": [{"summary": "This spot is popular", "type": "general", "reasonName": "globalInteractionReason"}]}, "venue": {"id": "4d6bc87e50deb1f7166eaa35", "name": "REWE", "location": {"address": "Wasserwerkstra\u00dfe 2", "lat": 52.5513166, "lng": 13.1661056, "labeledLatLngs": [{"label": "display", "lat": 52.5513166, "lng": 13.1661056}], "distance": 243, "postalCode": "13589", "cc": "DE", "city": "Berlin", "state": "Berlin", "country": "Deutschland", "formattedAddress": ["Wasserwerkstra\u00dfe 2", "13589 Berlin", "Deutschland"]}, "categories": [{"id": "52f2ab2ebcbc57f1066b8b46", "name": "Supermarket", "pluralName": "Supermarkets", "shortName": "Supermarket", "icon": {"prefix": "https://ss3.4sqi.net/img/categories_v2/shops/food_grocery_", "suffix": ".png"}, "primary": true}], "photos": {"count": 0, "groups": []}, "venuePage": {"id": "564612069"}}, "referralId": "e-0-4d6bc87e50deb1f7166eaa35-1"}, {"reasons": {"count": 0, "items": [{"summary": "This spot is popular", "type": "general", "reasonName": "globalInteractionReason"}]}, "venue": {"id": "4e3d6668a809ba757c08e715", "name": "PENNY", "location": {"address": "Am Kiesteich 61-63", "lat": 52.5505100991663, "lng": 13.16406798779144, "labeledLatLngs": [{"label": "display", "lat": 52.5505100991663, "lng": 13.16406798779144}], "distance": 113, "postalCode": "13589", "cc": "DE", "city": "Berlin", "state": "Berlin", "country": "Deutschland", "formattedAddress": ["Am Kiesteich 61-63", "13589 Berlin", "Deutschland"]}, "categories": [{"id": "4bf58dd8d48988d186941735", "name": "Liquor Store", "pluralName": "Liquor Stores", "shortName": "Liquor Store", "icon": {"prefix": "https://ss3.4sqi.net/img/categories_v2/shops/food_liquor_", "suffix": ".png"}, "primary": true}], "photos": {"count": 0, "groups": []}, "venuePage": {"id": "479462130"}}, "referralId": "e-0-4e3d6668a809ba757c08e715-2"}, {"reasons": {"count": 0, "items": [{"summary": "This spot is popular", "type": "general", "reasonName": "globalInteractionReason"}]}, "venue": {"id": "5191217a498e80c1b866b4d1", "name": "Falken Grill", "location": {"lat": 52.5516, "lng": 13.1621, "labeledLatLngs": [{"label": "display", "lat": 52.5516, "lng": 13.1621}], "distance": 78, "cc": "DE", "country": "Deutschland", "formattedAddress": ["Deutschland"]}, "categories": [{"id": "4bf58dd8d48988d1c7941735", "name": "Snack Place", "pluralName": "Snack Places", "shortName": "Snacks", "icon": {"prefix": "https://ss3.4sqi.net/img/categories_v2/food/snacks_", "suffix": ".png"}, "primary": true}], "photos": {"count": 0, "groups": []}}, "referralId": "e-0-5191217a498e80c1b866b4d1-3"}, {"reasons": {"count": 0, "items": [{"summary": "This spot is popular", "type": "general", "reasonName": "globalInteractionReason"}]}, "venue": {"id": "4e1327ce1838f8ad816b2aad", "name": "SC Schwarz-Weiss Spandau 1953 e.V.", "location": {"address": "Im Spektefeld 27 a", "lat": 52.54843707934718, "lng": 13.158857431871507, "labeledLatLngs": [{"label": "display", "lat": 52.54843707934718, "lng": 13.158857431871507}], "distance": 375, "postalCode": "13589", "cc": "DE", "city": "Berlin", "state": "Berlin", "country": "Deutschland", "formattedAddress": ["Im Spektefeld 27 a", "13589 Berlin", "Deutschland"]}, "categories": [{"id": "4cce455aebf7b749d5e191f5", "name": "Soccer Field", "pluralName": "Soccer Fields", "shortName": "Soccer Field", "icon": {"prefix": "https://ss3.4sqi.net/img/categories_v2/arts_entertainment/stadium_soccer_", "suffix": ".png"}, "primary": true}], "photos": {"count": 0, "groups": []}}, "referralId": "e-0-4e1327ce1838f8ad816b2aad-4"}, {"reasons": {"count": 0, "items": [{"summary": "This spot is popular", "type": "general", "reasonName": "globalInteractionReason"}]}, "venue": {"id": "4c1b657755e4c9b6ae344923", "name": "DAS CAF\u00c9", "location": {"address": "Im Spektefeld 26", "crossStreet": "13587", "lat": 52.54897090992286, "lng": 13.156529471770842, "labeledLatLngs": [{"label": "display", "lat": 52.54897090992286, "lng": 13.156529471770842}], "distance": 463, "postalCode": "13589", "cc": "DE", "city": "Berlin", "state": "Berlin", "country": "Deutschland", "formattedAddress": ["Im Spektefeld 26 (13587)", "13589 Berlin", "Deutschland"]}, "categories": [{"id": "4bf58dd8d48988d16d941735", "name": "Caf\u00e9", "pluralName": "Caf\u00e9s", "shortName": "Caf\u00e9", "icon": {"prefix": "https://ss3.4sqi.net/img/categories_v2/food/cafe_", "suffix": ".png"}, "primary": true}], "photos": {"count": 0, "groups": []}}, "referralId": "e-0-4c1b657755e4c9b6ae344923-5"}, {"reasons": {"count": 0, "items": [{"summary": "This spot is popular", "type": "general", "reasonName": "globalInteractionReason"}]}, "venue": {"id": "4d9d2edfc97a236a65b2b899", "name": "H Falkenseer Chaussee / Stadtrandstra\u00dfe", "location": {"address": "Falkenseer Chaussee", "crossStreet": "Stadtrandstr.", "lat": 52.5531709434557, "lng": 13.15372505754517, "labeledLatLngs": [{"label": "display", "lat": 52.5531709434557, "lng": 13.15372505754517}], "distance": 646, "postalCode": "13589", "cc": "DE", "city": "Berlin", "state": "Berlin", "country": "Deutschland", "formattedAddress": ["Falkenseer Chaussee (Stadtrandstr.)", "13589 Berlin", "Deutschland"]}, "categories": [{"id": "52f2ab2ebcbc57f1066b8b4f", "name": "Bus Stop", "pluralName": "Bus Stops", "shortName": "Bus Stop", "icon": {"prefix": "https://ss3.4sqi.net/img/categories_v2/travel/busstation_", "suffix": ".png"}, "primary": true}], "photos": {"count": 0, "groups": []}}, "referralId": "e-0-4d9d2edfc97a236a65b2b899-6"}, {"reasons": {"count": 0, "items": [{"summary": "This spot is popular", "type": "general", "reasonName": "globalInteractionReason"}]}, "venue": {"id": "4df512e2d22d8c5470e35057", "name": "Gro\u00dfer Spektesee", "location": {"address": "Am Kiesteich", "lat": 52.54525386095626, "lng": 13.1678008338637, "labeledLatLngs": [{"label": "display", "lat": 52.54525386095626, "lng": 13.1678008338637}], "distance": 727, "postalCode": "13583", "cc": "DE", "city": "Berlin", "state": "Berlin", "country": "Deutschland", "formattedAddress": ["Am Kiesteich", "13583 Berlin", "Deutschland"]}, "categories": [{"id": "4bf58dd8d48988d161941735", "name": "Lake", "pluralName": "Lakes", "shortName": "Lake", "icon": {"prefix": "https://ss3.4sqi.net/img/categories_v2/parks_outdoors/lake_", "suffix": ".png"}, "primary": true}], "photos": {"count": 0, "groups": []}}, "referralId": "e-0-4df512e2d22d8c5470e35057-7"}, {"reasons": {"count": 0, "items": [{"summary": "This spot is popular", "type": "general", "reasonName": "globalInteractionReason"}]}, "venue": {"id": "5145d289e4b0ee6555491832", "name": "Spektepark", "location": {"lat": 52.5442525559759, "lng": 13.16856325799415, "labeledLatLngs": [{"label": "display", "lat": 52.5442525559759, "lng": 13.16856325799415}], "distance": 849, "cc": "DE", "country": "Deutschland", "formattedAddress": ["Deutschland"]}, "categories": [{"id": "4bf58dd8d48988d163941735", "name": "Park", "pluralName": "Parks", "shortName": "Park", "icon": {"prefix": "https://ss3.4sqi.net/img/categories_v2/parks_outdoors/park_", "suffix": ".png"}, "primary": true}], "photos": {"count": 0, "groups": []}}, "referralId": "e-0-5145d289e4b0ee6555491832-8"}]