[{"reasons": {"count": 0, "items": [{"summary": "This spot is popular", "type": "general", "reasonName": "globalInteractionReason"}]}, "venue": {"id": "4ecfabd277c8ea62fb297b15", "name": "Pl\u00f6tners Caf\u00e9", "location": {"address": "Anton-Saefkow-Platz 11", "lat": 52.52918481002098, "lng": 13.47068268269635, "labeledLatLngs": [{"label": "display", "lat": 52.52918481002098, "lng": 13.47068268269635}], "distance": 145, "postalCode": "10369", "cc": "DE", "city": "Berlin", "state": "Berlin", "country": "Deutschland", "formattedAddress": ["Anton-Saefkow-Platz 11", "10369 Berlin", "Deutschland"]}, "categories": [{"id": "4bf58dd8d48988d16d941735", "name": "Caf\u00e9", "pluralName": "Caf\u00e9s", "shortName": "Caf\u00e9", "icon": {"prefix": "https://ss3.4sqi.net/img/categories_v2/food/cafe_", "suffix": ".png"}, "primary": true}], "photos": {"count": 0, "groups": []}}, "referralId": "e-0-4ecfabd277c8ea62fb297b15-0"}, {"reasons": {"count": 0, "items": [{"summary": "This spot is popular", "type": "general", "reasonName": "globalInteractionReason"}]}, "venue": {"id": "4ba218c5f964a5207fdb37e3", "name": "FrischeParadies", "location": {"address": "Hermann-Blankenstein-Str. 48", "lat": 52.52155464457061, "lng": 13.468519449234009, "labeledLatLngs": [{"label": "display", "lat": 52.52155464457061, "lng": 13.468519449234009}], "distance": 901, "postalCode": "10249", "cc": "DE", "city": "Berlin", "state": "Berlin", "country": "Deutschland", "formattedAddress": ["Hermann-Blankenstein-Str. 48", "10249 Berlin", "Deutschland"]}, "categories": [{"id": "4bf58dd8d48988d1f5941735", "name": "Gourmet Shop", "pluralName": "Gourmet Shops", "shortName": "Gourmet", "icon": {"prefix": "https://ss3.4sqi.net/img/categories_v2/shops/food_gourmet_", "suffix": ".png"}, "primary": true}], "photos": {"count": 0, "groups": []}, "venuePage": {"id": "565361502"}}, "referralId": "e-0-4ba218c5f964a5207fdb37e3-1"}, {"reasons": {"count": 0, "items": [{"summary": "This spot is popular", "type": "general", "reasonName": "globalInteractionReason"}]}, "venue": {"id": "4e58d076ae6099fc00be64f2", "name": "Rossmann", "location": {"address": "Anton-Saefkow-Platz 8", "lat": 52.528746755107, "lng": 13.470687026688248, "labeledLatLngs": [{"label": "display", "lat": 52.528746755107, "lng": 13.470687026688248}], "distance": 154, "postalCode": "10369", "cc": "DE", "city": "Berlin", "state": "Berlin", "country": "Deutschland", "formattedAddress": ["Anton-Saefkow-Platz 8", "10369 Berlin", "Deutschland"]}, "categories": [{"id": "5745c2e4498e11e7bccabdbd", "name": "Drugstore", "pluralName": "Drugstores", "shortName": "Drugstore", "icon": {"prefix": "https://ss3.4sqi.net/img/categories_v2/shops/pharmacy_", "suffix": ".png"}, "primary": true}], "photos": {"count": 0, "groups": []}}, "referralId": "e-0-4e58d076ae6099fc00be64f2-2"}, {"reasons": {"count": 0, "items": [{"summary": "This spot is popular", "type": "general", "reasonName": "globalInteractionReason"}]}, "venue": {"id": "4d5a6cef7e2237041bc3bc73", "name": "Edelhoff Kreativkaufhaus", "location": {"address": "Rudolf-Seiffert-Str. 3", "lat": 52.52524308323286, "lng": 13.466559392452735, "labeledLatLngs": [{"label": "display", "lat": 52.52524308323286, "lng": 13.466559392452735}], "distance": 613, "postalCode": "10369", "cc": "DE", "city": "Berlin", "state": "Berlin", "country": "Deutschland", "formattedAddress": ["Rudolf-Seiffert-Str. 3", "10369 Berlin", "Deutschland"]}, "categories": [{"id": "4bf58dd8d48988d127951735", "name": "Arts & Crafts Store", "pluralName": "Arts & Crafts Stores", "shortName": "Arts & Crafts", "icon": {"prefix": "https://ss3.4sqi.net/img/categories_v2/shops/artstore_", "suffix": ".png"}, "primary": true}], "photos": {"count": 0, "groups": []}}, "referralId": "e-0-4d5a6cef7e2237041bc3bc73-3"}, {"reasons": {"count": 0, "items": [{"summary": "This spot is popular", "type": "general", "reasonName": "globalInteractionReason"}]}, "venue": {"id": "4c7d2005d461a143601e7cf5", "name": "Volkspark Prenzlauer Berg", "location": {"address": "Hohensch\u00f6nhauser Str.", "crossStreet": "Maigl\u00f6ckchenstr.", "lat": 52.53584232918101, "lng": 13.463616371154785, "labeledLatLngs": [{"label": "display", "lat": 52.53584232918101, "lng": 13.463616371154785}], "distance": 965, "postalCode": "10407", "cc": "DE", "city": "Berlin", "state": "Berlin", "country": "Deutschland", "formattedAddress": ["Hohensch\u00f6nhauser Str. (Maigl\u00f6ckchenstr.)", "10407 Berlin", "Deutschland"]}, "categories": [{"id": "4bf58dd8d48988d163941735", "name": "Park", "pluralName": "Parks", "shortName": "Park", "icon": {"prefix": "https://ss3.4sqi.net/img/categories_v2/parks_outdoors/park_", "suffix": ".png"}, "primary": true}], "photos": {"count": 0, "groups": []}}, "referralId": "e-0-4c7d2005d461a143601e7cf5-4"}, {"reasons": {"count": 0, "items": [{"summary": "This spot is popular", "type": "general", "reasonName": "globalInteractionReason"}]}, "venue": {"id": "4c5485bb479fc92849ad4593", "name": "Fennpfuhl-Park", "location": {"address": "Wei\u00dfenseer Weg", "crossStreet": "Paul-Junius-Str.", "lat": 52.528741990878515, "lng": 13.475414233003196, "labeledLatLngs": [{"label": "display", "lat": 52.528741990878515, "lng": 13.475414233003196}], "distance": 183, "postalCode": "10369", "cc": "DE", "city": "Berlin", "state": "Berlin", "country": "Deutschland", "formattedAddress": ["Wei\u00dfenseer Weg (Paul-Junius-Str.)", "10369 Berlin", "Deutschland"]}, "categories": [{"id": "4bf58dd8d48988d163941735", "name": "Park", "pluralName": "Parks", "shortName": "Park", "icon": {"prefix": "https://ss3.4sqi.net/img/categories_v2/parks_outdoors/park_", "suffix": ".png"}, "primary": true}], "photos": {"count": 0, "groups": []}}, "referralId": "e-0-4c5485bb479fc92849ad4593-5"}, {"reasons": {"count": 0, "items": [{"summary": "This spot is popular", "type": "general", "reasonName": "globalInteractionReason"}]}, "venue": {"id": "4b8587f5f964a520b96331e3", "name": "McFIT", "location": {"address": "Konrad-Wolf-Str. 56-60", "crossStreet": "Wei\u00dfenseer Weg", "lat": 52.536125253400705, "lng": 13.475098930805416, "labeledLatLngs": [{"label": "display", "lat": 52.536125253400705, "lng": 13.475098930805416}], "distance": 783, "postalCode": "13055", "cc": "DE", "city": "Berlin", "state": "Berlin", "country": "Deutschland", "formattedAddress": ["Konrad-Wolf-Str. 56-60 (Wei\u00dfenseer Weg)", "13055 Berlin", "Deutschland"]}, "categories": [{"id": "4bf58dd8d48988d175941735", "name": "Gym / Fitness Center", "pluralName": "Gyms or Fitness Centers", "shortName": "Gym / Fitness", "icon": {"prefix": "https://ss3.4sqi.net/img/categories_v2/building/gym_", "suffix": ".png"}, "primary": true}], "photos": {"count": 0, "groups": []}}, "referralId": "e-0-4b8587f5f964a520b96331e3-6"}, {"reasons": {"count": 0, "items": [{"summary": "This spot is popular", "type": "general", "reasonName": "globalInteractionReason"}]}, "venue": {"id": "4d3aeb27fa736ea87bce1a8a", "name": "Intermarket Stolitschniy", "location": {"address": "Landsberger Allee 116", "lat": 52.5287650919002, "lng": 13.459664167273024, "labeledLatLngs": [{"label": "display", "lat": 52.5287650919002, "lng": 13.459664167273024}], "distance": 892, "postalCode": "10369", "cc": "DE", "city": "Berlin", "state": "Berlin", "country": "Deutschland", "formattedAddress": ["Landsberger Allee 116", "10369 Berlin", "Deutschland"]}, "categories": [{"id": "4bf58dd8d48988d1f6941735", "name": "Department Store", "pluralName": "Department Stores", "shortName": "Department Store", "icon": {"prefix": "https://ss3.4sqi.net/img/categories_v2/shops/departmentstore_", "suffix": ".png"}, "primary": true}], "photos": {"count": 0, "groups": []}}, "referralId": "e-0-4d3aeb27fa736ea87bce1a8a-7"}, {"reasons": {"count": 0, "items": [{"summary": "This spot is popular", "type": "general", "reasonName": "globalInteractionReason"}]}, "venue": {"id": "5476bb73498ef6bf8597ac4c", "name": "dm-drogerie markt", "location": {"address": "Storkower Stra\u00dfe 207", "lat": 52.52544806654886, "lng": 13.465879726354615, "labeledLatLngs": [{"label": "display", "lat": 52.52544806654886, "lng": 13.465879726354615}], "distance": 630, "postalCode": "10369", "cc": "DE", "city": "Berlin", "state": "Berlin", "country": "Deutschland", "formattedAddress": ["Storkower Stra\u00dfe 207", "10369 Berlin", "Deutschland"]}, "categories": [{"id": "5745c2e4498e11e7bccabdbd", "name": "Drugstore", "pluralName": "Drugstores", "shortName": "Drugstore", "icon": {"prefix": "https://ss3.4sqi.net/img/categories_v2/shops/pharmacy_", "suffix": ".png"}, "primary": true}], "photos": {"count": 0, "groups": []}, "venuePage": {"id": "456318392"}}, "referralId": "e-0-5476bb73498ef6bf8597ac4c-8"}, {"reasons": {"count": 0, "items": [{"summary": "This spot is popular", "type": "general", "reasonName": "globalInteractionReason"}]}, "venue": {"id": "54f03f71498ecc627d46cf43", "name": "REWE", "location": {"address": "Bernhard-B\u00e4stlein-Str. 1", "lat": 52.52745377, "lng": 13.48127251, "labeledLatLngs": [{"label": "display", "lat": 52.52745377, "lng": 13.48127251}], "distance": 604, "postalCode": "10367", "cc": "DE", "city": "Berlin", "state": "Berlin", "country": "Deutschland", "formattedAddress": ["Bernhard-B\u00e4stlein-Str. 1", "10367 Berlin", "Deutschland"]}, "categories": [{"id": "52f2ab2ebcbc57f1066b8b46", "name": "Supermarket", "pluralName": "Supermarkets", "shortName": "Supermarket", "icon": {"prefix": "https://ss3.4sqi.net/img/categories_v2/shops/food_grocery_", "suffix": ".png"}, "primary": true}], "photos": {"count": 0, "groups": []}, "venuePage": {"id": "577760590"}}, "referralId": "e-0-54f03f71498ecc627d46cf43-9"}, {"reasons": {"count": 0, "items": [{"summary": "This spot is popular", "type": "general", "reasonName": "globalInteractionReason"}]}, "venue": {"id": "4aebfdfaf964a52032c521e3", "name": "Schwimmhalle Anton-Saefkow-Platz", "location": {"address": "Anton-Saefkow-Platz 1", "lat": 52.53115028150022, "lng": 13.471510434388977, "labeledLatLngs": [{"label": "display", "lat": 52.53115028150022, "lng": 13.471510434388977}], "distance": 232, "postalCode": "10369", "cc": "DE", "city": "Berlin", "state": "Berlin", "country": "Deutschland", "formattedAddress": ["Anton-Saefkow-Platz 1", "10369 Berlin", "Deutschland"]}, "categories": [{"id": "4bf58dd8d48988d15e941735", "name": "Pool", "pluralName": "Pools", "shortName": "Pool", "icon": {"prefix": "https://ss3.4sqi.net/img/categories_v2/parks_outdoors/pool_", "suffix": ".png"}, "primary": true}], "photos": {"count": 0, "groups": []}}, "referralId": "e-0-4aebfdfaf964a52032c521e3-10"}, {"reasons": {"count": 0, "items": [{"summary": "This spot is popular", "type": "general", "reasonName": "globalInteractionReason"}]}, "venue": {"id": "4e0c6d1a8877c535e46d9e0e", "name": "EDEKA", "location": {"address": "Franz-Jacob-Str. 4", "crossStreet": "Storkower Bogen", "lat": 52.52540871964544, "lng": 13.465742151426321, "labeledLatLngs": [{"label": "display", "lat": 52.52540871964544, "lng": 13.465742151426321}], "distance": 640, "postalCode": "10369", "cc": "DE", "city": "Berlin", "state": "Berlin", "country": "Deutschland", "formattedAddress": ["Franz-Jacob-Str. 4 (Storkower Bogen)", "10369 Berlin", "Deutschland"]}, "categories": [{"id": "52f2ab2ebcbc57f1066b8b46", "name": "Supermarket", "pluralName": "Supermarkets", "shortName": "Supermarket", "icon": {"prefix": "https://ss3.4sqi.net/img/categories_v2/shops/food_grocery_", "suffix": ".png"}, "primary": true}], "photos": {"count": 0, "groups": []}}, "referralId": "e-0-4e0c6d1a8877c535e46d9e0e-11"}, {"reasons": {"count": 0, "items": [{"summary": "This spot is popular", "type": "general", "reasonName": "globalInteractionReason"}]}, "venue": {"id": "4c978f0d533aa0938a03db45", "name": "Lidl", "location": {"address": "M\u00f6llendorffstra\u00dfe 75A", "lat": 52.5225856, "lng": 13.4776139, "labeledLatLngs": [{"label": "display", "lat": 52.5225856, "lng": 13.4776139}], "distance": 806, "postalCode": "10367", "cc": "DE", "city": "Berlin", "state": "Berlin", "country": "Deutschland", "formattedAddress": ["M\u00f6llendorffstra\u00dfe 75A", "10367 Berlin", "Deutschland"]}, "categories": [{"id": "52f2ab2ebcbc57f1066b8b46", "name": "Supermarket", "pluralName": "Supermarkets", "shortName": "Supermarket", "icon": {"prefix": "https://ss3.4sqi.net/img/categories_v2/shops/food_grocery_", "suffix": ".png"}, "primary": true}], "photos": {"count": 0, "groups": []}, "venuePage": {"id": "576772113"}}, "referralId": "e-0-4c978f0d533aa0938a03db45-12"}, {"reasons": {"count": 0, "items": [{"summary": "This spot is popular", "type": "general", "reasonName": "globalInteractionReason"}]}, "venue": {"id": "4b51e9dcf964a5200b5b27e3", "name": "Lidl", "location": {"address": "Eldenaer Str. 34A", "lat": 52.520882891826176, "lng": 13.467714011379371, "labeledLatLngs": [{"label": "display", "lat": 52.520882891826176, "lng": 13.467714011379371}], "distance": 990, "postalCode": "10247", "cc": "DE", "city": "Berlin", "state": "Berlin", "country": "Deutschland", "formattedAddress": ["Eldenaer Str. 34A", "10247 Berlin", "Deutschland"]}, "categories": [{"id": "52f2ab2ebcbc57f1066b8b46", "name": "Supermarket", "pluralName": "Supermarkets", "shortName": "Supermarket", "icon": {"prefix": "https://ss3.4sqi.net/img/categories_v2/shops/food_grocery_", "suffix": ".png"}, "primary": true}], "photos": {"count": 0, "groups": []}, "venuePage": {"id": "579027729"}}, "referralId": "e-0-4b51e9dcf964a5200b5b27e3-13"}, {"reasons": {"count": 0, "items": [{"summary": "This spot is popular", "type": "general", "reasonName": "globalInteractionReason"}]}, "venue": {"id": "4d6fc03f7e16a35dfb9998f9", "name": "REWE", "location": {"address": "Anton-Saefkow-Platz 10", "lat": 52.52867261799575, "lng": 13.470486868588068, "labeledLatLngs": [{"label": "display", "lat": 52.52867261799575, "lng": 13.470486868588068}], "distance": 169, "postalCode": "10369", "cc": "DE", "city": "Berlin", "state": "Berlin", "country": "Deutschland", "formattedAddress": ["Anton-Saefkow-Platz 10", "10369 Berlin", "Deutschland"]}, "categories": [{"id": "52f2ab2ebcbc57f1066b8b46", "name": "Supermarket", "pluralName": "Supermarkets", "shortName": "Supermarket", "icon": {"prefix": "https://ss3.4sqi.net/img/categories_v2/shops/food_grocery_", "suffix": ".png"}, "primary": true}], "photos": {"count": 0, "groups": []}, "venuePage": {"id": "580026132"}}, "referralId": "e-0-4d6fc03f7e16a35dfb9998f9-14"}, {"reasons": {"count": 0, "items": [{"summary": "This spot is popular", "type": "general", "reasonName": "globalInteractionReason"}]}, "venue": {"id": "4f1d9e44e4b0aa50970c0066", "name": "REWE", "location": {"address": "Alfred-Jung-Str. 12", "lat": 52.52316395982246, "lng": 13.47565579524449, "labeledLatLngs": [{"label": "display", "lat": 52.52316395982246, "lng": 13.47565579524449}], "distance": 700, "postalCode": "10369", "cc": "DE", "city": "Berlin", "state": "Berlin", "country": "Deutschland", "formattedAddress": ["Alfred-Jung-Str. 12", "10369 Berlin", "Deutschland"]}, "categories": [{"id": "52f2ab2ebcbc57f1066b8b46", "name": "Supermarket", "pluralName": "Supermarkets", "shortName": "Supermarket", "icon": {"prefix": "https://ss3.4sqi.net/img/categories_v2/shops/food_grocery_", "suffix": ".png"}, "primary": true}], "photos": {"count": 0, "groups": []}}, "referralId": "e-0-4f1d9e44e4b0aa50970c0066-15"}, {"reasons": {"count": 0, "items": [{"summary": "This spot is popular", "type": "general", "reasonName": "globalInteractionReason"}]}, "venue": {"id": "4b841de0f964a520be2131e3", "name": "Fressnapf", "location": {"address": "Hermann-Blankenstein-Str. 40-44", "lat": 52.52262847, "lng": 13.46446959, "labeledLatLngs": [{"label": "display", "lat": 52.52262847, "lng": 13.46446959}], "distance": 926, "postalCode": "10249", "cc": "DE", "city": "Friedrichshain", "state": "Berlin", "country": "Deutschland", "formattedAddress": ["Hermann-Blankenstein-Str. 40-44", "10249 Berlin-Friedrichshain", "Deutschland"]}, "categories": [{"id": "4bf58dd8d48988d100951735", "name": "Pet Store", "pluralName": "Pet Stores", "shortName": "Pet Store", "icon": {"prefix": "https://ss3.4sqi.net/img/categories_v2/shops/pet_store_", "suffix": ".png"}, "primary": true}], "photos": {"count": 0, "groups": []}, "venuePage": {"id": "475713438"}}, "referralId": "e-0-4b841de0f964a520be2131e3-16"}, {"reasons": {"count": 0, "items": [{"summary": "This spot is popular", "type": "general", "reasonName": "globalInteractionReason"}]}, "venue": {"id": "4cfbaa47d8468cfa21dbf56b", "name": "PENNY", "location": {"address": "Hermann-Blankenstein-Str. 40", "crossStreet": "August-Lindemann-Str.", "lat": 52.52238777, "lng": 13.46543049, "labeledLatLngs": [{"label": "display", "lat": 52.52238777, "lng": 13.46543049}], "distance": 910, "postalCode": "10249", "cc": "DE", "city": "Berlin", "state": "Berlin", "country": "Deutschland", "formattedAddress": ["Hermann-Blankenstein-Str. 40 (August-Lindemann-Str.)", "10249 Berlin", "Deutschland"]}, "categories": [{"id": "52f2ab2ebcbc57f1066b8b46", "name": "Supermarket", "pluralName": "Supermarkets", "shortName": "Supermarket", "icon": {"prefix": "https://ss3.4sqi.net/img/categories_v2/shops/food_grocery_", "suffix": ".png"}, "primary": true}], "photos": {"count": 0, "groups": []}, "venuePage": {"id": "563358201"}}, "referralId": "e-0-4cfbaa47d8468cfa21dbf56b-17"}, {"reasons": {"count": 0, "items": [{"summary": "This spot is popular", "type": "general", "reasonName": "globalInteractionReason"}]}, "venue": {"id": "4d693eae342b8cfa7b09c62c", "name": "NORMA", "location": {"address": "Franz-Jacob-Str. 16-18", "lat": 52.52846755590664, "lng": 13.470792004029361, "labeledLatLngs": [{"label": "display", "lat": 52.52846755590664, "lng": 13.470792004029361}], "distance": 161, "postalCode": "10369", "cc": "DE", "city": "Berlin", "state": "Berlin", "country": "Deutschland", "formattedAddress": ["Franz-Jacob-Str. 16-18", "10369 Berlin", "Deutschland"]}, "categories": [{"id": "52f2ab2ebcbc57f1066b8b46", "name": "Supermarket", "pluralName": "Supermarkets", "shortName": "Supermarket", "icon": {"prefix": "https://ss3.4sqi.net/img/categories_v2/shops/food_grocery_", "suffix": ".png"}, "primary": true}], "photos": {"count": 0, "groups": []}}, "referralId": "e-0-4d693eae342b8cfa7b09c62c-18"}, {"reasons": {"count": 0, "items": [{"summary": "This spot is popular", "type": "general", "reasonName": "globalInteractionReason"}]}, "venue": {"id": "4e2d3dcc483bb05f05b05bf1", "name": "TEDi", "location": {"address": "Anton Saefkow Platz 8", "lat": 52.528811209470206, "lng": 13.47182009325411, "labeledLatLngs": [{"label": "display", "lat": 52.528811209470206, "lng": 13.47182009325411}], "distance": 81, "postalCode": "10369", "cc": "DE", "city": "Berlin", "state": "Berlin", "country": "Deutschland", "formattedAddress": ["Anton Saefkow Platz 8", "10369 Berlin", "Deutschland"]}, "categories": [{"id": "5454144b498ec1f095bff2f2", "name": "Construction & Landscaping", "pluralName": "Construction & Landscaping", "shortName": "Construction", "icon": {"prefix": "https://ss3.4sqi.net/img/categories_v2/shops/realestate_", "suffix": ".png"}, "primary": true}], "photos": {"count": 0, "groups": []}}, "referralId": "e-0-4e2d3dcc483bb05f05b05bf1-19"}, {"reasons": {"count": 0, "items": [{"summary": "This spot is popular", "type": "general", "reasonName": "globalInteractionReason"}]}, "venue": {"id": "4f04085de5faf0bb0b98ff2d", "name": "H Roederplatz", "location": {"address": "M\u00f6llendorffstr.", "crossStreet": "Roederplatz", "lat": 52.52713501026431, "lng": 13.47951704426556, "labeledLatLngs": [{"label": "display", "lat": 52.52713501026431, "lng": 13.47951704426556}], "distance": 509, "postalCode": "10367", "cc": "DE", "city": "Berlin", "state": "Berlin", "country": "Deutschland", "formattedAddress": ["M\u00f6llendorffstr. (Roederplatz)", "10367 Berlin", "Deutschland"]}, "categories": [{"id": "52f2ab2ebcbc57f1066b8b51", "name": "Tram Station", "pluralName": "Tram Stations", "shortName": "Tram", "icon": {"prefix": "https://ss3.4sqi.net/img/categories_v2/travel/trainstation_", "suffix": ".png"}, "primary": true}], "photos": {"count": 0, "groups": []}}, "referralId": "e-0-4f04085de5faf0bb0b98ff2d-20"}, {"reasons": {"count": 0, "items": [{"summary": "This spot is popular", "type": "general", "reasonName": "globalInteractionReason"}]}, "venue": {"id": "4f7d7b7fe4b02c0a5aa25d98", "name": "H Landsberger Allee / Wei\u00dfenseer Weg", "location": {"address": "Wei\u00dfenseer Weg", "crossStreet": "Landsberger Allee", "lat": 52.53269181492372, "lng": 13.47814442683647, "labeledLatLngs": [{"label": "display", "lat": 52.53269181492372, "lng": 13.47814442683647}], "distance": 528, "postalCode": "10367", "cc": "DE", "city": "Berlin", "state": "Berlin", "country": "Deutschland", "formattedAddress": ["Wei\u00dfenseer Weg (Landsberger Allee)", "10367 Berlin", "Deutschland"]}, "categories": [{"id": "52f2ab2ebcbc57f1066b8b51", "name": "Tram Station", "pluralName": "Tram Stations", "shortName": "Tram", "icon": {"prefix": "https://ss3.4sqi.net/img/categories_v2/travel/trainstation_", "suffix": ".png"}, "primary": true}], "photos": {"count": 0, "groups": []}}, "referralId": "e-0-4f7d7b7fe4b02c0a5aa25d98-21"}, {"reasons": {"count": 0, "items": [{"summary": "This spot is popular", "type": "general", "reasonName": "globalInteractionReason"}]}, "venue": {"id": "4e1d94f0a809ef911ebcb300", "name": "Spiele Max", "location": {"address": "Wei\u00dfenseer Weg 35", "crossStreet": "Hohensch\u00f6nhauser Tor", "lat": 52.53271747692966, "lng": 13.478187043322773, "labeledLatLngs": [{"label": "display", "lat": 52.53271747692966, "lng": 13.478187043322773}], "distance": 532, "postalCode": "13055", "cc": "DE", "city": "Berlin", "state": "Berlin", "country": "Deutschland", "formattedAddress": ["Wei\u00dfenseer Weg 35 (Hohensch\u00f6nhauser Tor)", "13055 Berlin", "Deutschland"]}, "categories": [{"id": "4bf58dd8d48988d1f3941735", "name": "Toy / Game Store", "pluralName": "Toy / Game Stores", "shortName": "Toys & Games", "icon": {"prefix": "https://ss3.4sqi.net/img/categories_v2/shops/toys_", "suffix": ".png"}, "primary": true}], "photos": {"count": 0, "groups": []}}, "referralId": "e-0-4e1d94f0a809ef911ebcb300-22"}, {"reasons": {"count": 0, "items": [{"summary": "This spot is popular", "type": "general", "reasonName": "globalInteractionReason"}]}, "venue": {"id": "4b9fcb7ff964a5205c3f37e3", "name": "Kaufland", "location": {"address": "Hermann-Blankenstein-Str. 38", "lat": 52.52401053942266, "lng": 13.46171099799514, "labeledLatLngs": [{"label": "display", "lat": 52.52401053942266, "lng": 13.46171099799514}], "distance": 950, "postalCode": "10249", "cc": "DE", "neighborhood": "Prenzlauer Berg", "city": "Berlin", "state": "Berlin", "country": "Deutschland", "formattedAddress": ["Hermann-Blankenstein-Str. 38", "10249 Berlin", "Deutschland"]}, "categories": [{"id": "52f2ab2ebcbc57f1066b8b42", "name": "Big Box Store", "pluralName": "Big Box Stores", "shortName": "Big Box Store", "icon": {"prefix": "https://ss3.4sqi.net/img/categories_v2/shops/default_", "suffix": ".png"}, "primary": true}], "photos": {"count": 0, "groups": []}, "venuePage": {"id": "456314489"}}, "referralId": "e-0-4b9fcb7ff964a5205c3f37e3-23"}, {"reasons": {"count": 0, "items": [{"summary": "This spot is popular", "type": "general", "reasonName": "globalInteractionReason"}]}, "venue": {"id": "50d088eee4b0834917d6a7b0", "name": "Post & Theaterkasse", "location": {"address": "Franz-Jacob-Str. 2c", "lat": 52.5251081045628, "lng": 13.466397147726346, "labeledLatLngs": [{"label": "display", "lat": 52.5251081045628, "lng": 13.466397147726346}], "distance": 631, "postalCode": "10369", "cc": "DE", "city": "Berlin", "state": "Berlin", "country": "Deutschland", "formattedAddress": ["Franz-Jacob-Str. 2c", "10369 Berlin", "Deutschland"]}, "categories": [{"id": "4bf58dd8d48988d172941735", "name": "Post Office", "pluralName": "Post Offices", "shortName": "Post Office", "icon": {"prefix": "https://ss3.4sqi.net/img/categories_v2/building/postoffice_", "suffix": ".png"}, "primary": true}], "photos": {"count": 0, "groups": []}}, "referralId": "e-0-50d088eee4b0834917d6a7b0-24"}, {"reasons": {"count": 0, "items": [{"summary": "This spot is popular", "type": "general", "reasonName": "globalInteractionReason"}]}, "venue": {"id": "5184ae75498ed380aa6aa50b", "name": "Arena FC Berlin 23", "location": {"address": "Storkower Strasse 209", "lat": 52.52354643064355, "lng": 13.471128941973634, "labeledLatLngs": [{"label": "display", "lat": 52.52354643064355, "lng": 13.471128941973634}], "distance": 641, "cc": "DE", "city": "Berlin", "state": "Berlin", "country": "Deutschland", "formattedAddress": ["Storkower Strasse 209", "Berlin", "Deutschland"]}, "categories": [{"id": "4cce455aebf7b749d5e191f5", "name": "Soccer Field", "pluralName": "Soccer Fields", "shortName": "Soccer Field", "icon": {"prefix": "https://ss3.4sqi.net/img/categories_v2/arts_entertainment/stadium_soccer_", "suffix": ".png"}, "primary": true}], "photos": {"count": 0, "groups": []}}, "referralId": "e-0-5184ae75498ed380aa6aa50b-25"}, {"reasons": {"count": 0, "items": [{"summary": "This spot is popular", "type": "general", "reasonName": "globalInteractionReason"}]}, "venue": {"id": "4cc42eb2306e224b928e9b6c", "name": "Fussballplatz Storkower Str.", "location": {"address": "Storkower Str.209", "lat": 52.52344760786092, "lng": 13.471447890932325, "labeledLatLngs": [{"label": "display", "lat": 52.52344760786092, "lng": 13.471447890932325}], "distance": 649, "postalCode": "10369", "cc": "DE", "city": "Berlin", "state": "Berlin", "country": "Deutschland", "formattedAddress": ["Storkower Str.209", "10369 Berlin", "Deutschland"]}, "categories": [{"id": "4cce455aebf7b749d5e191f5", "name": "Soccer Field", "pluralName": "Soccer Fields", "shortName": "Soccer Field", "icon": {"prefix": "https://ss3.4sqi.net/img/categories_v2/arts_entertainment/stadium_soccer_", "suffix": ".png"}, "primary": true}], "photos": {"count": 0, "groups": []}}, "referralId": "e-0-4cc42eb2306e224b928e9b6c-26"}, {"reasons": {"count": 0, "items": [{"summary": "This spot is popular", "type": "general", "reasonName": "globalInteractionReason"}]}, "venue": {"id": "4bfe2720f7c82d7f31388f04", "name": "Rossmann", "location": {"address": "Hermann-Blankenstein-Stra\u00dfe 38", "lat": 52.523423445981976, "lng": 13.462741792108057, "labeledLatLngs": [{"label": "display", "lat": 52.523423445981976, "lng": 13.462741792108057}], "distance": 939, "postalCode": "10249", "cc": "DE", "city": "Berlin", "state": "Berlin", "country": "Deutschland", "formattedAddress": ["Hermann-Blankenstein-Stra\u00dfe 38", "10249 Berlin", "Deutschland"]}, "categories": [{"id": "5745c2e4498e11e7bccabdbd", "name": "Drugstore", "pluralName": "Drugstores", "shortName": "Drugstore", "icon": {"prefix": "https://ss3.4sqi.net/img/categories_v2/shops/pharmacy_", "suffix": ".png"}, "primary": true}], "photos": {"count": 0, "groups": []}}, "referralId": "e-0-4bfe2720f7c82d7f31388f04-27"}, {"reasons": {"count": 0, "items": [{"summary": "This spot is popular", "type": "general", "reasonName": "globalInteractionReason"}]}, "venue": {"id": "4bc9f6460687ef3b1ee1dacc", "name": "H Bernhard-B\u00e4stlein-Stra\u00dfe", "location": {"address": "Herzbergstr.", "crossStreet": "Bernhard-B\u00e4stlein-Str.", "lat": 52.52680387494436, "lng": 13.482026748268545, "labeledLatLngs": [{"label": "display", "lat": 52.52680387494436, "lng": 13.482026748268545}], "distance": 678, "postalCode": "10367", "cc": "DE", "city": "Berlin", "state": "Berlin", "country": "Deutschland", "formattedAddress": ["Herzbergstr. (Bernhard-B\u00e4stlein-Str.)", "10367 Berlin", "Deutschland"]}, "categories": [{"id": "52f2ab2ebcbc57f1066b8b51", "name": "Tram Station", "pluralName": "Tram Stations", "shortName": "Tram", "icon": {"prefix": "https://ss3.4sqi.net/img/categories_v2/travel/trainstation_", "suffix": ".png"}, "primary": true}], "photos": {"count": 0, "groups": []}}, "referralId": "e-0-4bc9f6460687ef3b1ee1dacc-28"}, {"reasons": {"count": 0, "items": [{"summary": "This spot is popular", "type": "general", "reasonName": "globalInteractionReason"}]}, "venue": {"id": "4f995006e4b00a801587098c", "name": "H S Storkower Stra\u00dfe", "location": {"address": "Storkower Str.", "lat": 52.5243522091288, "lng": 13.466270504601995, "labeledLatLngs": [{"label": "display", "lat": 52.5243522091288, "lng": 13.466270504601995}], "distance": 700, "cc": "DE", "city": "Berlin", "state": "Berlin", "country": "Deutschland", "formattedAddress": ["Storkower Str.", "Berlin", "Deutschland"]}, "categories": [{"id": "52f2ab2ebcbc57f1066b8b4f", "name": "Bus Stop", "pluralName": "Bus Stops", "shortName": "Bus Stop", "icon": {"prefix": "https://ss3.4sqi.net/img/categories_v2/travel/busstation_", "suffix": ".png"}, "primary": true}], "photos": {"count": 0, "groups": []}}, "referralId": "e-0-4f995006e4b00a801587098c-29"}, {"reasons": {"count": 0, "items": [{"summary": "This spot is popular", "type": "general", "reasonName": "globalInteractionReason"}]}, "venue": {"id": "50502e72e4b087fd016726ad", "name": "Linde B\u00e4ckerei - Konditorei", "location": {"address": "M\u00f6llendorffstr. 52", "lat": 52.5244198459537, "lng": 13.479725086562068, "labeledLatLngs": [{"label": "display", "lat": 52.5244198459537, "lng": 13.479725086562068}], "distance": 709, "postalCode": "10367", "cc": "DE", "city": "Berlin", "state": "Berlin", "country": "Deutschland", "formattedAddress": ["M\u00f6llendorffstr. 52", "10367 Berlin", "Deutschland"]}, "categories": [{"id": "4bf58dd8d48988d16a941735", "name": "Bakery", "pluralName": "Bakeries", "shortName": "Bakery", "icon": {"prefix": "https://ss3.4sqi.net/img/categories_v2/food/bakery_", "suffix": ".png"}, "primary": true}], "photos": {"count": 0, "groups": []}}, "referralId": "e-0-50502e72e4b087fd016726ad-30"}, {"reasons": {"count": 0, "items": [{"summary": "This spot is popular", "type": "general", "reasonName": "globalInteractionReason"}]}, "venue": {"id": "4c7d3cebd65437040ec0bfa2", "name": "Renault Retail Group", "location": {"address": "Wei\u00dfenseer Weg 32", "lat": 52.53556, "lng": 13.47455, "labeledLatLngs": [{"label": "display", "lat": 52.53556, "lng": 13.47455}], "distance": 715, "postalCode": "13055", "cc": "DE", "city": "Berlin", "state": "Berlin", "country": "Deutschland", "formattedAddress": ["Wei\u00dfenseer Weg 32", "13055 Berlin", "Deutschland"]}, "categories": [{"id": "4eb1c1623b7b52c0e1adc2ec", "name": "Auto Dealership", "pluralName": "Auto Dealerships", "shortName": "Auto Dealer", "icon": {"prefix": "https://ss3.4sqi.net/img/categories_v2/shops/automotive_", "suffix": ".png"}, "primary": true}], "photos": {"count": 0, "groups": []}, "venuePage": {"id": "479697651"}}, "referralId": "e-0-4c7d3cebd65437040ec0bfa2-31"}, {"reasons": {"count": 0, "items": [{"summary": "This spot is popular", "type": "general", "reasonName": "globalInteractionReason"}]}, "venue": {"id": "4d5a6f5c35966dcb77a56028", "name": "Der B\u00e4cker Feihl", "location": {"address": "Franz-Jacob-Str. 2C", "crossStreet": "Storkower Str.", "lat": 52.52454758399577, "lng": 13.465723531503842, "labeledLatLngs": [{"label": "display", "lat": 52.52454758399577, "lng": 13.465723531503842}], "distance": 708, "postalCode": "10369", "cc": "DE", "city": "Berlin", "state": "Berlin", "country": "Deutschland", "formattedAddress": ["Franz-Jacob-Str. 2C (Storkower Str.)", "10369 Berlin", "Deutschland"]}, "categories": [{"id": "4bf58dd8d48988d16a941735", "name": "Bakery", "pluralName": "Bakeries", "shortName": "Bakery", "icon": {"prefix": "https://ss3.4sqi.net/img/categories_v2/food/bakery_", "suffix": ".png"}, "primary": true}], "photos": {"count": 0, "groups": []}}, "referralId": "e-0-4d5a6f5c35966dcb77a56028-32"}, {"reasons": {"count": 0, "items": [{"summary": "This spot is popular", "type": "general", "reasonName": "globalInteractionReason"}]}, "venue": {"id": "4f017a9730f8992333c470d5", "name": "D\u00e4nisches Bettenlager", "location": {"address": "Konrad-Wolf-Str.", "lat": 52.53616862674965, "lng": 13.475192785263062, "labeledLatLngs": [{"label": "display", "lat": 52.53616862674965, "lng": 13.475192785263062}], "distance": 789, "cc": "DE", "city": "Berlin", "state": "Berlin", "country": "Deutschland", "formattedAddress": ["Konrad-Wolf-Str.", "Berlin", "Deutschland"]}, "categories": [{"id": "4bf58dd8d48988d1f8941735", "name": "Furniture / Home Store", "pluralName": "Furniture / Home Stores", "shortName": "Furniture / Home", "icon": {"prefix": "https://ss3.4sqi.net/img/categories_v2/shops/furniture_", "suffix": ".png"}, "primary": true}], "photos": {"count": 0, "groups": []}}, "referralId": "e-0-4f017a9730f8992333c470d5-33"}, {"reasons": {"count": 0, "items": [{"summary": "This spot is popular", "type": "general", "reasonName": "globalInteractionReason"}]}, "venue": {"id": "524abe7411d2300457e4cb43", "name": "Mac's Bistro", "location": {"lat": 52.5363551609525, "lng": 13.47393354088671, "labeledLatLngs": [{"label": "display", "lat": 52.5363551609525, "lng": 13.47393354088671}], "distance": 797, "cc": "DE", "city": "Berlin", "state": "Berlin", "country": "Deutschland", "formattedAddress": ["Berlin", "Deutschland"]}, "categories": [{"id": "4bf58dd8d48988d16e941735", "name": "Fast Food Restaurant", "pluralName": "Fast Food Restaurants", "shortName": "Fast Food", "icon": {"prefix": "https://ss3.4sqi.net/img/categories_v2/food/fastfood_", "suffix": ".png"}, "primary": true}], "photos": {"count": 0, "groups": []}}, "referralId": "e-0-524abe7411d2300457e4cb43-34"}, {"reasons": {"count": 0, "items": [{"summary": "This spot is popular", "type": "general", "reasonName": "globalInteractionReason"}]}, "venue": {"id": "4eda1c4f9adfe5cbdecbefe7", "name": "H M\u00f6llendorffstra\u00dfe / Storkower Stra\u00dfe", "location": {"address": "M\u00f6llendorffstr.", "crossStreet": "Storkower Str.", "lat": 52.523326987693075, "lng": 13.479575514793396, "labeledLatLngs": [{"label": "display", "lat": 52.523326987693075, "lng": 13.479575514793396}], "distance": 799, "postalCode": "10367", "cc": "DE", "city": "Berlin", "state": "Berlin", "country": "Deutschland", "formattedAddress": ["M\u00f6llendorffstr. (Storkower Str.)", "10367 Berlin", "Deutschland"]}, "categories": [{"id": "52f2ab2ebcbc57f1066b8b51", "name": "Tram Station", "pluralName": "Tram Stations", "shortName": "Tram", "icon": {"prefix": "https://ss3.4sqi.net/img/categories_v2/travel/trainstation_", "suffix": ".png"}, "primary": true}], "photos": {"count": 0, "groups": []}}, "referralId": "e-0-4eda1c4f9adfe5cbdecbefe7-35"}, {"reasons": {"count": 0, "items": [{"summary": "This spot is popular", "type": "general", "reasonName": "globalInteractionReason"}]}, "venue": {"id": "50504c21e4b06aecfedc8194", "name": "H Altenhofer Str.", "location": {"address": "Altenhofer Str.", "crossStreet": "Mittelstr.", "lat": 52.535194204133155, "lng": 13.47974809648481, "labeledLatLngs": [{"label": "display", "lat": 52.535194204133155, "lng": 13.47974809648481}], "distance": 813, "postalCode": "13055", "cc": "DE", "city": "Berlin", "state": "Berlin", "country": "Deutschland", "formattedAddress": ["Altenhofer Str. (Mittelstr.)", "13055 Berlin", "Deutschland"]}, "categories": [{"id": "52f2ab2ebcbc57f1066b8b51", "name": "Tram Station", "pluralName": "Tram Stations", "shortName": "Tram", "icon": {"prefix": "https://ss3.4sqi.net/img/categories_v2/travel/trainstation_", "suffix": ".png"}, "primary": true}], "photos": {"count": 0, "groups": []}}, "referralId": "e-0-50504c21e4b06aecfedc8194-36"}, {"reasons": {"count": 0, "items": [{"summary": "This spot is popular", "type": "general", "reasonName": "globalInteractionReason"}]}, "venue": {"id": "4af6316cf964a5201e0222e3", "name": "S Storkower Stra\u00dfe", "location": {"address": "Storkower Str.", "lat": 52.5238978942807, "lng": 13.464559871380004, "labeledLatLngs": [{"label": "display", "lat": 52.5238978942807, "lng": 13.464559871380004}], "distance": 815, "postalCode": "10249", "cc": "DE", "city": "Berlin", "state": "Berlin", "country": "Deutschland", "formattedAddress": ["Storkower Str.", "10249 Berlin", "Deutschland"]}, "categories": [{"id": "4bf58dd8d48988d1fc931735", "name": "Light Rail Station", "pluralName": "Light Rail Stations", "shortName": "Light Rail", "icon": {"prefix": "https://ss3.4sqi.net/img/categories_v2/travel/lightrail_", "suffix": ".png"}, "primary": true}], "photos": {"count": 0, "groups": []}}, "referralId": "e-0-4af6316cf964a5201e0222e3-37"}, {"reasons": {"count": 0, "items": [{"summary": "This spot is popular", "type": "general", "reasonName": "globalInteractionReason"}]}, "venue": {"id": "51a21720498e11239da95dbe", "name": "Roederplatz", "location": {"lat": 52.52689375823146, "lng": 13.484479007357434, "labeledLatLngs": [{"label": "display", "lat": 52.52689375823146, "lng": 13.484479007357434}], "distance": 830, "cc": "DE", "city": "Berlin", "state": "Berlin", "country": "Deutschland", "formattedAddress": ["Berlin", "Deutschland"]}, "categories": [{"id": "4bf58dd8d48988d164941735", "name": "Plaza", "pluralName": "Plazas", "shortName": "Plaza", "icon": {"prefix": "https://ss3.4sqi.net/img/categories_v2/parks_outdoors/plaza_", "suffix": ".png"}, "primary": true}], "photos": {"count": 0, "groups": []}}, "referralId": "e-0-51a21720498e11239da95dbe-38"}, {"reasons": {"count": 0, "items": [{"summary": "This spot is popular", "type": "general", "reasonName": "globalInteractionReason"}]}, "venue": {"id": "4b891a6af964a520d61c32e3", "name": "Getr\u00e4nke Hoffmann", "location": {"address": "Hermann-Blankenstein-Str. 46", "lat": 52.5220816673436, "lng": 13.468503436626179, "labeledLatLngs": [{"label": "display", "lat": 52.5220816673436, "lng": 13.468503436626179}], "distance": 846, "postalCode": "10249", "cc": "DE", "city": "Berlin", "state": "Berlin", "country": "Deutschland", "formattedAddress": ["Hermann-Blankenstein-Str. 46", "10249 Berlin", "Deutschland"]}, "categories": [{"id": "4bf58dd8d48988d186941735", "name": "Liquor Store", "pluralName": "Liquor Stores", "shortName": "Liquor Store", "icon": {"prefix": "https://ss3.4sqi.net/img/categories_v2/shops/food_liquor_", "suffix": ".png"}, "primary": true}], "photos": {"count": 0, "groups": []}}, "referralId": "e-0-4b891a6af964a520d61c32e3-39"}, {"reasons": {"count": 0, "items": [{"summary": "This spot is popular", "type": "general", "reasonName": "globalInteractionReason"}]}, "venue": {"id": "4fa6bd3de4b039aeec585607", "name": "ALANYA Bistro and Bar", "location": {"address": "Josef-Orlopp-Str. 5", "lat": 52.52316, "lng": 13.480968, "labeledLatLngs": [{"label": "display", "lat": 52.52316, "lng": 13.480968}], "distance": 871, "postalCode": "10367", "cc": "DE", "city": "Berlin", "state": "Berlin", "country": "Deutschland", "formattedAddress": ["Josef-Orlopp-Str. 5", "10367 Berlin", "Deutschland"]}, "categories": [{"id": "4bf58dd8d48988d10b941735", "name": "Falafel Restaurant", "pluralName": "Falafel Restaurants", "shortName": "Falafel", "icon": {"prefix": "https://ss3.4sqi.net/img/categories_v2/food/falafel_", "suffix": ".png"}, "primary": true}], "photos": {"count": 0, "groups": []}}, "referralId": "e-0-4fa6bd3de4b039aeec585607-40"}, {"reasons": {"count": 0, "items": [{"summary": "This spot is popular", "type": "general", "reasonName": "globalInteractionReason"}]}, "venue": {"id": "4dcd65f4c65bdac713468435", "name": "D\u00e4nisches Bettenlager", "location": {"address": "Hermann-Blankenstein-Str. 40-44", "lat": 52.52283402154335, "lng": 13.464436506778528, "labeledLatLngs": [{"label": "display", "lat": 52.52283402154335, "lng": 13.464436506778528}], "distance": 910, "postalCode": "10247", "cc": "DE", "city": "Berlin", "state": "Berlin", "country": "Deutschland", "formattedAddress": ["Hermann-Blankenstein-Str. 40-44", "10247 Berlin", "Deutschland"]}, "categories": [{"id": "4bf58dd8d48988d1f8941735", "name": "Furniture / Home Store", "pluralName": "Furniture / Home Stores", "shortName": "Furniture / Home", "icon": {"prefix": "https://ss3.4sqi.net/img/categories_v2/shops/furniture_", "suffix": ".png"}, "primary": true}], "photos": {"count": 0, "groups": []}}, "referralId": "e-0-4dcd65f4c65bdac713468435-41"}, {"reasons": {"count": 0, "items": [{"summary": "This spot is popular", "type": "general", "reasonName": "globalInteractionReason"}]}, "venue": {"id": "4caaeecd44a8224b1f462940", "name": "Ernsting's family", "location": {"address": "Hermann-Blankenstein-Strasse", "lat": 52.523486601230566, "lng": 13.463212868329945, "labeledLatLngs": [{"label": "display", "lat": 52.523486601230566, "lng": 13.463212868329945}], "distance": 911, "postalCode": "10247", "cc": "DE", "city": "Berlin", "state": "Berlin", "country": "Deutschland", "formattedAddress": ["Hermann-Blankenstein-Strasse", "10247 Berlin", "Deutschland"]}, "categories": [{"id": "4bf58dd8d48988d103951735", "name": "Clothing Store", "pluralName": "Clothing Stores", "shortName": "Apparel", "icon": {"prefix": "https://ss3.4sqi.net/img/categories_v2/shops/apparel_", "suffix": ".png"}, "primary": true}], "photos": {"count": 0, "groups": []}}, "referralId": "e-0-4caaeecd44a8224b1f462940-42"}, {"reasons": {"count": 0, "items": [{"summary": "This spot is popular", "type": "general", "reasonName": "globalInteractionReason"}]}, "venue": {"id": "501e9e80e4b04df4280a4f7f", "name": "SV Berliner Brauereien", "location": {"lat": 52.53664398648007, "lng": 13.4669231066742, "labeledLatLngs": [{"label": "display", "lat": 52.53664398648007, "lng": 13.4669231066742}], "distance": 918, "cc": "DE", "city": "Berlin", "state": "Berlin", "country": "Deutschland", "formattedAddress": ["Berlin", "Deutschland"]}, "categories": [{"id": "4e39a956bd410d7aed40cbc3", "name": "Tennis Court", "pluralName": "Tennis Courts", "shortName": "Tennis Court", "icon": {"prefix": "https://ss3.4sqi.net/img/categories_v2/arts_entertainment/stadium_tennis_", "suffix": ".png"}, "primary": true}], "photos": {"count": 0, "groups": []}}, "referralId": "e-0-501e9e80e4b04df4280a4f7f-43"}, {"reasons": {"count": 0, "items": [{"summary": "This spot is popular", "type": "general", "reasonName": "globalInteractionReason"}]}, "venue": {"id": "5a22868567af3a3971d465f3", "name": "Geldautomat Sparkasse", "location": {"lat": 52.523792, "lng": 13.461929, "labeledLatLngs": [{"label": "display", "lat": 52.523792, "lng": 13.461929}], "distance": 953, "postalCode": "10249", "cc": "DE", "city": "Berlin", "state": "Berlin", "country": "Deutschland", "formattedAddress": ["10249 Berlin", "Deutschland"]}, "categories": [{"id": "52f2ab2ebcbc57f1066b8b56", "name": "ATM", "pluralName": "ATMs", "shortName": "ATM", "icon": {"prefix": "https://ss3.4sqi.net/img/categories_v2/shops/financial_", "suffix": ".png"}, "primary": true}], "photos": {"count": 0, "groups": []}}, "referralId": "e-0-5a22868567af3a3971d465f3-44"}, {"reasons": {"count": 0, "items": [{"summary": "This spot is popular", "type": "general", "reasonName": "globalInteractionReason"}]}, "venue": {"id": "4db6fd396e8179a913aee62f", "name": "SHOE 4 YOU", "location": {"address": "Hermann-Blankenstein-Str. 38", "crossStreet": "am Kaufland", "lat": 52.523234432454295, "lng": 13.462621500032538, "labeledLatLngs": [{"label": "display", "lat": 52.523234432454295, "lng": 13.462621500032538}], "distance": 960, "postalCode": "10249", "cc": "DE", "city": "Berlin", "state": "Berlin", "country": "Deutschland", "formattedAddress": ["Hermann-Blankenstein-Str. 38 (am Kaufland)", "10249 Berlin", "Deutschland"]}, "categories": [{"id": "4bf58dd8d48988d107951735", "name": "Shoe Store", "pluralName": "Shoe Stores", "shortName": "Shoes", "icon": {"prefix": "https://ss3.4sqi.net/img/categories_v2/shops/apparel_shoestore_", "suffix": ".png"}, "primary": true}], "photos": {"count": 0, "groups": []}}, "referralId": "e-0-4db6fd396e8179a913aee62f-45"}, {"reasons": {"count": 0, "items": [{"summary": "This spot is popular", "type": "general", "reasonName": "globalInteractionReason"}]}, "venue": {"id": "4f90459ae4b094de9b9febcc", "name": "H Scheffelstra\u00dfe / Paul-Junius-Stra\u00dfe", "location": {"address": "Scheffelstr.", "crossStreet": "Paul-Junius-Str.", "lat": 52.52054313414822, "lng": 13.47394359090463, "labeledLatLngs": [{"label": "display", "lat": 52.52054313414822, "lng": 13.47394359090463}], "distance": 968, "postalCode": "10367", "cc": "DE", "city": "Berlin", "state": "Berlin", "country": "Deutschland", "formattedAddress": ["Scheffelstr. (Paul-Junius-Str.)", "10367 Berlin", "Deutschland"]}, "categories": [{"id": "52f2ab2ebcbc57f1066b8b51", "name": "Tram Station", "pluralName": "Tram Stations", "shortName": "Tram", "icon": {"prefix": "https://ss3.4sqi.net/img/categories_v2/travel/trainstation_", "suffix": ".png"}, "primary": true}], "photos": {"count": 0, "groups": []}}, "referralId": "e-0-4f90459ae4b094de9b9febcc-46"}, {"reasons": {"count": 0, "items": [{"summary": "This spot is popular", "type": "general", "reasonName": "globalInteractionReason"}]}, "venue": {"id": "4c29c1a09fb5d13a70919b57", "name": "THAI-NIPPON Sushi Bar", "location": {"address": "Hermann Blankenstein Str. 38", "lat": 52.5236631699408, "lng": 13.461663722991943, "labeledLatLngs": [{"label": "display", "lat": 52.5236631699408, "lng": 13.461663722991943}], "distance": 976, "postalCode": "10249", "cc": "DE", "city": "Berlin", "state": "Berlin", "country": "Deutschland", "formattedAddress": ["Hermann Blankenstein Str. 38", "10249 Berlin", "Deutschland"]}, "categories": [{"id": "4bf58dd8d48988d1d2941735", "name": "Sushi Restaurant", "pluralName": "Sushi Restaurants", "shortName": "Sushi", "icon": {"prefix": "https://ss3.4sqi.net/img/categories_v2/food/sushi_", "suffix": ".png"}, "primary": true}], "photos": {"count": 0, "groups": []}}, "referralId": "e-0-4c29c1a09fb5d13a70919b57-47"}, {"reasons": {"count": 0, "items": [{"summary": "This spot is popular", "type": "general", "reasonName": "globalInteractionReason"}]}, "venue": {"id": "563bfd00cd10d9e62562a9e3", "name": "Gutspark Lichtenberg", "location": {"lat": 52.521992025025575, "lng": 13.481254577636717, "labeledLatLngs": [{"label": "display", "lat": 52.521992025025575, "lng": 13.481254577636717}], "distance": 986, "cc": "DE", "city": "Berlin", "state": "Berlin", "country": "Deutschland", "formattedAddress": ["Berlin", "Deutschland"]}, "categories": [{"id": "4bf58dd8d48988d163941735", "name": "Park", "pluralName": "Parks", "shortName": "Park", "icon": {"prefix": "https://ss3.4sqi.net/img/categories_v2/parks_outdoors/park_", "suffix": ".png"}, "primary": true}], "photos": {"count": 0, "groups": []}}, "referralId": "e-0-563bfd00cd10d9e62562a9e3-48"}, {"reasons": {"count": 0, "items": [{"summary": "This spot is popular", "type": "general", "reasonName": "globalInteractionReason"}]}, "venue": {"id": "4bddcdfd0ee3a59372b72eb0", "name": "H Hohensch\u00f6nhauser Stra\u00dfe / Wei\u00dfenseer Weg", "location": {"address": "Hohensch\u00f6nhauser Str.", "crossStreet": "Wei\u00dfenseer Weg", "lat": 52.53609684149261, "lng": 13.47347617149353, "labeledLatLngs": [{"label": "display", "lat": 52.53609684149261, "lng": 13.47347617149353}], "distance": 766, "postalCode": "10369", "cc": "DE", "city": "Berlin", "state": "Berlin", "country": "Deutschland", "formattedAddress": ["Hohensch\u00f6nhauser Str. (Wei\u00dfenseer Weg)", "10369 Berlin", "Deutschland"]}, "categories": [{"id": "52f2ab2ebcbc57f1066b8b51", "name": "Tram Station", "pluralName": "Tram Stations", "shortName": "Tram", "icon": {"prefix": "https://ss3.4sqi.net/img/categories_v2/travel/trainstation_", "suffix": ".png"}, "primary": true}], "photos": {"count": 0, "groups": []}}, "referralId": "e-0-4bddcdfd0ee3a59372b72eb0-49"}]