[{"reasons": {"count": 0, "items": [{"summary": "This spot is popular", "type": "general", "reasonName": "globalInteractionReason"}]}, "venue": {"id": "5186bc77498e0894a750d09a", "name": "Zukunft am Ostkreuz", "location": {"address": "Laskerstr. 5", "crossStreet": "Markgrafendamm", "lat": 52.501640423615264, "lng": 13.465598902869246, "labeledLatLngs": [{"label": "display", "lat": 52.501640423615264, "lng": 13.465598902869246}], "distance": 102, "postalCode": "10245", "cc": "DE", "neighborhood": "Friedrichshain, Berlin", "city": "Berlin", "state": "Berlin", "country": "Deutschland", "formattedAddress": ["Laskerstr. 5 (Markgrafendamm)", "10245 Berlin", "Deutschland"]}, "categories": [{"id": "4bf58dd8d48988d1e9931735", "name": "Rock Club", "pluralName": "Rock Clubs", "shortName": "Rock Club", "icon": {"prefix": "https://ss3.4sqi.net/img/categories_v2/arts_entertainment/musicvenue_rockclub_", "suffix": ".png"}, "primary": true}], "photos": {"count": 0, "groups": []}}, "referralId": "e-0-5186bc77498e0894a750d09a-0"}, {"reasons": {"count": 0, "items": [{"summary": "This spot is popular", "type": "general", "reasonName": "globalInteractionReason"}]}, "venue": {"id": "4be615e32457a593e37cac15", "name": "://about blank", "location": {"address": "Markgrafendamm 24c", "lat": 52.502449274009095, "lng": 13.466373682022093, "labeledLatLngs": [{"label": "display", "lat": 52.502449274009095, "lng": 13.466373682022093}], "distance": 89, "postalCode": "10245", "cc": "DE", "city": "Berlin", "state": "Berlin", "country": "Deutschland", "formattedAddress": ["Markgrafendamm 24c", "10245 Berlin", "Deutschland"]}, "categories": [{"id": "4bf58dd8d48988d11f941735", "name": "Nightclub", "pluralName": "Nightclubs", "shortName": "Nightclub", "icon": {"prefix": "https://ss3.4sqi.net/img/categories_v2/nightlife/nightclub_", "suffix": ".png"}, "primary": true}], "photos": {"count": 0, "groups": []}}, "referralId": "e-0-4be615e32457a593e37cac15-1"}, {"reasons": {"count": 0, "items": [{"summary": "This spot is popular", "type": "general", "reasonName": "globalInteractionReason"}]}, "venue": {"id": "4f012c8b6aa36310303f7e0c", "name": "Tiefgrund", "location": {"address": "Laskerstr. 5", "lat": 52.50164373708034, "lng": 13.46559484688102, "labeledLatLngs": [{"label": "display", "lat": 52.50164373708034, "lng": 13.46559484688102}], "distance": 101, "postalCode": "10245", "cc": "DE", "city": "Berlin", "state": "Berlin", "country": "Deutschland", "formattedAddress": ["Laskerstr. 5", "10245 Berlin", "Deutschland"]}, "categories": [{"id": "4bf58dd8d48988d1e9931735", "name": "Rock Club", "pluralName": "Rock Clubs", "shortName": "Rock Club", "icon": {"prefix": "https://ss3.4sqi.net/img/categories_v2/arts_entertainment/musicvenue_rockclub_", "suffix": ".png"}, "primary": true}], "photos": {"count": 0, "groups": []}}, "referralId": "e-0-4f012c8b6aa36310303f7e0c-2"}, {"reasons": {"count": 0, "items": [{"summary": "This spot is popular", "type": "general", "reasonName": "globalInteractionReason"}]}, "venue": {"id": "4f6ccc12e4b068929ee84ca3", "name": "Kino Zukunft", "location": {"address": "Laskerstr. 5", "crossStreet": "Markgrafendamm", "lat": 52.501642048740415, "lng": 13.465631640559, "labeledLatLngs": [{"label": "display", "lat": 52.501642048740415, "lng": 13.465631640559}], "distance": 102, "postalCode": "10245", "cc": "DE", "city": "Berlin", "state": "Berlin", "country": "Deutschland", "formattedAddress": ["Laskerstr. 5 (Markgrafendamm)", "10245 Berlin", "Deutschland"]}, "categories": [{"id": "4bf58dd8d48988d17e941735", "name": "Indie Movie Theater", "pluralName": "Indie Movie Theaters", "shortName": "Indie Movies", "icon": {"prefix": "https://ss3.4sqi.net/img/categories_v2/arts_entertainment/movietheater_", "suffix": ".png"}, "primary": true}], "photos": {"count": 0, "groups": []}}, "referralId": "e-0-4f6ccc12e4b068929ee84ca3-3"}, {"reasons": {"count": 0, "items": [{"summary": "This spot is popular", "type": "general", "reasonName": "globalInteractionReason"}]}, "venue": {"id": "52c19656498ea7ea807346e6", "name": "Milja & Sch\u00e4fa", "location": {"address": "Sonntagstr. 1", "lat": 52.50435936450862, "lng": 13.468234950298136, "labeledLatLngs": [{"label": "display", "lat": 52.50435936450862, "lng": 13.468234950298136}], "distance": 298, "postalCode": "10245", "cc": "DE", "neighborhood": "Boxhagener Kiez", "city": "Berlin", "state": "Berlin", "country": "Deutschland", "formattedAddress": ["Sonntagstr. 1", "10245 Berlin", "Deutschland"]}, "categories": [{"id": "4bf58dd8d48988d16d941735", "name": "Caf\u00e9", "pluralName": "Caf\u00e9s", "shortName": "Caf\u00e9", "icon": {"prefix": "https://ss3.4sqi.net/img/categories_v2/food/cafe_", "suffix": ".png"}, "primary": true}], "photos": {"count": 0, "groups": []}}, "referralId": "e-0-52c19656498ea7ea807346e6-4"}, {"reasons": {"count": 0, "items": [{"summary": "This spot is popular", "type": "general", "reasonName": "globalInteractionReason"}]}, "venue": {"id": "55d18315498e5383ce2dd605", "name": "Happy Baristas", "location": {"address": "Neue Bahnhofstr. 32", "lat": 52.50518051611517, "lng": 13.469368443384539, "labeledLatLngs": [{"label": "display", "lat": 52.50518051611517, "lng": 13.469368443384539}], "distance": 417, "postalCode": "10245", "cc": "DE", "city": "Berlin", "state": "Berlin", "country": "Deutschland", "formattedAddress": ["Neue Bahnhofstr. 32", "10245 Berlin", "Deutschland"]}, "categories": [{"id": "4bf58dd8d48988d1e0931735", "name": "Coffee Shop", "pluralName": "Coffee Shops", "shortName": "Coffee Shop", "icon": {"prefix": "https://ss3.4sqi.net/img/categories_v2/food/coffeeshop_", "suffix": ".png"}, "primary": true}], "photos": {"count": 0, "groups": []}}, "referralId": "e-0-55d18315498e5383ce2dd605-5"}, {"reasons": {"count": 0, "items": [{"summary": "This spot is popular", "type": "general", "reasonName": "globalInteractionReason"}]}, "venue": {"id": "5173a4f4e4b0205106e5e8a4", "name": "S-Bahn Spielplatz", "location": {"address": "Simplonstr.", "crossStreet": "Revaler Str.", "lat": 52.5049159517421, "lng": 13.464986417491177, "labeledLatLngs": [{"label": "display", "lat": 52.5049159517421, "lng": 13.464986417491177}], "distance": 269, "postalCode": "10245", "cc": "DE", "city": "Berlin", "state": "Berlin", "country": "Deutschland", "formattedAddress": ["Simplonstr. (Revaler Str.)", "10245 Berlin", "Deutschland"]}, "categories": [{"id": "4bf58dd8d48988d1e7941735", "name": "Playground", "pluralName": "Playgrounds", "shortName": "Playground", "icon": {"prefix": "https://ss3.4sqi.net/img/categories_v2/parks_outdoors/playground_", "suffix": ".png"}, "primary": true}], "photos": {"count": 0, "groups": []}}, "referralId": "e-0-5173a4f4e4b0205106e5e8a4-6"}, {"reasons": {"count": 0, "items": [{"summary": "This spot is popular", "type": "general", "reasonName": "globalInteractionReason"}]}, "venue": {"id": "4b087483f964a5203e0c23e3", "name": "Sieben", "location": {"address": "Sonntagstr. 7", "lat": 52.505250804835676, "lng": 13.466798898733312, "labeledLatLngs": [{"label": "display", "lat": 52.505250804835676, "lng": 13.466798898733312}], "distance": 328, "postalCode": "10245", "cc": "DE", "city": "Berlin", "state": "Berlin", "country": "Deutschland", "formattedAddress": ["Sonntagstr. 7", "10245 Berlin", "Deutschland"]}, "categories": [{"id": "4bf58dd8d48988d116941735", "name": "Bar", "pluralName": "Bars", "shortName": "Bar", "icon": {"prefix": "https://ss3.4sqi.net/img/categories_v2/nightlife/pub_", "suffix": ".png"}, "primary": true}], "photos": {"count": 0, "groups": []}}, "referralId": "e-0-4b087483f964a5203e0c23e3-7"}, {"reasons": {"count": 0, "items": [{"summary": "This spot is popular", "type": "general", "reasonName": "globalInteractionReason"}]}, "venue": {"id": "5658b402498e3b24303ea617", "name": "Stra\u00dfenbr\u00e4u", "location": {"address": "Neue Bahnhofstr. 30", "lat": 52.50549115953993, "lng": 13.469628604334194, "labeledLatLngs": [{"label": "display", "lat": 52.50549115953993, "lng": 13.469628604334194}], "distance": 455, "postalCode": "10245", "cc": "DE", "city": "Berlin", "state": "Berlin", "country": "Deutschland", "formattedAddress": ["Neue Bahnhofstr. 30", "10245 Berlin", "Deutschland"]}, "categories": [{"id": "50327c8591d4c4b30a586d5d", "name": "Brewery", "pluralName": "Breweries", "shortName": "Brewery", "icon": {"prefix": "https://ss3.4sqi.net/img/categories_v2/food/brewery_", "suffix": ".png"}, "primary": true}], "photos": {"count": 0, "groups": []}}, "referralId": "e-0-5658b402498e3b24303ea617-8"}, {"reasons": {"count": 0, "items": [{"summary": "This spot is popular", "type": "general", "reasonName": "globalInteractionReason"}]}, "venue": {"id": "4c43504eaf052d7f19368079", "name": "Eiscaf\u00e9 Royal", "location": {"address": "Lenbachstr. 9", "lat": 52.50510682303229, "lng": 13.466256622001671, "labeledLatLngs": [{"label": "display", "lat": 52.50510682303229, "lng": 13.466256622001671}], "distance": 301, "postalCode": "10245", "cc": "DE", "city": "Berlin", "state": "Berlin", "country": "Deutschland", "formattedAddress": ["Lenbachstr. 9", "10245 Berlin", "Deutschland"]}, "categories": [{"id": "4bf58dd8d48988d1c9941735", "name": "Ice Cream Shop", "pluralName": "Ice Cream Shops", "shortName": "Ice Cream", "icon": {"prefix": "https://ss3.4sqi.net/img/categories_v2/food/icecream_", "suffix": ".png"}, "primary": true}], "photos": {"count": 0, "groups": []}}, "referralId": "e-0-4c43504eaf052d7f19368079-9"}, {"reasons": {"count": 0, "items": [{"summary": "This spot is popular", "type": "general", "reasonName": "globalInteractionReason"}]}, "venue": {"id": "4e7b6304a8096e181d3f1c78", "name": "FSV Berolina Stralau 1901 e.V.", "location": {"address": "Persiusstr. 7b", "lat": 52.502161715889386, "lng": 13.462214648461666, "labeledLatLngs": [{"label": "display", "lat": 52.502161715889386, "lng": 13.462214648461666}], "distance": 196, "postalCode": "10245", "cc": "DE", "city": "Berlin", "state": "Berlin", "country": "Deutschland", "formattedAddress": ["Persiusstr. 7b", "10245 Berlin", "Deutschland"]}, "categories": [{"id": "4cce455aebf7b749d5e191f5", "name": "Soccer Field", "pluralName": "Soccer Fields", "shortName": "Soccer Field", "icon": {"prefix": "https://ss3.4sqi.net/img/categories_v2/arts_entertainment/stadium_soccer_", "suffix": ".png"}, "primary": true}], "photos": {"count": 0, "groups": []}}, "referralId": "e-0-4e7b6304a8096e181d3f1c78-10"}, {"reasons": {"count": 0, "items": [{"summary": "This spot is popular", "type": "general", "reasonName": "globalInteractionReason"}]}, "venue": {"id": "4af472d5f964a5208cf221e3", "name": "Transit", "location": {"address": "Sonntagstr. 28", "lat": 52.50601033970672, "lng": 13.465904438505325, "labeledLatLngs": [{"label": "display", "lat": 52.50601033970672, "lng": 13.465904438505325}], "distance": 395, "postalCode": "10245", "cc": "DE", "city": "Berlin", "state": "Berlin", "country": "Deutschland", "formattedAddress": ["Sonntagstr. 28", "10245 Berlin", "Deutschland"]}, "categories": [{"id": "4bf58dd8d48988d142941735", "name": "Asian Restaurant", "pluralName": "Asian Restaurants", "shortName": "Asian", "icon": {"prefix": "https://ss3.4sqi.net/img/categories_v2/food/asian_", "suffix": ".png"}, "primary": true}], "photos": {"count": 0, "groups": []}}, "referralId": "e-0-4af472d5f964a5208cf221e3-11"}, {"reasons": {"count": 0, "items": [{"summary": "This spot is popular", "type": "general", "reasonName": "globalInteractionReason"}]}, "venue": {"id": "55f401d9498e4d6d50d787b5", "name": "Brotkorb", "location": {"address": "Sonntagstr. 29", "lat": 52.5058701032922, "lng": 13.466131268194076, "labeledLatLngs": [{"label": "display", "lat": 52.5058701032922, "lng": 13.466131268194076}], "distance": 382, "postalCode": "10245", "cc": "DE", "city": "Berlin", "state": "Berlin", "country": "Deutschland", "formattedAddress": ["Sonntagstr. 29", "10245 Berlin", "Deutschland"]}, "categories": [{"id": "4bf58dd8d48988d16a941735", "name": "Bakery", "pluralName": "Bakeries", "shortName": "Bakery", "icon": {"prefix": "https://ss3.4sqi.net/img/categories_v2/food/bakery_", "suffix": ".png"}, "primary": true}], "photos": {"count": 0, "groups": []}}, "referralId": "e-0-55f401d9498e4d6d50d787b5-12"}, {"reasons": {"count": 0, "items": [{"summary": "This spot is popular", "type": "general", "reasonName": "globalInteractionReason"}]}, "venue": {"id": "59d34b36ee71206fbc14fc0c", "name": "KLEiNES SONNTAG", "location": {"address": "Sonntagstr. 29", "lat": 52.505858, "lng": 13.46611, "labeledLatLngs": [{"label": "display", "lat": 52.505858, "lng": 13.46611}], "distance": 380, "postalCode": "10245", "cc": "DE", "neighborhood": "Ostkreuz", "city": "Berlin", "state": "Berlin", "country": "Deutschland", "formattedAddress": ["Sonntagstr. 29", "10245 Berlin", "Deutschland"]}, "categories": [{"id": "4bf58dd8d48988d16d941735", "name": "Caf\u00e9", "pluralName": "Caf\u00e9s", "shortName": "Caf\u00e9", "icon": {"prefix": "https://ss3.4sqi.net/img/categories_v2/food/cafe_", "suffix": ".png"}, "primary": true}], "photos": {"count": 0, "groups": []}}, "referralId": "e-0-59d34b36ee71206fbc14fc0c-13"}, {"reasons": {"count": 0, "items": [{"summary": "This spot is popular", "type": "general", "reasonName": "globalInteractionReason"}]}, "venue": {"id": "4b6bfae6f964a520411e2ce3", "name": "Saf\u00e9 Espresso Bar Napoletano", "location": {"address": "Sonntagstr. 10", "crossStreet": "Lenbachstr.", "lat": 52.505785998278945, "lng": 13.466255765335612, "labeledLatLngs": [{"label": "display", "lat": 52.505785998278945, "lng": 13.466255765335612}], "distance": 375, "postalCode": "10245", "cc": "DE", "city": "Berlin", "state": "Berlin", "country": "Deutschland", "formattedAddress": ["Sonntagstr. 10 (Lenbachstr.)", "10245 Berlin", "Deutschland"]}, "categories": [{"id": "4bf58dd8d48988d16d941735", "name": "Caf\u00e9", "pluralName": "Caf\u00e9s", "shortName": "Caf\u00e9", "icon": {"prefix": "https://ss3.4sqi.net/img/categories_v2/food/cafe_", "suffix": ".png"}, "primary": true}], "photos": {"count": 0, "groups": []}}, "referralId": "e-0-4b6bfae6f964a520411e2ce3-14"}, {"reasons": {"count": 0, "items": [{"summary": "This spot is popular", "type": "general", "reasonName": "globalInteractionReason"}]}, "venue": {"id": "4c63f05d79d1e21e48bad915", "name": "Haroun", "location": {"address": "Neue Bahnhofstr. 28", "lat": 52.50570437597051, "lng": 13.469845834066824, "labeledLatLngs": [{"label": "display", "lat": 52.50570437597051, "lng": 13.469845834066824}], "distance": 482, "postalCode": "10245", "cc": "DE", "city": "Berlin", "state": "Berlin", "country": "Deutschland", "formattedAddress": ["Neue Bahnhofstr. 28", "10245 Berlin", "Deutschland"]}, "categories": [{"id": "4bf58dd8d48988d10b941735", "name": "Falafel Restaurant", "pluralName": "Falafel Restaurants", "shortName": "Falafel", "icon": {"prefix": "https://ss3.4sqi.net/img/categories_v2/food/falafel_", "suffix": ".png"}, "primary": true}], "photos": {"count": 0, "groups": []}}, "referralId": "e-0-4c63f05d79d1e21e48bad915-15"}, {"reasons": {"count": 0, "items": [{"summary": "This spot is popular", "type": "general", "reasonName": "globalInteractionReason"}]}, "venue": {"id": "576fe42ecd10ae8e5be7cb7f", "name": "Jugendherberge Berlin Ostkreuz", "location": {"address": "Marktstr. 9-12", "crossStreet": "Kynaststr.", "lat": 52.50417993843312, "lng": 13.4712553024292, "labeledLatLngs": [{"label": "display", "lat": 52.50417993843312, "lng": 13.4712553024292}], "distance": 459, "postalCode": "10317", "cc": "DE", "city": "Berlin", "state": "Berlin", "country": "Deutschland", "formattedAddress": ["Marktstr. 9-12 (Kynaststr.)", "10317 Berlin", "Deutschland"]}, "categories": [{"id": "4bf58dd8d48988d1ee931735", "name": "Hostel", "pluralName": "Hostels", "shortName": "Hostel", "icon": {"prefix": "https://ss3.4sqi.net/img/categories_v2/travel/hostel_", "suffix": ".png"}, "primary": true}], "photos": {"count": 0, "groups": []}}, "referralId": "e-0-576fe42ecd10ae8e5be7cb7f-16"}, {"reasons": {"count": 0, "items": [{"summary": "This spot is popular", "type": "general", "reasonName": "globalInteractionReason"}]}, "venue": {"id": "4e15bb118877cd5712105071", "name": "Rummels Bucht", "location": {"address": "Paul-und-Paula-Ufer", "lat": 52.5009515927605, "lng": 13.47269030720041, "labeledLatLngs": [{"label": "display", "lat": 52.5009515927605, "lng": 13.47269030720041}], "distance": 544, "postalCode": "10317", "cc": "DE", "city": "Berlin", "state": "Berlin", "country": "Deutschland", "formattedAddress": ["Paul-und-Paula-Ufer", "10317 Berlin", "Deutschland"]}, "categories": [{"id": "4bf58dd8d48988d117941735", "name": "Beer Garden", "pluralName": "Beer Gardens", "shortName": "Beer Garden", "icon": {"prefix": "https://ss3.4sqi.net/img/categories_v2/nightlife/beergarden_", "suffix": ".png"}, "primary": true}], "photos": {"count": 0, "groups": []}}, "referralId": "e-0-4e15bb118877cd5712105071-17"}, {"reasons": {"count": 0, "items": [{"summary": "This spot is popular", "type": "general", "reasonName": "globalInteractionReason"}]}, "venue": {"id": "5a48f1af12f0a96247b485f4", "name": "Sora", "location": {"address": "Sonntagstra\u00dfe 26", "crossStreet": "Holteistra\u00dfe", "lat": 52.50629866046837, "lng": 13.465586201536007, "labeledLatLngs": [{"label": "display", "lat": 52.50629866046837, "lng": 13.465586201536007}], "distance": 424, "postalCode": "10245", "cc": "DE", "city": "Berlin", "state": "Berlin", "country": "Deutschland", "formattedAddress": ["Sonntagstra\u00dfe 26 (Holteistra\u00dfe)", "10245 Berlin", "Deutschland"]}, "categories": [{"id": "4bf58dd8d48988d14a941735", "name": "Vietnamese Restaurant", "pluralName": "Vietnamese Restaurants", "shortName": "Vietnamese", "icon": {"prefix": "https://ss3.4sqi.net/img/categories_v2/food/vietnamese_", "suffix": ".png"}, "primary": true}], "photos": {"count": 0, "groups": []}}, "referralId": "e-0-5a48f1af12f0a96247b485f4-18"}, {"reasons": {"count": 0, "items": [{"summary": "This spot is popular", "type": "general", "reasonName": "globalInteractionReason"}]}, "venue": {"id": "4e203ed01838712abe6433c4", "name": "Herr Nilsson GODIS", "location": {"address": "W\u00fchlischstr. 58", "crossStreet": "Boxhagener Str.", "lat": 52.5071707417581, "lng": 13.468138822449873, "labeledLatLngs": [{"label": "display", "lat": 52.5071707417581, "lng": 13.468138822449873}], "distance": 560, "postalCode": "10245", "cc": "DE", "city": "Berlin", "state": "Berlin", "country": "Deutschland", "formattedAddress": ["W\u00fchlischstr. 58 (Boxhagener Str.)", "10245 Berlin", "Deutschland"]}, "categories": [{"id": "4bf58dd8d48988d117951735", "name": "Candy Store", "pluralName": "Candy Stores", "shortName": "Candy Store", "icon": {"prefix": "https://ss3.4sqi.net/img/categories_v2/shops/candystore_", "suffix": ".png"}, "primary": true}], "photos": {"count": 0, "groups": []}}, "referralId": "e-0-4e203ed01838712abe6433c4-19"}, {"reasons": {"count": 0, "items": [{"summary": "This spot is popular", "type": "general", "reasonName": "globalInteractionReason"}]}, "venue": {"id": "58a09d9916f000694e186d91", "name": "Noori", "location": {"address": "Neue Bahnhofstr. 7A", "lat": 52.5058489591172, "lng": 13.470035184718562, "labeledLatLngs": [{"label": "display", "lat": 52.5058489591172, "lng": 13.470035184718562}], "distance": 502, "postalCode": "10245", "cc": "DE", "city": "Berlin", "state": "Berlin", "country": "Deutschland", "formattedAddress": ["Neue Bahnhofstr. 7A", "10245 Berlin", "Deutschland"]}, "categories": [{"id": "4bf58dd8d48988d14a941735", "name": "Vietnamese Restaurant", "pluralName": "Vietnamese Restaurants", "shortName": "Vietnamese", "icon": {"prefix": "https://ss3.4sqi.net/img/categories_v2/food/vietnamese_", "suffix": ".png"}, "primary": true}], "photos": {"count": 0, "groups": []}}, "referralId": "e-0-58a09d9916f000694e186d91-20"}, {"reasons": {"count": 0, "items": [{"summary": "This spot is popular", "type": "general", "reasonName": "globalInteractionReason"}]}, "venue": {"id": "55fc8c2a498ef74c223f6c24", "name": "Krass B\u00f6ser Wolf", "location": {"address": "Markgrafendamm 36", "lat": 52.49749365989495, "lng": 13.464763960634274, "labeledLatLngs": [{"label": "display", "lat": 52.49749365989495, "lng": 13.464763960634274}], "distance": 557, "cc": "DE", "city": "Berlin", "state": "Berlin", "country": "Deutschland", "formattedAddress": ["Markgrafendamm 36", "Berlin", "Deutschland"]}, "categories": [{"id": "4bf58dd8d48988d116941735", "name": "Bar", "pluralName": "Bars", "shortName": "Bar", "icon": {"prefix": "https://ss3.4sqi.net/img/categories_v2/nightlife/pub_", "suffix": ".png"}, "primary": true}], "photos": {"count": 0, "groups": []}}, "referralId": "e-0-55fc8c2a498ef74c223f6c24-21"}, {"reasons": {"count": 0, "items": [{"summary": "This spot is popular", "type": "general", "reasonName": "globalInteractionReason"}]}, "venue": {"id": "4b4f7f91f964a520ff0827e3", "name": "Salon zur wilden Renate", "location": {"address": "Alt-Stralau 70", "crossStreet": "Markgrafendamm", "lat": 52.4973613791362, "lng": 13.46525251865387, "labeledLatLngs": [{"label": "display", "lat": 52.4973613791362, "lng": 13.46525251865387}], "distance": 571, "postalCode": "10245", "cc": "DE", "neighborhood": "Stralauer Allee", "city": "Berlin", "state": "Berlin", "country": "Deutschland", "formattedAddress": ["Alt-Stralau 70 (Markgrafendamm)", "10245 Berlin", "Deutschland"]}, "categories": [{"id": "4bf58dd8d48988d11f941735", "name": "Nightclub", "pluralName": "Nightclubs", "shortName": "Nightclub", "icon": {"prefix": "https://ss3.4sqi.net/img/categories_v2/nightlife/nightclub_", "suffix": ".png"}, "primary": true}], "photos": {"count": 0, "groups": []}}, "referralId": "e-0-4b4f7f91f964a520ff0827e3-22"}, {"reasons": {"count": 0, "items": [{"summary": "This spot is popular", "type": "general", "reasonName": "globalInteractionReason"}]}, "venue": {"id": "4ebbbfabdab41f33bed52fb8", "name": "Fischschuppen", "location": {"address": "Boxhagener Str. 68", "lat": 52.506346927648345, "lng": 13.470022291135692, "labeledLatLngs": [{"label": "display", "lat": 52.506346927648345, "lng": 13.470022291135692}], "distance": 544, "postalCode": "10245", "cc": "DE", "city": "Berlin", "state": "Berlin", "country": "Deutschland", "formattedAddress": ["Boxhagener Str. 68", "10245 Berlin", "Deutschland"]}, "categories": [{"id": "4edd64a0c7ddd24ca188df1a", "name": "Fish & Chips Shop", "pluralName": "Fish & Chips Shops", "shortName": "Fish & Chips", "icon": {"prefix": "https://ss3.4sqi.net/img/categories_v2/food/fishandchips_", "suffix": ".png"}, "primary": true}], "photos": {"count": 0, "groups": []}}, "referralId": "e-0-4ebbbfabdab41f33bed52fb8-23"}, {"reasons": {"count": 0, "items": [{"summary": "This spot is popular", "type": "general", "reasonName": "globalInteractionReason"}]}, "venue": {"id": "5842f39c735a4d7fc8a2bdc5", "name": "BBB", "location": {"address": "Sonntagstr. 1", "lat": 52.50454026162319, "lng": 13.467862299117092, "labeledLatLngs": [{"label": "display", "lat": 52.50454026162319, "lng": 13.467862299117092}], "distance": 296, "postalCode": "10245", "cc": "DE", "neighborhood": "Friedrichshain, Berlin", "city": "Berlin", "state": "Berlin", "country": "Deutschland", "formattedAddress": ["Sonntagstr. 1", "10245 Berlin", "Deutschland"]}, "categories": [{"id": "4bf58dd8d48988d16c941735", "name": "Burger Joint", "pluralName": "Burger Joints", "shortName": "Burgers", "icon": {"prefix": "https://ss3.4sqi.net/img/categories_v2/food/burger_", "suffix": ".png"}, "primary": true}], "photos": {"count": 0, "groups": []}}, "referralId": "e-0-5842f39c735a4d7fc8a2bdc5-24"}, {"reasons": {"count": 0, "items": [{"summary": "This spot is popular", "type": "general", "reasonName": "globalInteractionReason"}]}, "venue": {"id": "4aee1c1bf964a5202ad221e3", "name": "Tres Cabezas Berlin Coffee Roasters", "location": {"address": "Boxhagener Str. 74", "crossStreet": "Sonntagstr.", "lat": 52.5070816698365, "lng": 13.468454292366733, "labeledLatLngs": [{"label": "display", "lat": 52.5070816698365, "lng": 13.468454292366733}], "distance": 559, "postalCode": "10245", "cc": "DE", "neighborhood": "Boxhagener Kiez", "city": "Berlin", "state": "Berlin", "country": "Deutschland", "formattedAddress": ["Boxhagener Str. 74 (Sonntagstr.)", "10245 Berlin", "Deutschland"]}, "categories": [{"id": "4bf58dd8d48988d1e0931735", "name": "Coffee Shop", "pluralName": "Coffee Shops", "shortName": "Coffee Shop", "icon": {"prefix": "https://ss3.4sqi.net/img/categories_v2/food/coffeeshop_", "suffix": ".png"}, "primary": true}], "photos": {"count": 0, "groups": []}, "venuePage": {"id": "78464753"}}, "referralId": "e-0-4aee1c1bf964a5202ad221e3-25"}, {"reasons": {"count": 0, "items": [{"summary": "This spot is popular", "type": "general", "reasonName": "globalInteractionReason"}]}, "venue": {"id": "4d83b258e83fa14397ea52a1", "name": "RuDi Nachbarschaftshaus", "location": {"address": "Modersohnstr.55", "lat": 52.502439281647334, "lng": 13.456919122681438, "labeledLatLngs": [{"label": "display", "lat": 52.502439281647334, "lng": 13.456919122681438}], "distance": 551, "postalCode": "10245", "cc": "DE", "city": "Berlin", "state": "Berlin", "country": "Deutschland", "formattedAddress": ["Modersohnstr.55", "10245 Berlin", "Deutschland"]}, "categories": [{"id": "52e81612bcbc57f1066b7a34", "name": "Community Center", "pluralName": "Community Centers", "shortName": "Community Center", "icon": {"prefix": "https://ss3.4sqi.net/img/categories_v2/building/default_", "suffix": ".png"}, "primary": true}], "photos": {"count": 0, "groups": []}}, "referralId": "e-0-4d83b258e83fa14397ea52a1-26"}, {"reasons": {"count": 0, "items": [{"summary": "This spot is popular", "type": "general", "reasonName": "globalInteractionReason"}]}, "venue": {"id": "4ba3d817f964a520be6538e3", "name": "Tussy Lounge", "location": {"address": "Sonntagstr. 22", "lat": 52.50694823689296, "lng": 13.464797812719276, "labeledLatLngs": [{"label": "display", "lat": 52.50694823689296, "lng": 13.464797812719276}], "distance": 495, "postalCode": "10245", "cc": "DE", "city": "Berlin", "state": "Berlin", "country": "Deutschland", "formattedAddress": ["Sonntagstr. 22", "10245 Berlin", "Deutschland"]}, "categories": [{"id": "4bf58dd8d48988d110951735", "name": "Salon / Barbershop", "pluralName": "Salons / Barbershops", "shortName": "Salon / Barbershop", "icon": {"prefix": "https://ss3.4sqi.net/img/categories_v2/shops/salon_barber_", "suffix": ".png"}, "primary": true}], "photos": {"count": 0, "groups": []}}, "referralId": "e-0-4ba3d817f964a520be6538e3-27"}, {"reasons": {"count": 0, "items": [{"summary": "This spot is popular", "type": "general", "reasonName": "globalInteractionReason"}]}, "venue": {"id": "576c1166498e41306e3397c0", "name": "Harapeco Japanese Kitchen - Okonomiyaki", "location": {"address": "Neue Bahnhofstr. 3", "lat": 52.50514759100179, "lng": 13.469369650988098, "labeledLatLngs": [{"label": "display", "lat": 52.50514759100179, "lng": 13.469369650988098}], "distance": 415, "postalCode": "10245", "cc": "DE", "neighborhood": "Ostkreuz-Kiez", "city": "Berlin", "state": "Berlin", "country": "Deutschland", "formattedAddress": ["Neue Bahnhofstr. 3", "10245 Berlin", "Deutschland"]}, "categories": [{"id": "4bf58dd8d48988d111941735", "name": "Japanese Restaurant", "pluralName": "Japanese Restaurants", "shortName": "Japanese", "icon": {"prefix": "https://ss3.4sqi.net/img/categories_v2/food/japanese_", "suffix": ".png"}, "primary": true}], "photos": {"count": 0, "groups": []}}, "referralId": "e-0-576c1166498e41306e3397c0-28"}, {"reasons": {"count": 0, "items": [{"summary": "This spot is popular", "type": "general", "reasonName": "globalInteractionReason"}]}, "venue": {"id": "5d3c0a4a8a98fe00081502c1", "name": "Tucker Brunch Bar", "location": {"address": "W\u00fchlischstr. 1", "crossStreet": "Boxhagener Str.", "lat": 52.507282, "lng": 13.46754, "labeledLatLngs": [{"label": "display", "lat": 52.507282, "lng": 13.46754}], "distance": 558, "postalCode": "10245", "cc": "DE", "neighborhood": "Boxhagener Kiez", "city": "Berlin", "state": "Berlin", "country": "Deutschland", "formattedAddress": ["W\u00fchlischstr. 1 (Boxhagener Str.)", "10245 Berlin", "Deutschland"]}, "categories": [{"id": "4bf58dd8d48988d143941735", "name": "Breakfast Spot", "pluralName": "Breakfast Spots", "shortName": "Breakfast", "icon": {"prefix": "https://ss3.4sqi.net/img/categories_v2/food/breakfast_", "suffix": ".png"}, "primary": true}], "photos": {"count": 0, "groups": []}}, "referralId": "e-0-5d3c0a4a8a98fe00081502c1-29"}, {"reasons": {"count": 0, "items": [{"summary": "This spot is popular", "type": "general", "reasonName": "globalInteractionReason"}]}, "venue": {"id": "5a87252bdd84423bade9f174", "name": "Avocado Club", "location": {"address": "Holteistr. 13", "lat": 52.508155, "lng": 13.466101, "labeledLatLngs": [{"label": "display", "lat": 52.508155, "lng": 13.466101}], "distance": 633, "postalCode": "10245", "cc": "DE", "neighborhood": "Boxhagener Kiez", "city": "Berlin", "state": "Berlin", "country": "Deutschland", "formattedAddress": ["Holteistr. 13", "10245 Berlin", "Deutschland"]}, "categories": [{"id": "52e81612bcbc57f1066b79f1", "name": "Bistro", "pluralName": "Bistros", "shortName": "Bistro", "icon": {"prefix": "https://ss3.4sqi.net/img/categories_v2/food/default_", "suffix": ".png"}, "primary": true}], "photos": {"count": 0, "groups": []}}, "referralId": "e-0-5a87252bdd84423bade9f174-30"}, {"reasons": {"count": 0, "items": [{"summary": "This spot is popular", "type": "general", "reasonName": "globalInteractionReason"}]}, "venue": {"id": "4d9c9772c99fb60c2ea0b48b", "name": "Autocenter Koch", "location": {"address": "Persiusstr. 7", "lat": 52.50107816666916, "lng": 13.462735831417145, "labeledLatLngs": [{"label": "display", "lat": 52.50107816666916, "lng": 13.462735831417145}], "distance": 222, "postalCode": "10245", "cc": "DE", "city": "Berlin", "state": "Berlin", "country": "Deutschland", "formattedAddress": ["Persiusstr. 7", "10245 Berlin", "Deutschland"]}, "categories": [{"id": "4eb1c1623b7b52c0e1adc2ec", "name": "Auto Dealership", "pluralName": "Auto Dealerships", "shortName": "Auto Dealer", "icon": {"prefix": "https://ss3.4sqi.net/img/categories_v2/shops/automotive_", "suffix": ".png"}, "primary": true}], "photos": {"count": 0, "groups": []}}, "referralId": "e-0-4d9c9772c99fb60c2ea0b48b-31"}, {"reasons": {"count": 0, "items": [{"summary": "This spot is popular", "type": "general", "reasonName": "globalInteractionReason"}]}, "venue": {"id": "5290ffe111d28b1ee5961e29", "name": "Masteca e Tasi", "location": {"address": "Neue Bahnhofstr. 22", "lat": 52.50707219443736, "lng": 13.471151713342659, "labeledLatLngs": [{"label": "display", "lat": 52.50707219443736, "lng": 13.471151713342659}], "distance": 655, "postalCode": "10245", "cc": "DE", "city": "Berlin", "state": "Berlin", "country": "Deutschland", "formattedAddress": ["Neue Bahnhofstr. 22", "10245 Berlin", "Deutschland"]}, "categories": [{"id": "4bf58dd8d48988d110941735", "name": "Italian Restaurant", "pluralName": "Italian Restaurants", "shortName": "Italian", "icon": {"prefix": "https://ss3.4sqi.net/img/categories_v2/food/italian_", "suffix": ".png"}, "primary": true}], "photos": {"count": 0, "groups": []}}, "referralId": "e-0-5290ffe111d28b1ee5961e29-32"}, {"reasons": {"count": 0, "items": [{"summary": "This spot is popular", "type": "general", "reasonName": "globalInteractionReason"}]}, "venue": {"id": "4b478ff1f964a5209f3526e3", "name": "Matreshka", "location": {"address": "Boxhagener Str. 60", "lat": 52.50643994492813, "lng": 13.46972079521294, "labeledLatLngs": [{"label": "display", "lat": 52.50643994492813, "lng": 13.46972079521294}], "distance": 540, "postalCode": "10245", "cc": "DE", "city": "Berlin", "state": "Berlin", "country": "Deutschland", "formattedAddress": ["Boxhagener Str. 60", "10245 Berlin", "Deutschland"]}, "categories": [{"id": "5293a7563cf9994f4e043a44", "name": "Russian Restaurant", "pluralName": "Russian Restaurants", "shortName": "Russian", "icon": {"prefix": "https://ss3.4sqi.net/img/categories_v2/food/russian_", "suffix": ".png"}, "primary": true}], "photos": {"count": 0, "groups": []}}, "referralId": "e-0-4b478ff1f964a5209f3526e3-33"}, {"reasons": {"count": 0, "items": [{"summary": "This spot is popular", "type": "general", "reasonName": "globalInteractionReason"}]}, "venue": {"id": "5b35192597cf5a002cb8ec53", "name": "Khao Taan", "location": {"address": "Gryphiusstr. 10", "lat": 52.50865322700971, "lng": 13.463793396949768, "labeledLatLngs": [{"label": "display", "lat": 52.50865322700971, "lng": 13.463793396949768}], "distance": 690, "postalCode": "10245", "cc": "DE", "city": "Berlin", "state": "Berlin", "country": "Deutschland", "formattedAddress": ["Gryphiusstr. 10", "10245 Berlin", "Deutschland"]}, "categories": [{"id": "4bf58dd8d48988d149941735", "name": "Thai Restaurant", "pluralName": "Thai Restaurants", "shortName": "Thai", "icon": {"prefix": "https://ss3.4sqi.net/img/categories_v2/food/thai_", "suffix": ".png"}, "primary": true}], "photos": {"count": 0, "groups": []}, "venuePage": {"id": "532339540"}}, "referralId": "e-0-5b35192597cf5a002cb8ec53-34"}, {"reasons": {"count": 0, "items": [{"summary": "This spot is popular", "type": "general", "reasonName": "globalInteractionReason"}]}, "venue": {"id": "5d20c87f7950f7002339efab", "name": "Teehaus Dosha", "location": {"address": "Boxhagener Str. 65", "lat": 52.505907, "lng": 13.470905, "labeledLatLngs": [{"label": "display", "lat": 52.505907, "lng": 13.470905}], "distance": 548, "postalCode": "10245", "cc": "DE", "city": "Berlin", "state": "Berlin", "country": "Deutschland", "formattedAddress": ["Boxhagener Str. 65", "10245 Berlin", "Deutschland"]}, "categories": [{"id": "4bf58dd8d48988d1dc931735", "name": "Tea Room", "pluralName": "Tea Rooms", "shortName": "Tea Room", "icon": {"prefix": "https://ss3.4sqi.net/img/categories_v2/food/tearoom_", "suffix": ".png"}, "primary": true}], "photos": {"count": 0, "groups": []}}, "referralId": "e-0-5d20c87f7950f7002339efab-35"}, {"reasons": {"count": 0, "items": [{"summary": "This spot is popular", "type": "general", "reasonName": "globalInteractionReason"}]}, "venue": {"id": "573f0b16498e8dc19254b7f8", "name": "Lemon Feinkost & Cafe", "location": {"address": "W\u00fchlischstr. 17", "lat": 52.50866, "lng": 13.461892, "labeledLatLngs": [{"label": "display", "lat": 52.50866, "lng": 13.461892}], "distance": 718, "postalCode": "10245", "cc": "DE", "neighborhood": "Boxhagener Kiez", "city": "Berlin", "state": "Berlin", "country": "Deutschland", "formattedAddress": ["W\u00fchlischstr. 17", "10245 Berlin", "Deutschland"]}, "categories": [{"id": "4bf58dd8d48988d146941735", "name": "Deli / Bodega", "pluralName": "Delis / Bodegas", "shortName": "Deli / Bodega", "icon": {"prefix": "https://ss3.4sqi.net/img/categories_v2/food/deli_", "suffix": ".png"}, "primary": true}], "photos": {"count": 0, "groups": []}}, "referralId": "e-0-573f0b16498e8dc19254b7f8-36"}, {"reasons": {"count": 0, "items": [{"summary": "This spot is popular", "type": "general", "reasonName": "globalInteractionReason"}]}, "venue": {"id": "51f1091b498ebbce7f710aaf", "name": "Glory Duck", "location": {"address": "Sonntagstr. 31", "lat": 52.505529, "lng": 13.466249, "labeledLatLngs": [{"label": "display", "lat": 52.505529, "lng": 13.466249}], "distance": 347, "postalCode": "10245", "cc": "DE", "city": "Berlin", "state": "Berlin", "country": "Deutschland", "formattedAddress": ["Sonntagstr. 31", "10245 Berlin", "Deutschland"]}, "categories": [{"id": "4bf58dd8d48988d14a941735", "name": "Vietnamese Restaurant", "pluralName": "Vietnamese Restaurants", "shortName": "Vietnamese", "icon": {"prefix": "https://ss3.4sqi.net/img/categories_v2/food/vietnamese_", "suffix": ".png"}, "primary": true}], "photos": {"count": 0, "groups": []}}, "referralId": "e-0-51f1091b498ebbce7f710aaf-37"}, {"reasons": {"count": 0, "items": [{"summary": "This spot is popular", "type": "general", "reasonName": "globalInteractionReason"}]}, "venue": {"id": "54e64f43498ec4fb5fbc507e", "name": "Eismanufaktur", "location": {"address": "G\u00e4rtnerstr. 33a", "crossStreet": "Simplonstr.", "lat": 52.50827141173373, "lng": 13.459540769577886, "labeledLatLngs": [{"label": "display", "lat": 52.50827141173373, "lng": 13.459540769577886}], "distance": 743, "postalCode": "10245", "cc": "DE", "neighborhood": "Boxhagener Kiez", "city": "Berlin", "state": "Berlin", "country": "Deutschland", "formattedAddress": ["G\u00e4rtnerstr. 33a (Simplonstr.)", "10245 Berlin", "Deutschland"]}, "categories": [{"id": "4bf58dd8d48988d1c9941735", "name": "Ice Cream Shop", "pluralName": "Ice Cream Shops", "shortName": "Ice Cream", "icon": {"prefix": "https://ss3.4sqi.net/img/categories_v2/food/icecream_", "suffix": ".png"}, "primary": true}], "photos": {"count": 0, "groups": []}}, "referralId": "e-0-54e64f43498ec4fb5fbc507e-38"}, {"reasons": {"count": 0, "items": [{"summary": "This spot is popular", "type": "general", "reasonName": "globalInteractionReason"}]}, "venue": {"id": "4b106a0ef964a520e86f23e3", "name": "Geronimo Bar", "location": {"address": "Sonntagstra\u00dfe 9", "lat": 52.505638411210825, "lng": 13.466424187870848, "labeledLatLngs": [{"label": "display", "lat": 52.505638411210825, "lng": 13.466424187870848}], "distance": 361, "cc": "DE", "city": "Berlin", "state": "Berlin", "country": "Deutschland", "formattedAddress": ["Sonntagstra\u00dfe 9", "Berlin", "Deutschland"]}, "categories": [{"id": "4bf58dd8d48988d116941735", "name": "Bar", "pluralName": "Bars", "shortName": "Bar", "icon": {"prefix": "https://ss3.4sqi.net/img/categories_v2/nightlife/pub_", "suffix": ".png"}, "primary": true}], "photos": {"count": 0, "groups": []}}, "referralId": "e-0-4b106a0ef964a520e86f23e3-39"}, {"reasons": {"count": 0, "items": [{"summary": "This spot is popular", "type": "general", "reasonName": "globalInteractionReason"}]}, "venue": {"id": "5596e24a498e8f669cf2ac61", "name": "HOME", "location": {"address": "Neue Bahnhofstra\u00dfe 23", "lat": 52.50701006622543, "lng": 13.47106498636734, "labeledLatLngs": [{"label": "display", "lat": 52.50701006622543, "lng": 13.47106498636734}], "distance": 646, "postalCode": "10245", "cc": "DE", "city": "Berlin", "state": "Berlin", "country": "Deutschland", "formattedAddress": ["Neue Bahnhofstra\u00dfe 23", "10245 Berlin", "Deutschland"]}, "categories": [{"id": "4bf58dd8d48988d116941735", "name": "Bar", "pluralName": "Bars", "shortName": "Bar", "icon": {"prefix": "https://ss3.4sqi.net/img/categories_v2/nightlife/pub_", "suffix": ".png"}, "primary": true}], "photos": {"count": 0, "groups": []}}, "referralId": "e-0-5596e24a498e8f669cf2ac61-40"}, {"reasons": {"count": 0, "items": [{"summary": "This spot is popular", "type": "general", "reasonName": "globalInteractionReason"}]}, "venue": {"id": "4b51bcfef964a520f75327e3", "name": "Zigarren Herzog am Hafen", "location": {"address": "Stralauer Allee 9", "lat": 52.49893447594499, "lng": 13.457516113613659, "labeledLatLngs": [{"label": "display", "lat": 52.49893447594499, "lng": 13.457516113613659}], "distance": 646, "postalCode": "10245", "cc": "DE", "city": "Berlin", "state": "Berlin", "country": "Deutschland", "formattedAddress": ["Stralauer Allee 9", "10245 Berlin", "Deutschland"]}, "categories": [{"id": "4bf58dd8d48988d123951735", "name": "Smoke Shop", "pluralName": "Smoke Shops", "shortName": "Smoke Shop", "icon": {"prefix": "https://ss3.4sqi.net/img/categories_v2/shops/tobacco_", "suffix": ".png"}, "primary": true}], "photos": {"count": 0, "groups": []}}, "referralId": "e-0-4b51bcfef964a520f75327e3-41"}, {"reasons": {"count": 0, "items": [{"summary": "This spot is popular", "type": "general", "reasonName": "globalInteractionReason"}]}, "venue": {"id": "4b24bb05f964a5209c6924e3", "name": "Holmes Place Ostkreuz", "location": {"address": "Hirschberger Str. 3", "lat": 52.50470726345118, "lng": 13.4733540594881, "labeledLatLngs": [{"label": "display", "lat": 52.50470726345118, "lng": 13.4733540594881}], "distance": 613, "postalCode": "10317", "cc": "DE", "city": "Berlin", "state": "Berlin", "country": "Deutschland", "formattedAddress": ["Hirschberger Str. 3", "10317 Berlin", "Deutschland"]}, "categories": [{"id": "4bf58dd8d48988d175941735", "name": "Gym / Fitness Center", "pluralName": "Gyms or Fitness Centers", "shortName": "Gym / Fitness", "icon": {"prefix": "https://ss3.4sqi.net/img/categories_v2/building/gym_", "suffix": ".png"}, "primary": true}], "photos": {"count": 0, "groups": []}}, "referralId": "e-0-4b24bb05f964a5209c6924e3-42"}, {"reasons": {"count": 0, "items": [{"summary": "This spot is popular", "type": "general", "reasonName": "globalInteractionReason"}]}, "venue": {"id": "589a5cedca10703bdaf992fc", "name": "Sandunga Mezcaleria", "location": {"address": "Boxhagener Str. 50", "lat": 52.508263, "lng": 13.46639, "labeledLatLngs": [{"label": "display", "lat": 52.508263, "lng": 13.46639}], "distance": 648, "postalCode": "10245", "cc": "DE", "neighborhood": "Boxhagener Kiez", "city": "Berlin", "state": "Berlin", "country": "Deutschland", "formattedAddress": ["Boxhagener Str. 50", "10245 Berlin", "Deutschland"]}, "categories": [{"id": "4bf58dd8d48988d1c1941735", "name": "Mexican Restaurant", "pluralName": "Mexican Restaurants", "shortName": "Mexican", "icon": {"prefix": "https://ss3.4sqi.net/img/categories_v2/food/mexican_", "suffix": ".png"}, "primary": true}], "photos": {"count": 0, "groups": []}}, "referralId": "e-0-589a5cedca10703bdaf992fc-43"}, {"reasons": {"count": 0, "items": [{"summary": "This spot is popular", "type": "general", "reasonName": "globalInteractionReason"}]}, "venue": {"id": "4f240c27e4b0617643deab61", "name": "Marafina", "location": {"address": "W\u00fchlischstrasse", "lat": 52.50857279570415, "lng": 13.461828111189826, "labeledLatLngs": [{"label": "display", "lat": 52.50857279570415, "lng": 13.461828111189826}], "distance": 711, "cc": "DE", "city": "Berlin", "state": "Berlin", "country": "Deutschland", "formattedAddress": ["W\u00fchlischstrasse", "Berlin", "Deutschland"]}, "categories": [{"id": "4bf58dd8d48988d10b941735", "name": "Falafel Restaurant", "pluralName": "Falafel Restaurants", "shortName": "Falafel", "icon": {"prefix": "https://ss3.4sqi.net/img/categories_v2/food/falafel_", "suffix": ".png"}, "primary": true}], "photos": {"count": 0, "groups": []}}, "referralId": "e-0-4f240c27e4b0617643deab61-44"}, {"reasons": {"count": 0, "items": [{"summary": "This spot is popular", "type": "general", "reasonName": "globalInteractionReason"}]}, "venue": {"id": "5351736f498e05a3cae0b7ba", "name": "Cento Passi", "location": {"address": "Krossener Str. 36", "crossStreet": "Boxhagener Str.", "lat": 52.50956214456776, "lng": 13.46504752608141, "labeledLatLngs": [{"label": "display", "lat": 52.50956214456776, "lng": 13.46504752608141}], "distance": 786, "cc": "DE", "city": "Berlin", "state": "Berlin", "country": "Deutschland", "formattedAddress": ["Krossener Str. 36 (Boxhagener Str.)", "Berlin", "Deutschland"]}, "categories": [{"id": "4bf58dd8d48988d123941735", "name": "Wine Bar", "pluralName": "Wine Bars", "shortName": "Wine Bar", "icon": {"prefix": "https://ss3.4sqi.net/img/categories_v2/food/winery_", "suffix": ".png"}, "primary": true}], "photos": {"count": 0, "groups": []}}, "referralId": "e-0-5351736f498e05a3cae0b7ba-45"}, {"reasons": {"count": 0, "items": [{"summary": "This spot is popular", "type": "general", "reasonName": "globalInteractionReason"}]}, "venue": {"id": "4de66a94d22d7fddb9d68d31", "name": "Auszeit", "location": {"address": "Neue Bahnhof 32", "lat": 52.50509395219113, "lng": 13.469278936630193, "labeledLatLngs": [{"label": "display", "lat": 52.50509395219113, "lng": 13.469278936630193}], "distance": 406, "postalCode": "10245", "cc": "DE", "city": "Berlin", "state": "Berlin", "country": "Deutschland", "formattedAddress": ["Neue Bahnhof 32", "10245 Berlin", "Deutschland"]}, "categories": [{"id": "4bf58dd8d48988d1c0941735", "name": "Mediterranean Restaurant", "pluralName": "Mediterranean Restaurants", "shortName": "Mediterranean", "icon": {"prefix": "https://ss3.4sqi.net/img/categories_v2/food/mediterranean_", "suffix": ".png"}, "primary": true}], "photos": {"count": 0, "groups": []}}, "referralId": "e-0-4de66a94d22d7fddb9d68d31-46"}, {"reasons": {"count": 0, "items": [{"summary": "This spot is popular", "type": "general", "reasonName": "globalInteractionReason"}]}, "venue": {"id": "4b17fd8ff964a520faca23e3", "name": "Squash 2000 - Paramount Fitness", "location": {"address": "Persiusstr. 9", "lat": 52.50107389304094, "lng": 13.46118926051784, "labeledLatLngs": [{"label": "display", "lat": 52.50107389304094, "lng": 13.46118926051784}], "distance": 306, "postalCode": "10245", "cc": "DE", "city": "Berlin", "state": "Berlin", "country": "Deutschland", "formattedAddress": ["Persiusstr. 9", "10245 Berlin", "Deutschland"]}, "categories": [{"id": "52e81612bcbc57f1066b7a2d", "name": "Squash Court", "pluralName": "Squash Courts", "shortName": "Squash Court", "icon": {"prefix": "https://ss3.4sqi.net/img/categories_v2/arts_entertainment/stadium_tennis_", "suffix": ".png"}, "primary": true}], "photos": {"count": 0, "groups": []}}, "referralId": "e-0-4b17fd8ff964a520faca23e3-47"}, {"reasons": {"count": 0, "items": [{"summary": "This spot is popular", "type": "general", "reasonName": "globalInteractionReason"}]}, "venue": {"id": "583881398ab03f19affcc03c", "name": "k\u00e4rrecho", "location": {"address": "Neue Bahnhofstr. 25", "lat": 52.5067660052729, "lng": 13.470634245602737, "labeledLatLngs": [{"label": "display", "lat": 52.5067660052729, "lng": 13.470634245602737}], "distance": 607, "postalCode": "10245", "cc": "DE", "city": "Berlin", "state": "Berlin", "country": "Deutschland", "formattedAddress": ["Neue Bahnhofstr. 25", "10245 Berlin", "Deutschland"]}, "categories": [{"id": "56aa371be4b08b9a8d573558", "name": "Venezuelan Restaurant", "pluralName": "Venezuelan Restaurants", "shortName": "Venezuelan", "icon": {"prefix": "https://ss3.4sqi.net/img/categories_v2/food/argentinian_", "suffix": ".png"}, "primary": true}], "photos": {"count": 0, "groups": []}, "venuePage": {"id": "459921385"}}, "referralId": "e-0-583881398ab03f19affcc03c-48"}, {"reasons": {"count": 0, "items": [{"summary": "This spot is popular", "type": "general", "reasonName": "globalInteractionReason"}]}, "venue": {"id": "55f30a1c498e9c3425c29746", "name": "Jacques' Wein-Depot", "location": {"address": "W\u00fchlischstr. 49", "lat": 52.50809485608004, "lng": 13.462944163475186, "labeledLatLngs": [{"label": "display", "lat": 52.50809485608004, "lng": 13.462944163475186}], "distance": 639, "postalCode": "10245", "cc": "DE", "city": "Berlin", "state": "Berlin", "country": "Deutschland", "formattedAddress": ["W\u00fchlischstr. 49", "10245 Berlin", "Deutschland"]}, "categories": [{"id": "4bf58dd8d48988d119951735", "name": "Wine Shop", "pluralName": "Wine Shops", "shortName": "Wine Shop", "icon": {"prefix": "https://ss3.4sqi.net/img/categories_v2/shops/food_wineshop_", "suffix": ".png"}, "primary": true}], "photos": {"count": 0, "groups": []}}, "referralId": "e-0-55f30a1c498e9c3425c29746-49"}, {"reasons": {"count": 0, "items": [{"summary": "This spot is popular", "type": "general", "reasonName": "globalInteractionReason"}]}, "venue": {"id": "4adcda78f964a520704621e3", "name": "Hops & Barley", "location": {"address": "W\u00fchlischstr. 22", "lat": 52.508887402035654, "lng": 13.460585062665995, "labeledLatLngs": [{"label": "display", "lat": 52.508887402035654, "lng": 13.460585062665995}], "distance": 773, "postalCode": "10245", "cc": "DE", "city": "Berlin", "state": "Berlin", "country": "Deutschland", "formattedAddress": ["W\u00fchlischstr. 22", "10245 Berlin", "Deutschland"]}, "categories": [{"id": "50327c8591d4c4b30a586d5d", "name": "Brewery", "pluralName": "Breweries", "shortName": "Brewery", "icon": {"prefix": "https://ss3.4sqi.net/img/categories_v2/food/brewery_", "suffix": ".png"}, "primary": true}], "photos": {"count": 0, "groups": []}}, "referralId": "e-0-4adcda78f964a520704621e3-50"}, {"reasons": {"count": 0, "items": [{"summary": "This spot is popular", "type": "general", "reasonName": "globalInteractionReason"}]}, "venue": {"id": "4d55c5d1e7f1a1cdf84cfea4", "name": "MO-Nachtcaf\u00e9", "location": {"address": "Boxhagener Str. 64", "lat": 52.50570691368912, "lng": 13.470947569509626, "labeledLatLngs": [{"label": "display", "lat": 52.50570691368912, "lng": 13.470947569509626}], "distance": 535, "postalCode": "10245", "cc": "DE", "city": "Berlin", "state": "Berlin", "country": "Deutschland", "formattedAddress": ["Boxhagener Str. 64", "10245 Berlin", "Deutschland"]}, "categories": [{"id": "4bf58dd8d48988d118941735", "name": "Dive Bar", "pluralName": "Dive Bars", "shortName": "Dive Bar", "icon": {"prefix": "https://ss3.4sqi.net/img/categories_v2/nightlife/divebar_", "suffix": ".png"}, "primary": true}], "photos": {"count": 0, "groups": []}}, "referralId": "e-0-4d55c5d1e7f1a1cdf84cfea4-51"}, {"reasons": {"count": 0, "items": [{"summary": "This spot is popular", "type": "general", "reasonName": "globalInteractionReason"}]}, "venue": {"id": "505b4be8e4b027981a19e4c1", "name": "Machete Burrito", "location": {"address": "Neue Bahnhofstr. 29", "lat": 52.505708, "lng": 13.469506, "labeledLatLngs": [{"label": "display", "lat": 52.505708, "lng": 13.469506}], "distance": 467, "postalCode": "10245", "cc": "DE", "city": "Berlin", "state": "Berlin", "country": "Deutschland", "formattedAddress": ["Neue Bahnhofstr. 29", "10245 Berlin", "Deutschland"]}, "categories": [{"id": "4bf58dd8d48988d153941735", "name": "Burrito Place", "pluralName": "Burrito Places", "shortName": "Burritos", "icon": {"prefix": "https://ss3.4sqi.net/img/categories_v2/food/burrito_", "suffix": ".png"}, "primary": true}], "photos": {"count": 0, "groups": []}, "venuePage": {"id": "121286199"}}, "referralId": "e-0-505b4be8e4b027981a19e4c1-52"}, {"reasons": {"count": 0, "items": [{"summary": "This spot is popular", "type": "general", "reasonName": "globalInteractionReason"}]}, "venue": {"id": "5aa51bf7b1538e4b65ef752a", "name": "Kaffee Ingwer", "location": {"address": "W\u00fchlischstr. 12", "lat": 52.508134933034825, "lng": 13.463634231862729, "labeledLatLngs": [{"label": "display", "lat": 52.508134933034825, "lng": 13.463634231862729}], "distance": 635, "postalCode": "10245", "cc": "DE", "neighborhood": "Boxhagener Kiez", "city": "Berlin", "state": "Berlin", "country": "Deutschland", "formattedAddress": ["W\u00fchlischstr. 12", "10245 Berlin", "Deutschland"]}, "categories": [{"id": "4bf58dd8d48988d16d941735", "name": "Caf\u00e9", "pluralName": "Caf\u00e9s", "shortName": "Caf\u00e9", "icon": {"prefix": "https://ss3.4sqi.net/img/categories_v2/food/cafe_", "suffix": ".png"}, "primary": true}], "photos": {"count": 0, "groups": []}}, "referralId": "e-0-5aa51bf7b1538e4b65ef752a-53"}, {"reasons": {"count": 0, "items": [{"summary": "This spot is popular", "type": "general", "reasonName": "globalInteractionReason"}]}, "venue": {"id": "4b695edaf964a5203ca02be3", "name": "Hundeplatz Revaler Stra\u00dfe", "location": {"address": "Revaler Str.", "crossStreet": "Modersohnstr.", "lat": 52.50706640447958, "lng": 13.4581983089447, "labeledLatLngs": [{"label": "display", "lat": 52.50706640447958, "lng": 13.4581983089447}], "distance": 689, "postalCode": "10245", "cc": "DE", "city": "Berlin", "state": "Berlin", "country": "Deutschland", "formattedAddress": ["Revaler Str. (Modersohnstr.)", "10245 Berlin", "Deutschland"]}, "categories": [{"id": "4bf58dd8d48988d1e5941735", "name": "Dog Run", "pluralName": "Dog Runs", "shortName": "Dog Run", "icon": {"prefix": "https://ss3.4sqi.net/img/categories_v2/parks_outdoors/dogrun_", "suffix": ".png"}, "primary": true}], "photos": {"count": 0, "groups": []}}, "referralId": "e-0-4b695edaf964a5203ca02be3-54"}, {"reasons": {"count": 0, "items": [{"summary": "This spot is popular", "type": "general", "reasonName": "globalInteractionReason"}]}, "venue": {"id": "4af84accf964a520e90b22e3", "name": "V\u00f6ner", "location": {"address": "Boxhagener Str. 56", "crossStreet": "Lenbachstr.", "lat": 52.506868864446574, "lng": 13.46884416179013, "labeledLatLngs": [{"label": "display", "lat": 52.506868864446574, "lng": 13.46884416179013}], "distance": 550, "postalCode": "10245", "cc": "DE", "city": "Berlin", "state": "Berlin", "country": "Deutschland", "formattedAddress": ["Boxhagener Str. 56 (Lenbachstr.)", "10245 Berlin", "Deutschland"]}, "categories": [{"id": "4bf58dd8d48988d1d3941735", "name": "Vegetarian / Vegan Restaurant", "pluralName": "Vegetarian / Vegan Restaurants", "shortName": "Vegetarian / Vegan", "icon": {"prefix": "https://ss3.4sqi.net/img/categories_v2/food/vegetarian_", "suffix": ".png"}, "primary": true}], "photos": {"count": 0, "groups": []}}, "referralId": "e-0-4af84accf964a520e90b22e3-55"}, {"reasons": {"count": 0, "items": [{"summary": "This spot is popular", "type": "general", "reasonName": "globalInteractionReason"}]}, "venue": {"id": "4c666d14f7a80f470efe9d7a", "name": "Bones For Dogs", "location": {"address": "Glatzer Str. 7", "lat": 52.509531600579706, "lng": 13.465544852571009, "labeledLatLngs": [{"label": "display", "lat": 52.509531600579706, "lng": 13.465544852571009}], "distance": 783, "postalCode": "10247", "cc": "DE", "city": "Berlin", "state": "Berlin", "country": "Deutschland", "formattedAddress": ["Glatzer Str. 7", "10247 Berlin", "Deutschland"]}, "categories": [{"id": "4bf58dd8d48988d100951735", "name": "Pet Store", "pluralName": "Pet Stores", "shortName": "Pet Store", "icon": {"prefix": "https://ss3.4sqi.net/img/categories_v2/shops/pet_store_", "suffix": ".png"}, "primary": true}], "photos": {"count": 0, "groups": []}}, "referralId": "e-0-4c666d14f7a80f470efe9d7a-56"}, {"reasons": {"count": 0, "items": [{"summary": "This spot is popular", "type": "general", "reasonName": "globalInteractionReason"}]}, "venue": {"id": "4b118343f964a520317e23e3", "name": "Schwesterherz", "location": {"address": "G\u00e4rtnerstr. 28", "lat": 52.509501683427175, "lng": 13.460238465913106, "labeledLatLngs": [{"label": "display", "lat": 52.509501683427175, "lng": 13.460238465913106}], "distance": 845, "postalCode": "10245", "cc": "DE", "city": "Berlin", "state": "Berlin", "country": "Deutschland", "formattedAddress": ["G\u00e4rtnerstr. 28", "10245 Berlin", "Deutschland"]}, "categories": [{"id": "4bf58dd8d48988d128951735", "name": "Gift Shop", "pluralName": "Gift Shops", "shortName": "Gift Shop", "icon": {"prefix": "https://ss3.4sqi.net/img/categories_v2/shops/giftshop_", "suffix": ".png"}, "primary": true}], "photos": {"count": 0, "groups": []}}, "referralId": "e-0-4b118343f964a520317e23e3-57"}, {"reasons": {"count": 0, "items": [{"summary": "This spot is popular", "type": "general", "reasonName": "globalInteractionReason"}]}, "venue": {"id": "5cd85c2846e1b6002ce93ce1", "name": "Umami", "location": {"address": "Sonntagsstr. 8", "lat": 52.505661, "lng": 13.466653, "labeledLatLngs": [{"label": "display", "lat": 52.505661, "lng": 13.466653}], "distance": 368, "postalCode": "10245", "cc": "DE", "city": "Berlin", "state": "Berlin", "country": "Deutschland", "formattedAddress": ["Sonntagsstr. 8", "10245 Berlin", "Deutschland"]}, "categories": [{"id": "4bf58dd8d48988d142941735", "name": "Asian Restaurant", "pluralName": "Asian Restaurants", "shortName": "Asian", "icon": {"prefix": "https://ss3.4sqi.net/img/categories_v2/food/asian_", "suffix": ".png"}, "primary": true}], "photos": {"count": 0, "groups": []}}, "referralId": "e-0-5cd85c2846e1b6002ce93ce1-58"}, {"reasons": {"count": 0, "items": [{"summary": "This spot is popular", "type": "general", "reasonName": "globalInteractionReason"}]}, "venue": {"id": "4eaaebeb8b8180c90b9caa1d", "name": "BIO COMPANY", "location": {"address": "Boxhagener Str. 73", "lat": 52.5069295425485, "lng": 13.468660079658733, "labeledLatLngs": [{"label": "display", "lat": 52.5069295425485, "lng": 13.468660079658733}], "distance": 550, "postalCode": "10245", "cc": "DE", "city": "Berlin", "state": "Berlin", "country": "Deutschland", "formattedAddress": ["Boxhagener Str. 73", "10245 Berlin", "Deutschland"]}, "categories": [{"id": "52f2ab2ebcbc57f1066b8b45", "name": "Organic Grocery", "pluralName": "Organic Groceries", "shortName": "Organic Grocery", "icon": {"prefix": "https://ss3.4sqi.net/img/categories_v2/shops/food_grocery_", "suffix": ".png"}, "primary": true}], "photos": {"count": 0, "groups": []}, "venuePage": {"id": "477959787"}}, "referralId": "e-0-4eaaebeb8b8180c90b9caa1d-59"}, {"reasons": {"count": 0, "items": [{"summary": "This spot is popular", "type": "general", "reasonName": "globalInteractionReason"}]}, "venue": {"id": "4fce1d45e4b0589b099ccb55", "name": "Berlin Hot Yoga Friedrichshain", "location": {"address": "Boxhagener Str. 76 - 78", "lat": 52.507876643582165, "lng": 13.46940932918681, "labeledLatLngs": [{"label": "display", "lat": 52.507876643582165, "lng": 13.46940932918681}], "distance": 667, "postalCode": "10245", "cc": "DE", "city": "Berlin", "state": "Berlin", "country": "Deutschland", "formattedAddress": ["Boxhagener Str. 76 - 78", "10245 Berlin", "Deutschland"]}, "categories": [{"id": "4bf58dd8d48988d102941735", "name": "Yoga Studio", "pluralName": "Yoga Studios", "shortName": "Yoga Studio", "icon": {"prefix": "https://ss3.4sqi.net/img/categories_v2/shops/gym_yogastudio_", "suffix": ".png"}, "primary": true}], "photos": {"count": 0, "groups": []}}, "referralId": "e-0-4fce1d45e4b0589b099ccb55-60"}, {"reasons": {"count": 0, "items": [{"summary": "This spot is popular", "type": "general", "reasonName": "globalInteractionReason"}]}, "venue": {"id": "4fa519dbe4b0cbe2dfbb597e", "name": "Wahrhaft Nahrhaft", "location": {"address": "Revaler Str. 16", "lat": 52.50756866577607, "lng": 13.456440650580317, "labeledLatLngs": [{"label": "display", "lat": 52.50756866577607, "lng": 13.456440650580317}], "distance": 812, "postalCode": "10245", "cc": "DE", "city": "Berlin", "state": "Berlin", "country": "Deutschland", "formattedAddress": ["Revaler Str. 16", "10245 Berlin", "Deutschland"]}, "categories": [{"id": "4bf58dd8d48988d179941735", "name": "Bagel Shop", "pluralName": "Bagel Shops", "shortName": "Bagels", "icon": {"prefix": "https://ss3.4sqi.net/img/categories_v2/food/bagels_", "suffix": ".png"}, "primary": true}], "photos": {"count": 0, "groups": []}}, "referralId": "e-0-4fa519dbe4b0cbe2dfbb597e-61"}, {"reasons": {"count": 0, "items": [{"summary": "This spot is popular", "type": "general", "reasonName": "globalInteractionReason"}]}, "venue": {"id": "4da04fcec41ca1433b0345a3", "name": "Blaue Bohnen Kaffeer\u00f6sterei", "location": {"address": "Seumestr. 14", "lat": 52.51043615659477, "lng": 13.462552693620097, "labeledLatLngs": [{"label": "display", "lat": 52.51043615659477, "lng": 13.462552693620097}], "distance": 900, "postalCode": "10245", "cc": "DE", "neighborhood": "Boxhagener Kiez", "city": "Berlin", "state": "Berlin", "country": "Deutschland", "formattedAddress": ["Seumestr. 14", "10245 Berlin", "Deutschland"]}, "categories": [{"id": "4bf58dd8d48988d1e0931735", "name": "Coffee Shop", "pluralName": "Coffee Shops", "shortName": "Coffee Shop", "icon": {"prefix": "https://ss3.4sqi.net/img/categories_v2/food/coffeeshop_", "suffix": ".png"}, "primary": true}], "photos": {"count": 0, "groups": []}}, "referralId": "e-0-4da04fcec41ca1433b0345a3-62"}, {"reasons": {"count": 0, "items": [{"summary": "This spot is popular", "type": "general", "reasonName": "globalInteractionReason"}]}, "venue": {"id": "5984ee3cf0ca957f7ee4f90d", "name": "The Timber Doodle Bar", "location": {"address": "W\u00fchlischstr. 37", "lat": 52.50927683911241, "lng": 13.45899760723114, "labeledLatLngs": [{"label": "display", "lat": 52.50927683911241, "lng": 13.45899760723114}], "distance": 859, "postalCode": "10245", "cc": "DE", "city": "Berlin", "state": "Berlin", "country": "Deutschland", "formattedAddress": ["W\u00fchlischstr. 37", "10245 Berlin", "Deutschland"]}, "categories": [{"id": "4bf58dd8d48988d11e941735", "name": "Cocktail Bar", "pluralName": "Cocktail Bars", "shortName": "Cocktail", "icon": {"prefix": "https://ss3.4sqi.net/img/categories_v2/nightlife/cocktails_", "suffix": ".png"}, "primary": true}], "photos": {"count": 0, "groups": []}}, "referralId": "e-0-5984ee3cf0ca957f7ee4f90d-63"}, {"reasons": {"count": 0, "items": [{"summary": "This spot is popular", "type": "general", "reasonName": "globalInteractionReason"}]}, "venue": {"id": "5489c64e498ee67859fd7ae1", "name": "EVOPE - The Evolution Of Performance", "location": {"address": "G\u00fcrtelstr. 25", "lat": 52.50811226007241, "lng": 13.472742720968093, "labeledLatLngs": [{"label": "display", "lat": 52.50811226007241, "lng": 13.472742720968093}], "distance": 813, "postalCode": "10247", "cc": "DE", "city": "Berlin", "state": "Berlin", "country": "Deutschland", "formattedAddress": ["G\u00fcrtelstr. 25", "10247 Berlin", "Deutschland"]}, "categories": [{"id": "4f4528bc4b90abdf24c9de85", "name": "Athletics & Sports", "pluralName": "Athletics & Sports", "shortName": "Athletics & Sports", "icon": {"prefix": "https://ss3.4sqi.net/img/categories_v2/shops/sports_outdoors_", "suffix": ".png"}, "primary": true}], "photos": {"count": 0, "groups": []}}, "referralId": "e-0-5489c64e498ee67859fd7ae1-64"}, {"reasons": {"count": 0, "items": [{"summary": "This spot is popular", "type": "general", "reasonName": "globalInteractionReason"}]}, "venue": {"id": "4b3895b5f964a520db4e25e3", "name": "Skatehalle Berlin", "location": {"address": "Revaler Str. 99", "lat": 52.50706000001799, "lng": 13.454085760666922, "labeledLatLngs": [{"label": "display", "lat": 52.50706000001799, "lng": 13.454085760666922}], "distance": 900, "postalCode": "10245", "cc": "DE", "city": "Berlin", "state": "Berlin", "country": "Deutschland", "formattedAddress": ["Revaler Str. 99", "10245 Berlin", "Deutschland"]}, "categories": [{"id": "4bf58dd8d48988d167941735", "name": "Skate Park", "pluralName": "Skate Parks", "shortName": "Skate Park", "icon": {"prefix": "https://ss3.4sqi.net/img/categories_v2/parks_outdoors/skate_park_", "suffix": ".png"}, "primary": true}], "photos": {"count": 0, "groups": []}}, "referralId": "e-0-4b3895b5f964a520db4e25e3-65"}, {"reasons": {"count": 0, "items": [{"summary": "This spot is popular", "type": "general", "reasonName": "globalInteractionReason"}]}, "venue": {"id": "4e300060483b93c2f2e49522", "name": "Molecule Man", "location": {"address": "An den Treptowers", "crossStreet": "Stralauer Allee", "lat": 52.497, "lng": 13.459093, "labeledLatLngs": [{"label": "display", "lat": 52.497, "lng": 13.459093}], "distance": 733, "postalCode": "12435", "cc": "DE", "city": "Berlin", "state": "Berlin", "country": "Deutschland", "formattedAddress": ["An den Treptowers (Stralauer Allee)", "12435 Berlin", "Deutschland"]}, "categories": [{"id": "52e81612bcbc57f1066b79ed", "name": "Outdoor Sculpture", "pluralName": "Outdoor Sculptures", "shortName": "Outdoor Sculpture", "icon": {"prefix": "https://ss3.4sqi.net/img/categories_v2/parks_outdoors/sculpture_", "suffix": ".png"}, "primary": true}], "photos": {"count": 0, "groups": []}}, "referralId": "e-0-4e300060483b93c2f2e49522-66"}, {"reasons": {"count": 0, "items": [{"summary": "This spot is popular", "type": "general", "reasonName": "globalInteractionReason"}]}, "venue": {"id": "50395143e4b06e9ad47a25f6", "name": "Emma Pea", "location": {"address": "Revaler Stra\u00dfe 99", "lat": 52.50753218597057, "lng": 13.454606219152527, "labeledLatLngs": [{"label": "display", "lat": 52.50753218597057, "lng": 13.454606219152527}], "distance": 903, "postalCode": "10245", "cc": "DE", "city": "Berlin", "state": "Berlin", "country": "Deutschland", "formattedAddress": ["Revaler Stra\u00dfe 99", "10245 Berlin", "Deutschland"]}, "categories": [{"id": "4bf58dd8d48988d1d3941735", "name": "Vegetarian / Vegan Restaurant", "pluralName": "Vegetarian / Vegan Restaurants", "shortName": "Vegetarian / Vegan", "icon": {"prefix": "https://ss3.4sqi.net/img/categories_v2/food/vegetarian_", "suffix": ".png"}, "primary": true}], "photos": {"count": 0, "groups": []}}, "referralId": "e-0-50395143e4b06e9ad47a25f6-67"}, {"reasons": {"count": 0, "items": [{"summary": "This spot is popular", "type": "general", "reasonName": "globalInteractionReason"}]}, "venue": {"id": "4bbdc7f54e069c7409159fe3", "name": "Al Gazali", "location": {"address": "Krossener Str. 21", "lat": 52.510514223539914, "lng": 13.459297238492324, "labeledLatLngs": [{"label": "display", "lat": 52.510514223539914, "lng": 13.459297238492324}], "distance": 974, "postalCode": "10245", "cc": "DE", "city": "Berlin", "state": "Berlin", "country": "Deutschland", "formattedAddress": ["Krossener Str. 21", "10245 Berlin", "Deutschland"]}, "categories": [{"id": "4bf58dd8d48988d10b941735", "name": "Falafel Restaurant", "pluralName": "Falafel Restaurants", "shortName": "Falafel", "icon": {"prefix": "https://ss3.4sqi.net/img/categories_v2/food/falafel_", "suffix": ".png"}, "primary": true}], "photos": {"count": 0, "groups": []}}, "referralId": "e-0-4bbdc7f54e069c7409159fe3-68"}, {"reasons": {"count": 0, "items": [{"summary": "This spot is popular", "type": "general", "reasonName": "globalInteractionReason"}]}, "venue": {"id": "524771f2bce6ed216fbca1fd", "name": "Street Art / RAW-Gel\u00e4nde", "location": {"address": "Revaler Str. 99", "lat": 52.5074160371711, "lng": 13.45482855501219, "labeledLatLngs": [{"label": "display", "lat": 52.5074160371711, "lng": 13.45482855501219}], "distance": 883, "postalCode": "10245", "cc": "DE", "city": "Berlin", "state": "Berlin", "country": "Deutschland", "formattedAddress": ["Revaler Str. 99", "10245 Berlin", "Deutschland"]}, "categories": [{"id": "52e81612bcbc57f1066b79ee", "name": "Street Art", "pluralName": "Street Art Installations", "shortName": "Street Art", "icon": {"prefix": "https://ss3.4sqi.net/img/categories_v2/arts_entertainment/default_", "suffix": ".png"}, "primary": true}], "photos": {"count": 0, "groups": []}}, "referralId": "e-0-524771f2bce6ed216fbca1fd-69"}, {"reasons": {"count": 0, "items": [{"summary": "This spot is popular", "type": "general", "reasonName": "globalInteractionReason"}]}, "venue": {"id": "51c6f175498e16a8c1e01a66", "name": "ELSE", "location": {"address": "An den Treptowers 10", "lat": 52.49520452011272, "lng": 13.462636773349086, "labeledLatLngs": [{"label": "display", "lat": 52.49520452011272, "lng": 13.462636773349086}], "distance": 828, "postalCode": "12435", "cc": "DE", "city": "Berlin", "state": "Berlin", "country": "Deutschland", "formattedAddress": ["An den Treptowers 10", "12435 Berlin", "Deutschland"]}, "categories": [{"id": "4bf58dd8d48988d11f941735", "name": "Nightclub", "pluralName": "Nightclubs", "shortName": "Nightclub", "icon": {"prefix": "https://ss3.4sqi.net/img/categories_v2/nightlife/nightclub_", "suffix": ".png"}, "primary": true}], "photos": {"count": 0, "groups": []}}, "referralId": "e-0-51c6f175498e16a8c1e01a66-70"}, {"reasons": {"count": 0, "items": [{"summary": "This spot is popular", "type": "general", "reasonName": "globalInteractionReason"}]}, "venue": {"id": "56793516498e0c92aa50a21e", "name": "weinkehr - weinbar", "location": {"address": "Simplonstr. 23", "lat": 52.50827396723376, "lng": 13.45928591116615, "labeledLatLngs": [{"label": "display", "lat": 52.50827396723376, "lng": 13.45928591116615}], "distance": 752, "postalCode": "10245", "cc": "DE", "city": "Berlin", "state": "Berlin", "country": "Deutschland", "formattedAddress": ["Simplonstr. 23", "10245 Berlin", "Deutschland"]}, "categories": [{"id": "4bf58dd8d48988d123941735", "name": "Wine Bar", "pluralName": "Wine Bars", "shortName": "Wine Bar", "icon": {"prefix": "https://ss3.4sqi.net/img/categories_v2/food/winery_", "suffix": ".png"}, "primary": true}], "photos": {"count": 0, "groups": []}}, "referralId": "e-0-56793516498e0c92aa50a21e-71"}, {"reasons": {"count": 0, "items": [{"summary": "This spot is popular", "type": "general", "reasonName": "globalInteractionReason"}]}, "venue": {"id": "516a97e0e4b0782ec17828b1", "name": "SchokoLadenEis Manufaktur", "location": {"address": "Kaskelstr. 15", "lat": 52.504758617299856, "lng": 13.477461742580067, "labeledLatLngs": [{"label": "display", "lat": 52.504758617299856, "lng": 13.477461742580067}], "distance": 877, "postalCode": "10317", "cc": "DE", "neighborhood": "Rummelsburg, Berlin", "city": "Berlin", "state": "Berlin", "country": "Deutschland", "formattedAddress": ["Kaskelstr. 15", "10317 Berlin", "Deutschland"]}, "categories": [{"id": "4bf58dd8d48988d1c9941735", "name": "Ice Cream Shop", "pluralName": "Ice Cream Shops", "shortName": "Ice Cream", "icon": {"prefix": "https://ss3.4sqi.net/img/categories_v2/food/icecream_", "suffix": ".png"}, "primary": true}], "photos": {"count": 0, "groups": []}}, "referralId": "e-0-516a97e0e4b0782ec17828b1-72"}, {"reasons": {"count": 0, "items": [{"summary": "This spot is popular", "type": "general", "reasonName": "globalInteractionReason"}]}, "venue": {"id": "4bd41f769854d13a0e1aff4d", "name": "Badeschiff Berlin", "location": {"address": "Eichenstr. 4", "lat": 52.49754985622297, "lng": 13.453697234006507, "labeledLatLngs": [{"label": "display", "lat": 52.49754985622297, "lng": 13.453697234006507}], "distance": 946, "postalCode": "12435", "cc": "DE", "city": "Berlin", "state": "Berlin", "country": "Deutschland", "formattedAddress": ["Eichenstr. 4", "12435 Berlin", "Deutschland"]}, "categories": [{"id": "4bf58dd8d48988d15e941735", "name": "Pool", "pluralName": "Pools", "shortName": "Pool", "icon": {"prefix": "https://ss3.4sqi.net/img/categories_v2/parks_outdoors/pool_", "suffix": ".png"}, "primary": true}], "photos": {"count": 0, "groups": []}}, "referralId": "e-0-4bd41f769854d13a0e1aff4d-73"}, {"reasons": {"count": 0, "items": [{"summary": "This spot is popular", "type": "general", "reasonName": "globalInteractionReason"}]}, "venue": {"id": "4b0d692df964a520b54723e3", "name": "Der Kegel", "location": {"address": "Revaler Str. 99", "lat": 52.5072865844647, "lng": 13.454390496514028, "labeledLatLngs": [{"label": "display", "lat": 52.5072865844647, "lng": 13.454390496514028}], "distance": 898, "postalCode": "10245", "cc": "DE", "neighborhood": "Boxhagener Kiez", "city": "Berlin", "state": "Berlin", "country": "Deutschland", "formattedAddress": ["Revaler Str. 99", "10245 Berlin", "Deutschland"]}, "categories": [{"id": "503289d391d4c4b30a586d6a", "name": "Climbing Gym", "pluralName": "Climbing Gyms", "shortName": "Climbing Gym", "icon": {"prefix": "https://ss3.4sqi.net/img/categories_v2/building/gym_", "suffix": ".png"}, "primary": true}], "photos": {"count": 0, "groups": []}}, "referralId": "e-0-4b0d692df964a520b54723e3-74"}, {"reasons": {"count": 0, "items": [{"summary": "This spot is popular", "type": "general", "reasonName": "globalInteractionReason"}]}, "venue": {"id": "57d5db16498e1e67802619b0", "name": "Teledisko", "location": {"address": "Revaler Str. 99", "lat": 52.5075037047128, "lng": 13.45429386906799, "labeledLatLngs": [{"label": "display", "lat": 52.5075037047128, "lng": 13.45429386906799}], "distance": 918, "postalCode": "10245", "cc": "DE", "city": "Berlin", "state": "Berlin", "country": "Deutschland", "formattedAddress": ["Revaler Str. 99", "10245 Berlin", "Deutschland"]}, "categories": [{"id": "4bf58dd8d48988d11f941735", "name": "Nightclub", "pluralName": "Nightclubs", "shortName": "Nightclub", "icon": {"prefix": "https://ss3.4sqi.net/img/categories_v2/nightlife/nightclub_", "suffix": ".png"}, "primary": true}], "photos": {"count": 0, "groups": []}}, "referralId": "e-0-57d5db16498e1e67802619b0-75"}, {"reasons": {"count": 0, "items": [{"summary": "This spot is popular", "type": "general", "reasonName": "globalInteractionReason"}]}, "venue": {"id": "58669dfd13af1c32d09c0a44", "name": "1990 Vegan Living", "location": {"address": "Krossener Str. 19", "crossStreet": "Boxhagener Platz", "lat": 52.5104097662086, "lng": 13.45849871635437, "labeledLatLngs": [{"label": "display", "lat": 52.5104097662086, "lng": 13.45849871635437}], "distance": 986, "postalCode": "10245", "cc": "DE", "neighborhood": "Boxhagener Kiez", "city": "Berlin", "state": "Berlin", "country": "Deutschland", "formattedAddress": ["Krossener Str. 19 (Boxhagener Platz)", "10245 Berlin", "Deutschland"]}, "categories": [{"id": "4bf58dd8d48988d1d3941735", "name": "Vegetarian / Vegan Restaurant", "pluralName": "Vegetarian / Vegan Restaurants", "shortName": "Vegetarian / Vegan", "icon": {"prefix": "https://ss3.4sqi.net/img/categories_v2/food/vegetarian_", "suffix": ".png"}, "primary": true}], "photos": {"count": 0, "groups": []}}, "referralId": "e-0-58669dfd13af1c32d09c0a44-76"}, {"reasons": {"count": 0, "items": [{"summary": "This spot is popular", "type": "general", "reasonName": "globalInteractionReason"}]}, "venue": {"id": "4d971e70af3d236a1b911ac7", "name": "Zum Goldenen Lenker", "location": {"address": "Gr\u00fcnberger Stra\u00dfe 90", "crossStreet": "Seumestra\u00dfe", "lat": 52.510808166243464, "lng": 13.462651304396907, "labeledLatLngs": [{"label": "display", "lat": 52.510808166243464, "lng": 13.462651304396907}], "distance": 939, "postalCode": "10245", "cc": "DE", "city": "Berlin", "state": "Berlin", "country": "Deutschland", "formattedAddress": ["Gr\u00fcnberger Stra\u00dfe 90 (Seumestra\u00dfe)", "10245 Berlin", "Deutschland"]}, "categories": [{"id": "4bf58dd8d48988d115951735", "name": "Bike Shop", "pluralName": "Bike Shops", "shortName": "Bike Shop", "icon": {"prefix": "https://ss3.4sqi.net/img/categories_v2/shops/bikeshop_", "suffix": ".png"}, "primary": true}], "photos": {"count": 0, "groups": []}}, "referralId": "e-0-4d971e70af3d236a1b911ac7-77"}, {"reasons": {"count": 0, "items": [{"summary": "This spot is popular", "type": "general", "reasonName": "globalInteractionReason"}]}, "venue": {"id": "4b14ee30f964a5206da723e3", "name": "Il Ritrovo", "location": {"address": "Gabriel-Max-Str. 2", "lat": 52.509574917010404, "lng": 13.457946529386877, "labeledLatLngs": [{"label": "display", "lat": 52.509574917010404, "lng": 13.457946529386877}], "distance": 923, "postalCode": "10245", "cc": "DE", "city": "Berlin", "state": "Berlin", "country": "Deutschland", "formattedAddress": ["Gabriel-Max-Str. 2", "10245 Berlin", "Deutschland"]}, "categories": [{"id": "4bf58dd8d48988d1ca941735", "name": "Pizza Place", "pluralName": "Pizza Places", "shortName": "Pizza", "icon": {"prefix": "https://ss3.4sqi.net/img/categories_v2/food/pizza_", "suffix": ".png"}, "primary": true}], "photos": {"count": 0, "groups": []}}, "referralId": "e-0-4b14ee30f964a5206da723e3-78"}, {"reasons": {"count": 0, "items": [{"summary": "This spot is popular", "type": "general", "reasonName": "globalInteractionReason"}]}, "venue": {"id": "509e798ee4b03f3cc2113dcb", "name": "Victoria met Albert", "location": {"address": "Krossener Str. 9-10", "crossStreet": "Boxhagener Platz", "lat": 52.51028691159919, "lng": 13.4606057557315, "labeledLatLngs": [{"label": "display", "lat": 52.51028691159919, "lng": 13.4606057557315}], "distance": 918, "postalCode": "10245", "cc": "DE", "city": "Berlin", "state": "Berlin", "country": "Deutschland", "formattedAddress": ["Krossener Str. 9-10 (Boxhagener Platz)", "10245 Berlin", "Deutschland"]}, "categories": [{"id": "4bf58dd8d48988d104951735", "name": "Boutique", "pluralName": "Boutiques", "shortName": "Boutique", "icon": {"prefix": "https://ss3.4sqi.net/img/categories_v2/shops/apparel_boutique_", "suffix": ".png"}, "primary": true}], "photos": {"count": 0, "groups": []}}, "referralId": "e-0-509e798ee4b03f3cc2113dcb-79"}, {"reasons": {"count": 0, "items": [{"summary": "This spot is popular", "type": "general", "reasonName": "globalInteractionReason"}]}, "venue": {"id": "4b0a7e83f964a520712423e3", "name": "Schneewei\u00df", "location": {"address": "Simplonstr. 16", "lat": 52.50863483334405, "lng": 13.458412915698691, "labeledLatLngs": [{"label": "display", "lat": 52.50863483334405, "lng": 13.458412915698691}], "distance": 818, "postalCode": "10245", "cc": "DE", "city": "Berlin", "state": "Berlin", "country": "Deutschland", "formattedAddress": ["Simplonstr. 16", "10245 Berlin", "Deutschland"]}, "categories": [{"id": "4bf58dd8d48988d10d941735", "name": "German Restaurant", "pluralName": "German Restaurants", "shortName": "German", "icon": {"prefix": "https://ss3.4sqi.net/img/categories_v2/food/german_", "suffix": ".png"}, "primary": true}], "photos": {"count": 0, "groups": []}}, "referralId": "e-0-4b0a7e83f964a520712423e3-80"}, {"reasons": {"count": 0, "items": [{"summary": "This spot is popular", "type": "general", "reasonName": "globalInteractionReason"}]}, "venue": {"id": "4c4ae87c959220a187d3c90e", "name": "K\u00fcchenliebe", "location": {"address": "G\u00e4rtnerstr. 28", "lat": 52.50957248096937, "lng": 13.460293239204258, "labeledLatLngs": [{"label": "display", "lat": 52.50957248096937, "lng": 13.460293239204258}], "distance": 851, "postalCode": "10245", "cc": "DE", "city": "Berlin", "state": "Berlin", "country": "Deutschland", "formattedAddress": ["G\u00e4rtnerstr. 28", "10245 Berlin", "Deutschland"]}, "categories": [{"id": "4bf58dd8d48988d1f8941735", "name": "Furniture / Home Store", "pluralName": "Furniture / Home Stores", "shortName": "Furniture / Home", "icon": {"prefix": "https://ss3.4sqi.net/img/categories_v2/shops/furniture_", "suffix": ".png"}, "primary": true}], "photos": {"count": 0, "groups": []}}, "referralId": "e-0-4c4ae87c959220a187d3c90e-81"}, {"reasons": {"count": 0, "items": [{"summary": "This spot is popular", "type": "general", "reasonName": "globalInteractionReason"}]}, "venue": {"id": "535ac80f498e926298ba7f99", "name": "Berlin Strength", "location": {"address": "Revaler Str. 99", "lat": 52.50752344917921, "lng": 13.455462068596553, "labeledLatLngs": [{"label": "display", "lat": 52.50752344917921, "lng": 13.455462068596553}], "distance": 857, "postalCode": "10245", "cc": "DE", "city": "Berlin", "state": "Berlin", "country": "Deutschland", "formattedAddress": ["Revaler Str. 99", "10245 Berlin", "Deutschland"]}, "categories": [{"id": "4bf58dd8d48988d175941735", "name": "Gym / Fitness Center", "pluralName": "Gyms or Fitness Centers", "shortName": "Gym / Fitness", "icon": {"prefix": "https://ss3.4sqi.net/img/categories_v2/building/gym_", "suffix": ".png"}, "primary": true}], "photos": {"count": 0, "groups": []}}, "referralId": "e-0-535ac80f498e926298ba7f99-82"}, {"reasons": {"count": 0, "items": [{"summary": "This spot is popular", "type": "general", "reasonName": "globalInteractionReason"}]}, "venue": {"id": "4bd41fbc046076b0ef637771", "name": "EisPiraten", "location": {"address": "Gr\u00fcnberger Str. 85", "lat": 52.511008114807154, "lng": 13.461591560020933, "labeledLatLngs": [{"label": "display", "lat": 52.511008114807154, "lng": 13.461591560020933}], "distance": 976, "postalCode": "10245", "cc": "DE", "city": "Berlin", "state": "Berlin", "country": "Deutschland", "formattedAddress": ["Gr\u00fcnberger Str. 85", "10245 Berlin", "Deutschland"]}, "categories": [{"id": "4bf58dd8d48988d1c9941735", "name": "Ice Cream Shop", "pluralName": "Ice Cream Shops", "shortName": "Ice Cream", "icon": {"prefix": "https://ss3.4sqi.net/img/categories_v2/food/icecream_", "suffix": ".png"}, "primary": true}], "photos": {"count": 0, "groups": []}}, "referralId": "e-0-4bd41fbc046076b0ef637771-83"}, {"reasons": {"count": 0, "items": [{"summary": "This spot is popular", "type": "general", "reasonName": "globalInteractionReason"}]}, "venue": {"id": "5211b80711d28272e0a6a49b", "name": "Silo Coffee", "location": {"address": "Gabriel-Max-Str. 4", "lat": 52.50998895418429, "lng": 13.458276790406671, "labeledLatLngs": [{"label": "display", "lat": 52.50998895418429, "lng": 13.458276790406671}], "distance": 952, "postalCode": "10245", "cc": "DE", "neighborhood": "Boxhagener Kiez", "city": "Berlin", "state": "Berlin", "country": "Deutschland", "formattedAddress": ["Gabriel-Max-Str. 4", "10245 Berlin", "Deutschland"]}, "categories": [{"id": "4bf58dd8d48988d1e0931735", "name": "Coffee Shop", "pluralName": "Coffee Shops", "shortName": "Coffee Shop", "icon": {"prefix": "https://ss3.4sqi.net/img/categories_v2/food/coffeeshop_", "suffix": ".png"}, "primary": true}], "photos": {"count": 0, "groups": []}, "venuePage": {"id": "70980711"}}, "referralId": "e-0-5211b80711d28272e0a6a49b-84"}, {"reasons": {"count": 0, "items": [{"summary": "This spot is popular", "type": "general", "reasonName": "globalInteractionReason"}]}, "venue": {"id": "4ff84cf1e4b04619c7cc3d3d", "name": "Louise Ch\u00e9rie Caf\u00e9", "location": {"address": "Gr\u00fcnberger Str. 91", "lat": 52.51090471586084, "lng": 13.46243230655939, "labeledLatLngs": [{"label": "display", "lat": 52.51090471586084, "lng": 13.46243230655939}], "distance": 952, "postalCode": "10245", "cc": "DE", "neighborhood": "Boxhagener Kiez", "city": "Berlin", "state": "Berlin", "country": "Deutschland", "formattedAddress": ["Gr\u00fcnberger Str. 91", "10245 Berlin", "Deutschland"]}, "categories": [{"id": "4bf58dd8d48988d16d941735", "name": "Caf\u00e9", "pluralName": "Caf\u00e9s", "shortName": "Caf\u00e9", "icon": {"prefix": "https://ss3.4sqi.net/img/categories_v2/food/cafe_", "suffix": ".png"}, "primary": true}], "photos": {"count": 0, "groups": []}, "venuePage": {"id": "151031670"}}, "referralId": "e-0-4ff84cf1e4b04619c7cc3d3d-85"}, {"reasons": {"count": 0, "items": [{"summary": "This spot is popular", "type": "general", "reasonName": "globalInteractionReason"}]}, "venue": {"id": "4b5e1666f964a520f17c29e3", "name": "Caf\u00e9 Datscha", "location": {"address": "Gabriel-Max-Str. 1", "crossStreet": "W\u00fchlischstr.", "lat": 52.509304, "lng": 13.458025, "labeledLatLngs": [{"label": "display", "lat": 52.509304, "lng": 13.458025}], "distance": 895, "postalCode": "10245", "cc": "DE", "city": "Berlin", "state": "Berlin", "country": "Deutschland", "formattedAddress": ["Gabriel-Max-Str. 1 (W\u00fchlischstr.)", "10245 Berlin", "Deutschland"]}, "categories": [{"id": "5293a7563cf9994f4e043a44", "name": "Russian Restaurant", "pluralName": "Russian Restaurants", "shortName": "Russian", "icon": {"prefix": "https://ss3.4sqi.net/img/categories_v2/food/russian_", "suffix": ".png"}, "primary": true}], "photos": {"count": 0, "groups": []}}, "referralId": "e-0-4b5e1666f964a520f17c29e3-86"}, {"reasons": {"count": 0, "items": [{"summary": "This spot is popular", "type": "general", "reasonName": "globalInteractionReason"}]}, "venue": {"id": "5904cafd28374e14902ead08", "name": "Khwan \u0e04\u0e27\u0e31\u0e19", "location": {"address": "Revaler Str. 99", "lat": 52.50748120854745, "lng": 13.455651018259351, "labeledLatLngs": [{"label": "display", "lat": 52.50748120854745, "lng": 13.455651018259351}], "distance": 845, "postalCode": "10245", "cc": "DE", "city": "Berlin", "state": "Berlin", "country": "Deutschland", "formattedAddress": ["Revaler Str. 99", "10245 Berlin", "Deutschland"]}, "categories": [{"id": "4bf58dd8d48988d149941735", "name": "Thai Restaurant", "pluralName": "Thai Restaurants", "shortName": "Thai", "icon": {"prefix": "https://ss3.4sqi.net/img/categories_v2/food/thai_", "suffix": ".png"}, "primary": true}], "photos": {"count": 0, "groups": []}}, "referralId": "e-0-5904cafd28374e14902ead08-87"}, {"reasons": {"count": 0, "items": [{"summary": "This spot is popular", "type": "general", "reasonName": "globalInteractionReason"}]}, "venue": {"id": "59b417fb6dcf0420dae3b382", "name": "Schalander", "location": {"address": "Revaler Str. 99", "crossStreet": "Haus 9", "lat": 52.507068037042494, "lng": 13.456774055957794, "labeledLatLngs": [{"label": "display", "lat": 52.507068037042494, "lng": 13.456774055957794}], "distance": 757, "postalCode": "10245", "cc": "DE", "neighborhood": "Boxhagener Kiez", "city": "Berlin", "state": "Berlin", "country": "Deutschland", "formattedAddress": ["Revaler Str. 99 (Haus 9)", "10245 Berlin", "Deutschland"]}, "categories": [{"id": "56aa371ce4b08b9a8d57356c", "name": "Beer Bar", "pluralName": "Beer Bars", "shortName": "Beer Bar", "icon": {"prefix": "https://ss3.4sqi.net/img/categories_v2/nightlife/pub_", "suffix": ".png"}, "primary": true}], "photos": {"count": 0, "groups": []}}, "referralId": "e-0-59b417fb6dcf0420dae3b382-88"}, {"reasons": {"count": 0, "items": [{"summary": "This spot is popular", "type": "general", "reasonName": "globalInteractionReason"}]}, "venue": {"id": "56815c04498ed310e80eced1", "name": "Axt Crossfit", "location": {"address": "Ehrenbergstr. 15", "crossStreet": "Rudolfstr.", "lat": 52.50516354844635, "lng": 13.452573706554958, "labeledLatLngs": [{"label": "display", "lat": 52.50516354844635, "lng": 13.452573706554958}], "distance": 896, "postalCode": "10245", "cc": "DE", "city": "Berlin", "state": "Berlin", "country": "Deutschland", "formattedAddress": ["Ehrenbergstr. 15 (Rudolfstr.)", "10245 Berlin", "Deutschland"]}, "categories": [{"id": "4bf58dd8d48988d175941735", "name": "Gym / Fitness Center", "pluralName": "Gyms or Fitness Centers", "shortName": "Gym / Fitness", "icon": {"prefix": "https://ss3.4sqi.net/img/categories_v2/building/gym_", "suffix": ".png"}, "primary": true}], "photos": {"count": 0, "groups": []}}, "referralId": "e-0-56815c04498ed310e80eced1-89"}, {"reasons": {"count": 0, "items": [{"summary": "This spot is popular", "type": "general", "reasonName": "globalInteractionReason"}]}, "venue": {"id": "4bb77a34b35776b0c49fc701", "name": "Zur Gl\u00fchlampe", "location": {"address": "Lehmbruckstr. 1", "crossStreet": "Rudolfstr.", "lat": 52.50393299856658, "lng": 13.45360398672794, "labeledLatLngs": [{"label": "display", "lat": 52.50393299856658, "lng": 13.45360398672794}], "distance": 792, "postalCode": "DE", "cc": "DE", "city": "Berlin", "state": "Berlin", "country": "Deutschland", "formattedAddress": ["Lehmbruckstr. 1 (Rudolfstr.)", "DE Berlin", "Deutschland"]}, "categories": [{"id": "4bf58dd8d48988d116941735", "name": "Bar", "pluralName": "Bars", "shortName": "Bar", "icon": {"prefix": "https://ss3.4sqi.net/img/categories_v2/nightlife/pub_", "suffix": ".png"}, "primary": true}], "photos": {"count": 0, "groups": []}}, "referralId": "e-0-4bb77a34b35776b0c49fc701-90"}, {"reasons": {"count": 0, "items": [{"summary": "This spot is popular", "type": "general", "reasonName": "globalInteractionReason"}]}, "venue": {"id": "54fadb6b498ea7e048e83835", "name": "Passenger Espresso Pop Up", "location": {"address": "Boxhagener Platz", "lat": 52.51057961489879, "lng": 13.459368671274381, "labeledLatLngs": [{"label": "display", "lat": 52.51057961489879, "lng": 13.459368671274381}], "distance": 979, "postalCode": "10245", "cc": "DE", "city": "Berlin", "state": "Berlin", "country": "Deutschland", "formattedAddress": ["Boxhagener Platz", "10245 Berlin", "Deutschland"]}, "categories": [{"id": "4bf58dd8d48988d16d941735", "name": "Caf\u00e9", "pluralName": "Caf\u00e9s", "shortName": "Caf\u00e9", "icon": {"prefix": "https://ss3.4sqi.net/img/categories_v2/food/cafe_", "suffix": ".png"}, "primary": true}], "photos": {"count": 0, "groups": []}}, "referralId": "e-0-54fadb6b498ea7e048e83835-91"}, {"reasons": {"count": 0, "items": [{"summary": "This spot is popular", "type": "general", "reasonName": "globalInteractionReason"}]}, "venue": {"id": "4b1a8394f964a5206aeb23e3", "name": "Olivia Tartes & Schokoladen", "location": {"address": "W\u00fchlischstr. 30", "lat": 52.50957199100393, "lng": 13.457313478237673, "labeledLatLngs": [{"label": "display", "lat": 52.50957199100393, "lng": 13.457313478237673}], "distance": 946, "postalCode": "10245", "cc": "DE", "city": "Berlin", "state": "Berlin", "country": "Deutschland", "formattedAddress": ["W\u00fchlischstr. 30", "10245 Berlin", "Deutschland"]}, "categories": [{"id": "4bf58dd8d48988d16d941735", "name": "Caf\u00e9", "pluralName": "Caf\u00e9s", "shortName": "Caf\u00e9", "icon": {"prefix": "https://ss3.4sqi.net/img/categories_v2/food/cafe_", "suffix": ".png"}, "primary": true}], "photos": {"count": 0, "groups": []}}, "referralId": "e-0-4b1a8394f964a5206aeb23e3-92"}, {"reasons": {"count": 0, "items": [{"summary": "This spot is popular", "type": "general", "reasonName": "globalInteractionReason"}]}, "venue": {"id": "5ae3575b031320002c99ee76", "name": "IRO Izakaya", "location": {"address": "Krossener Str. 19", "crossStreet": "Gabriel-Max-Str.", "lat": 52.510359, "lng": 13.458793, "labeledLatLngs": [{"label": "display", "lat": 52.510359, "lng": 13.458793}], "distance": 972, "postalCode": "10245", "cc": "DE", "neighborhood": "Boxhagener Kiez", "city": "Berlin", "state": "Berlin", "country": "Deutschland", "formattedAddress": ["Krossener Str. 19 (Gabriel-Max-Str.)", "10245 Berlin", "Deutschland"]}, "categories": [{"id": "4bf58dd8d48988d111941735", "name": "Japanese Restaurant", "pluralName": "Japanese Restaurants", "shortName": "Japanese", "icon": {"prefix": "https://ss3.4sqi.net/img/categories_v2/food/japanese_", "suffix": ".png"}, "primary": true}], "photos": {"count": 0, "groups": []}}, "referralId": "e-0-5ae3575b031320002c99ee76-93"}, {"reasons": {"count": 0, "items": [{"summary": "This spot is popular", "type": "general", "reasonName": "globalInteractionReason"}]}, "venue": {"id": "4b6b35a9f964a520bcf92be3", "name": "Rudolfplatz", "location": {"address": "Rudolfstr.", "crossStreet": "Modersonstr.", "lat": 52.502951120447285, "lng": 13.455264117490382, "labeledLatLngs": [{"label": "display", "lat": 52.502951120447285, "lng": 13.455264117490382}], "distance": 665, "postalCode": "10245", "cc": "DE", "city": "Berlin", "state": "Berlin", "country": "Deutschland", "formattedAddress": ["Rudolfstr. (Modersonstr.)", "10245 Berlin", "Deutschland"]}, "categories": [{"id": "4bf58dd8d48988d164941735", "name": "Plaza", "pluralName": "Plazas", "shortName": "Plaza", "icon": {"prefix": "https://ss3.4sqi.net/img/categories_v2/parks_outdoors/plaza_", "suffix": ".png"}, "primary": true}], "photos": {"count": 0, "groups": []}}, "referralId": "e-0-4b6b35a9f964a520bcf92be3-94"}, {"reasons": {"count": 0, "items": [{"summary": "This spot is popular", "type": "general", "reasonName": "globalInteractionReason"}]}, "venue": {"id": "4dadbfebf7b1e810c136588e", "name": "Broke & Sch\u00f6n", "location": {"address": "Krossener Str. 9", "lat": 52.510184549495754, "lng": 13.461102591307558, "labeledLatLngs": [{"label": "display", "lat": 52.510184549495754, "lng": 13.461102591307558}], "distance": 896, "postalCode": "10245", "cc": "DE", "city": "Berlin", "state": "Berlin", "country": "Deutschland", "formattedAddress": ["Krossener Str. 9", "10245 Berlin", "Deutschland"]}, "categories": [{"id": "4bf58dd8d48988d108951735", "name": "Women's Store", "pluralName": "Women's Stores", "shortName": "Women's Store", "icon": {"prefix": "https://ss3.4sqi.net/img/categories_v2/shops/apparel_women_", "suffix": ".png"}, "primary": true}], "photos": {"count": 0, "groups": []}}, "referralId": "e-0-4dadbfebf7b1e810c136588e-95"}, {"reasons": {"count": 0, "items": [{"summary": "This spot is popular", "type": "general", "reasonName": "globalInteractionReason"}]}, "venue": {"id": "4b1a8324f964a52062eb23e3", "name": "Lesen und lesen lassen", "location": {"address": "W\u00fchlischstr. 30", "lat": 52.509545075110765, "lng": 13.457447284360862, "labeledLatLngs": [{"label": "display", "lat": 52.509545075110765, "lng": 13.457447284360862}], "distance": 939, "postalCode": "10245", "cc": "DE", "neighborhood": "Boxhagener Kiez - Friedrichshain", "city": "Berlin", "state": "Berlin", "country": "Deutschland", "formattedAddress": ["W\u00fchlischstr. 30", "10245 Berlin", "Deutschland"]}, "categories": [{"id": "4bf58dd8d48988d114951735", "name": "Bookstore", "pluralName": "Bookstores", "shortName": "Bookstore", "icon": {"prefix": "https://ss3.4sqi.net/img/categories_v2/shops/bookstore_", "suffix": ".png"}, "primary": true}], "photos": {"count": 0, "groups": []}}, "referralId": "e-0-4b1a8324f964a52062eb23e3-96"}, {"reasons": {"count": 0, "items": [{"summary": "This spot is popular", "type": "general", "reasonName": "globalInteractionReason"}]}, "venue": {"id": "538b7f01498ed1082717d03c", "name": "Place Clichy", "location": {"address": "Simon-Dach-Str. 22", "crossStreet": "Revaler Str.", "lat": 52.50841176520029, "lng": 13.455408397130887, "labeledLatLngs": [{"label": "display", "lat": 52.50841176520029, "lng": 13.455408397130887}], "distance": 928, "postalCode": "10245", "cc": "DE", "city": "Berlin", "state": "Berlin", "country": "Deutschland", "formattedAddress": ["Simon-Dach-Str. 22 (Revaler Str.)", "10245 Friedrichshain", "Deutschland"]}, "categories": [{"id": "4bf58dd8d48988d123941735", "name": "Wine Bar", "pluralName": "Wine Bars", "shortName": "Wine Bar", "icon": {"prefix": "https://ss3.4sqi.net/img/categories_v2/food/winery_", "suffix": ".png"}, "primary": true}], "photos": {"count": 0, "groups": []}, "venuePage": {"id": "99499730"}}, "referralId": "e-0-538b7f01498ed1082717d03c-97"}, {"reasons": {"count": 0, "items": [{"summary": "This spot is popular", "type": "general", "reasonName": "globalInteractionReason"}]}, "venue": {"id": "56f3eac2498e16f52d142a84", "name": "Neumanns Caf\u00e9", "location": {"address": "Gabriel Max Str. 18", "lat": 52.510326, "lng": 13.458039, "labeledLatLngs": [{"label": "display", "lat": 52.510326, "lng": 13.458039}], "distance": 992, "postalCode": "10245", "cc": "DE", "city": "Berlin", "state": "Berlin", "country": "Deutschland", "formattedAddress": ["Gabriel Max Str. 18", "10245 Berlin", "Deutschland"]}, "categories": [{"id": "4bf58dd8d48988d16d941735", "name": "Caf\u00e9", "pluralName": "Caf\u00e9s", "shortName": "Caf\u00e9", "icon": {"prefix": "https://ss3.4sqi.net/img/categories_v2/food/cafe_", "suffix": ".png"}, "primary": true}], "photos": {"count": 0, "groups": []}, "venuePage": {"id": "395450635"}}, "referralId": "e-0-56f3eac2498e16f52d142a84-98"}, {"reasons": {"count": 0, "items": [{"summary": "This spot is popular", "type": "general", "reasonName": "globalInteractionReason"}]}, "venue": {"id": "4b9d9ab7f964a520fdb536e3", "name": "Die Tagung", "location": {"address": "W\u00fchlischstr. 29", "lat": 52.50945081698548, "lng": 13.458199454407174, "labeledLatLngs": [{"label": "display", "lat": 52.50945081698548, "lng": 13.458199454407174}], "distance": 903, "postalCode": "10245", "cc": "DE", "city": "Berlin", "state": "Berlin", "country": "Deutschland", "formattedAddress": ["W\u00fchlischstr. 29", "10245 Berlin", "Deutschland"]}, "categories": [{"id": "4bf58dd8d48988d118941735", "name": "Dive Bar", "pluralName": "Dive Bars", "shortName": "Dive Bar", "icon": {"prefix": "https://ss3.4sqi.net/img/categories_v2/nightlife/divebar_", "suffix": ".png"}, "primary": true}], "photos": {"count": 0, "groups": []}}, "referralId": "e-0-4b9d9ab7f964a520fdb536e3-99"}]