[{"reasons": {"count": 0, "items": [{"summary": "This spot is popular", "type": "general", "reasonName": "globalInteractionReason"}]}, "venue": {"id": "4f77338be4b08f9be555b237", "name": "REWE", "location": {"address": "Frankfurter Allee 144", "lat": 52.511979677685424, "lng": 13.481597693733988, "labeledLatLngs": [{"label": "display", "lat": 52.511979677685424, "lng": 13.481597693733988}], "distance": 403, "postalCode": "10365", "cc": "DE", "city": "Berlin", "state": "Berlin", "country": "Deutschland", "formattedAddress": ["Frankfurter Allee 144", "10365 Berlin", "Deutschland"]}, "categories": [{"id": "52f2ab2ebcbc57f1066b8b46", "name": "Supermarket", "pluralName": "Supermarkets", "shortName": "Supermarket", "icon": {"prefix": "https://ss3.4sqi.net/img/categories_v2/shops/food_grocery_", "suffix": ".png"}, "primary": true}], "photos": {"count": 0, "groups": []}, "venuePage": {"id": "569449012"}}, "referralId": "e-0-4f77338be4b08f9be555b237-0"}, {"reasons": {"count": 0, "items": [{"summary": "This spot is popular", "type": "general", "reasonName": "globalInteractionReason"}]}, "venue": {"id": "4b97e2def964a520b91c35e3", "name": "Jel\u00e4nger Jelieber", "location": {"address": "Kaskelstr. 49", "lat": 52.50367266771752, "lng": 13.481821256153479, "labeledLatLngs": [{"label": "display", "lat": 52.50367266771752, "lng": 13.481821256153479}], "distance": 627, "postalCode": "10317", "cc": "DE", "city": "Berlin", "state": "Berlin", "country": "Deutschland", "formattedAddress": ["Kaskelstr. 49", "10317 Berlin", "Deutschland"]}, "categories": [{"id": "4bf58dd8d48988d10d941735", "name": "German Restaurant", "pluralName": "German Restaurants", "shortName": "German", "icon": {"prefix": "https://ss3.4sqi.net/img/categories_v2/food/german_", "suffix": ".png"}, "primary": true}], "photos": {"count": 0, "groups": []}}, "referralId": "e-0-4b97e2def964a520b91c35e3-1"}, {"reasons": {"count": 0, "items": [{"summary": "This spot is popular", "type": "general", "reasonName": "globalInteractionReason"}]}, "venue": {"id": "4c5d18632815c928e205b467", "name": "Cafe Nadia + Kosta", "location": {"address": "T\u00fcrrschmidtstr. 31", "crossStreet": "Kaskelstr.", "lat": 52.5034549868093, "lng": 13.482209111636461, "labeledLatLngs": [{"label": "display", "lat": 52.5034549868093, "lng": 13.482209111636461}], "distance": 642, "postalCode": "10317", "cc": "DE", "city": "Berlin", "state": "Berlin", "country": "Deutschland", "formattedAddress": ["T\u00fcrrschmidtstr. 31 (Kaskelstr.)", "10317 Berlin", "Deutschland"]}, "categories": [{"id": "4bf58dd8d48988d16d941735", "name": "Caf\u00e9", "pluralName": "Caf\u00e9s", "shortName": "Caf\u00e9", "icon": {"prefix": "https://ss3.4sqi.net/img/categories_v2/food/cafe_", "suffix": ".png"}, "primary": true}], "photos": {"count": 0, "groups": []}}, "referralId": "e-0-4c5d18632815c928e205b467-2"}, {"reasons": {"count": 0, "items": [{"summary": "This spot is popular", "type": "general", "reasonName": "globalInteractionReason"}]}, "venue": {"id": "4bfd587fe529c92855c7ba8c", "name": "Il Mondo", "location": {"address": "Rathausstr. 6", "crossStreet": "Dottistr.", "lat": 52.51427755095159, "lng": 13.481957244716082, "labeledLatLngs": [{"label": "display", "lat": 52.51427755095159, "lng": 13.481957244716082}], "distance": 623, "postalCode": "10367", "cc": "DE", "city": "Berlin", "state": "Berlin", "country": "Deutschland", "formattedAddress": ["Rathausstr. 6 (Dottistr.)", "10367 Berlin", "Deutschland"]}, "categories": [{"id": "4bf58dd8d48988d110941735", "name": "Italian Restaurant", "pluralName": "Italian Restaurants", "shortName": "Italian", "icon": {"prefix": "https://ss3.4sqi.net/img/categories_v2/food/italian_", "suffix": ".png"}, "primary": true}], "photos": {"count": 0, "groups": []}}, "referralId": "e-0-4bfd587fe529c92855c7ba8c-3"}, {"reasons": {"count": 0, "items": [{"summary": "This spot is popular", "type": "general", "reasonName": "globalInteractionReason"}]}, "venue": {"id": "516a97e0e4b0782ec17828b1", "name": "SchokoLadenEis Manufaktur", "location": {"address": "Kaskelstr. 15", "lat": 52.504758617299856, "lng": 13.477461742580067, "labeledLatLngs": [{"label": "display", "lat": 52.504758617299856, "lng": 13.477461742580067}], "distance": 691, "postalCode": "10317", "cc": "DE", "neighborhood": "Rummelsburg, Berlin", "city": "Berlin", "state": "Berlin", "country": "Deutschland", "formattedAddress": ["Kaskelstr. 15", "10317 Berlin", "Deutschland"]}, "categories": [{"id": "4bf58dd8d48988d1c9941735", "name": "Ice Cream Shop", "pluralName": "Ice Cream Shops", "shortName": "Ice Cream", "icon": {"prefix": "https://ss3.4sqi.net/img/categories_v2/food/icecream_", "suffix": ".png"}, "primary": true}], "photos": {"count": 0, "groups": []}}, "referralId": "e-0-516a97e0e4b0782ec17828b1-4"}, {"reasons": {"count": 0, "items": [{"summary": "This spot is popular", "type": "general", "reasonName": "globalInteractionReason"}]}, "venue": {"id": "5022e263e4b09c2bc0b742fd", "name": "La Bomba", "location": {"address": "Frankfurter Allee 151", "lat": 52.51302523030743, "lng": 13.482091512123683, "labeledLatLngs": [{"label": "display", "lat": 52.51302523030743, "lng": 13.482091512123683}], "distance": 490, "postalCode": "10365", "cc": "DE", "city": "Berlin", "state": "Berlin", "country": "Deutschland", "formattedAddress": ["Frankfurter Allee 151", "10365 Berlin", "Deutschland"]}, "categories": [{"id": "4bf58dd8d48988d11b941735", "name": "Pub", "pluralName": "Pubs", "shortName": "Pub", "icon": {"prefix": "https://ss3.4sqi.net/img/categories_v2/nightlife/pub_", "suffix": ".png"}, "primary": true}], "photos": {"count": 0, "groups": []}, "venuePage": {"id": "41749506"}}, "referralId": "e-0-5022e263e4b09c2bc0b742fd-5"}, {"reasons": {"count": 0, "items": [{"summary": "This spot is popular", "type": "general", "reasonName": "globalInteractionReason"}]}, "venue": {"id": "5489c64e498ee67859fd7ae1", "name": "EVOPE - The Evolution Of Performance", "location": {"address": "G\u00fcrtelstr. 25", "lat": 52.50811226007241, "lng": 13.472742720968093, "labeledLatLngs": [{"label": "display", "lat": 52.50811226007241, "lng": 13.472742720968093}], "distance": 832, "postalCode": "10247", "cc": "DE", "city": "Berlin", "state": "Berlin", "country": "Deutschland", "formattedAddress": ["G\u00fcrtelstr. 25", "10247 Berlin", "Deutschland"]}, "categories": [{"id": "4f4528bc4b90abdf24c9de85", "name": "Athletics & Sports", "pluralName": "Athletics & Sports", "shortName": "Athletics & Sports", "icon": {"prefix": "https://ss3.4sqi.net/img/categories_v2/shops/sports_outdoors_", "suffix": ".png"}, "primary": true}], "photos": {"count": 0, "groups": []}}, "referralId": "e-0-5489c64e498ee67859fd7ae1-6"}, {"reasons": {"count": 0, "items": [{"summary": "This spot is popular", "type": "general", "reasonName": "globalInteractionReason"}]}, "venue": {"id": "4adcda81f964a520484821e3", "name": "Stasi-Museum", "location": {"address": "Ruschestr. 103", "crossStreet": "Haus 1", "lat": 52.514409059167576, "lng": 13.487429022789001, "labeledLatLngs": [{"label": "display", "lat": 52.514409059167576, "lng": 13.487429022789001}], "distance": 627, "postalCode": "10365", "cc": "DE", "neighborhood": "R\u00fcdigerstra\u00dfe", "city": "Berlin", "state": "Berlin", "country": "Deutschland", "formattedAddress": ["Ruschestr. 103 (Haus 1)", "10365 Berlin", "Deutschland"]}, "categories": [{"id": "4bf58dd8d48988d190941735", "name": "History Museum", "pluralName": "History Museums", "shortName": "History Museum", "icon": {"prefix": "https://ss3.4sqi.net/img/categories_v2/arts_entertainment/museum_history_", "suffix": ".png"}, "primary": true}], "photos": {"count": 0, "groups": []}}, "referralId": "e-0-4adcda81f964a520484821e3-7"}, {"reasons": {"count": 0, "items": [{"summary": "This spot is popular", "type": "general", "reasonName": "globalInteractionReason"}]}, "venue": {"id": "5290ffe111d28b1ee5961e29", "name": "Masteca e Tasi", "location": {"address": "Neue Bahnhofstr. 22", "lat": 52.50707219443736, "lng": 13.471151713342659, "labeledLatLngs": [{"label": "display", "lat": 52.50707219443736, "lng": 13.471151713342659}], "distance": 958, "postalCode": "10245", "cc": "DE", "city": "Berlin", "state": "Berlin", "country": "Deutschland", "formattedAddress": ["Neue Bahnhofstr. 22", "10245 Berlin", "Deutschland"]}, "categories": [{"id": "4bf58dd8d48988d110941735", "name": "Italian Restaurant", "pluralName": "Italian Restaurants", "shortName": "Italian", "icon": {"prefix": "https://ss3.4sqi.net/img/categories_v2/food/italian_", "suffix": ".png"}, "primary": true}], "photos": {"count": 0, "groups": []}}, "referralId": "e-0-5290ffe111d28b1ee5961e29-8"}, {"reasons": {"count": 0, "items": [{"summary": "This spot is popular", "type": "general", "reasonName": "globalInteractionReason"}]}, "venue": {"id": "4b24bb05f964a5209c6924e3", "name": "Holmes Place Ostkreuz", "location": {"address": "Hirschberger Str. 3", "lat": 52.50470726345118, "lng": 13.4733540594881, "labeledLatLngs": [{"label": "display", "lat": 52.50470726345118, "lng": 13.4733540594881}], "distance": 918, "postalCode": "10317", "cc": "DE", "city": "Berlin", "state": "Berlin", "country": "Deutschland", "formattedAddress": ["Hirschberger Str. 3", "10317 Berlin", "Deutschland"]}, "categories": [{"id": "4bf58dd8d48988d175941735", "name": "Gym / Fitness Center", "pluralName": "Gyms or Fitness Centers", "shortName": "Gym / Fitness", "icon": {"prefix": "https://ss3.4sqi.net/img/categories_v2/building/gym_", "suffix": ".png"}, "primary": true}], "photos": {"count": 0, "groups": []}}, "referralId": "e-0-4b24bb05f964a5209c6924e3-9"}, {"reasons": {"count": 0, "items": [{"summary": "This spot is popular", "type": "general", "reasonName": "globalInteractionReason"}]}, "venue": {"id": "5596e24a498e8f669cf2ac61", "name": "HOME", "location": {"address": "Neue Bahnhofstra\u00dfe 23", "lat": 52.50701006622543, "lng": 13.47106498636734, "labeledLatLngs": [{"label": "display", "lat": 52.50701006622543, "lng": 13.47106498636734}], "distance": 965, "postalCode": "10245", "cc": "DE", "city": "Berlin", "state": "Berlin", "country": "Deutschland", "formattedAddress": ["Neue Bahnhofstra\u00dfe 23", "10245 Berlin", "Deutschland"]}, "categories": [{"id": "4bf58dd8d48988d116941735", "name": "Bar", "pluralName": "Bars", "shortName": "Bar", "icon": {"prefix": "https://ss3.4sqi.net/img/categories_v2/nightlife/pub_", "suffix": ".png"}, "primary": true}], "photos": {"count": 0, "groups": []}}, "referralId": "e-0-5596e24a498e8f669cf2ac61-10"}, {"reasons": {"count": 0, "items": [{"summary": "This spot is popular", "type": "general", "reasonName": "globalInteractionReason"}]}, "venue": {"id": "5a09e89b2632ec3a4e015ffe", "name": "Mishba", "location": {"lat": 52.51393935678556, "lng": 13.474798399464737, "labeledLatLngs": [{"label": "display", "lat": 52.51393935678556, "lng": 13.474798399464737}], "distance": 881, "cc": "DE", "city": "Berlin", "state": "Berlin", "country": "Deutschland", "formattedAddress": ["Berlin", "Deutschland"]}, "categories": [{"id": "4bf58dd8d48988d153941735", "name": "Burrito Place", "pluralName": "Burrito Places", "shortName": "Burritos", "icon": {"prefix": "https://ss3.4sqi.net/img/categories_v2/food/burrito_", "suffix": ".png"}, "primary": true}], "photos": {"count": 0, "groups": []}}, "referralId": "e-0-5a09e89b2632ec3a4e015ffe-11"}, {"reasons": {"count": 0, "items": [{"summary": "This spot is popular", "type": "general", "reasonName": "globalInteractionReason"}]}, "venue": {"id": "500d9f5ce4b01d293ce91527", "name": "Padelberlin", "location": {"address": "Wiesenweg 1", "lat": 52.50773610687429, "lng": 13.473970982721744, "labeledLatLngs": [{"label": "display", "lat": 52.50773610687429, "lng": 13.473970982721744}], "distance": 756, "postalCode": "10365", "cc": "DE", "city": "Berlin", "state": "Berlin", "country": "Deutschland", "formattedAddress": ["Wiesenweg 1", "10365 Berlin", "Deutschland"]}, "categories": [{"id": "4f4528bc4b90abdf24c9de85", "name": "Athletics & Sports", "pluralName": "Athletics & Sports", "shortName": "Athletics & Sports", "icon": {"prefix": "https://ss3.4sqi.net/img/categories_v2/shops/sports_outdoors_", "suffix": ".png"}, "primary": true}], "photos": {"count": 0, "groups": []}}, "referralId": "e-0-500d9f5ce4b01d293ce91527-12"}, {"reasons": {"count": 0, "items": [{"summary": "This spot is popular", "type": "general", "reasonName": "globalInteractionReason"}]}, "venue": {"id": "583881398ab03f19affcc03c", "name": "k\u00e4rrecho", "location": {"address": "Neue Bahnhofstr. 25", "lat": 52.5067660052729, "lng": 13.470634245602737, "labeledLatLngs": [{"label": "display", "lat": 52.5067660052729, "lng": 13.470634245602737}], "distance": 1000, "postalCode": "10245", "cc": "DE", "city": "Berlin", "state": "Berlin", "country": "Deutschland", "formattedAddress": ["Neue Bahnhofstr. 25", "10245 Berlin", "Deutschland"]}, "categories": [{"id": "56aa371be4b08b9a8d573558", "name": "Venezuelan Restaurant", "pluralName": "Venezuelan Restaurants", "shortName": "Venezuelan", "icon": {"prefix": "https://ss3.4sqi.net/img/categories_v2/food/argentinian_", "suffix": ".png"}, "primary": true}], "photos": {"count": 0, "groups": []}, "venuePage": {"id": "459921385"}}, "referralId": "e-0-583881398ab03f19affcc03c-13"}, {"reasons": {"count": 0, "items": [{"summary": "This spot is popular", "type": "general", "reasonName": "globalInteractionReason"}]}, "venue": {"id": "4f7d8e56e4b0ffb6a39b813a", "name": "Ausbildungsrestaurant Am Kuhgraben", "location": {"address": "Pfarrstr. 111", "lat": 52.50522483490844, "lng": 13.477360010147095, "labeledLatLngs": [{"label": "display", "lat": 52.50522483490844, "lng": 13.477360010147095}], "distance": 662, "postalCode": "10317", "cc": "DE", "city": "Berlin", "state": "Berlin", "country": "Deutschland", "formattedAddress": ["Pfarrstr. 111", "10317 Berlin", "Deutschland"]}, "categories": [{"id": "4bf58dd8d48988d1c4941735", "name": "Restaurant", "pluralName": "Restaurants", "shortName": "Restaurant", "icon": {"prefix": "https://ss3.4sqi.net/img/categories_v2/food/default_", "suffix": ".png"}, "primary": true}], "photos": {"count": 0, "groups": []}}, "referralId": "e-0-4f7d8e56e4b0ffb6a39b813a-14"}, {"reasons": {"count": 0, "items": [{"summary": "This spot is popular", "type": "general", "reasonName": "globalInteractionReason"}]}, "venue": {"id": "5428350b498e4ff3ecfd9bf8", "name": "AVCI", "location": {"address": "Weitlingstr. 57", "lat": 52.506062406124414, "lng": 13.495985057538887, "labeledLatLngs": [{"label": "display", "lat": 52.506062406124414, "lng": 13.495985057538887}], "distance": 815, "cc": "DE", "city": "Berlin", "state": "Berlin", "country": "Deutschland", "formattedAddress": ["Weitlingstr. 57", "Berlin", "Deutschland"]}, "categories": [{"id": "5283c7b4e4b094cb91ec88d8", "name": "Doner Restaurant", "pluralName": "Doner Restaurants", "shortName": "Doner", "icon": {"prefix": "https://ss3.4sqi.net/img/categories_v2/food/turkish_", "suffix": ".png"}, "primary": true}], "photos": {"count": 0, "groups": []}}, "referralId": "e-0-5428350b498e4ff3ecfd9bf8-15"}, {"reasons": {"count": 0, "items": [{"summary": "This spot is popular", "type": "general", "reasonName": "globalInteractionReason"}]}, "venue": {"id": "4adcda8ff964a520064b21e3", "name": "Ring-Center 1", "location": {"address": "Frankfurter Allee 111", "lat": 52.5140447, "lng": 13.47407936, "labeledLatLngs": [{"label": "display", "lat": 52.5140447, "lng": 13.47407936}], "distance": 927, "postalCode": "10247", "cc": "DE", "city": "Berlin", "state": "Berlin", "country": "Deutschland", "formattedAddress": ["Frankfurter Allee 111", "10247 Berlin", "Deutschland"]}, "categories": [{"id": "4bf58dd8d48988d1fd941735", "name": "Shopping Mall", "pluralName": "Shopping Malls", "shortName": "Mall", "icon": {"prefix": "https://ss3.4sqi.net/img/categories_v2/shops/mall_", "suffix": ".png"}, "primary": true}], "photos": {"count": 0, "groups": []}, "venuePage": {"id": "550911397"}}, "referralId": "e-0-4adcda8ff964a520064b21e3-16"}, {"reasons": {"count": 0, "items": [{"summary": "This spot is popular", "type": "general", "reasonName": "globalInteractionReason"}]}, "venue": {"id": "536b690811d254c328a55af0", "name": "Reisschale", "location": {"address": "Normannenstra\u00dfe 5a", "lat": 52.51616211180713, "lng": 13.481618374909598, "labeledLatLngs": [{"label": "display", "lat": 52.51616211180713, "lng": 13.481618374909598}], "distance": 830, "postalCode": "10365", "cc": "DE", "city": "Berlin", "state": "Berlin", "country": "Deutschland", "formattedAddress": ["Normannenstra\u00dfe 5a", "10365 Berlin", "Deutschland"]}, "categories": [{"id": "4bf58dd8d48988d142941735", "name": "Asian Restaurant", "pluralName": "Asian Restaurants", "shortName": "Asian", "icon": {"prefix": "https://ss3.4sqi.net/img/categories_v2/food/asian_", "suffix": ".png"}, "primary": true}], "photos": {"count": 0, "groups": []}}, "referralId": "e-0-536b690811d254c328a55af0-17"}, {"reasons": {"count": 0, "items": [{"summary": "This spot is popular", "type": "general", "reasonName": "globalInteractionReason"}]}, "venue": {"id": "5cc94c5e4c9be6002c241e58", "name": "Niu Hide", "location": {"address": "Frankfurter Allee 113", "crossStreet": "M\u00f6llendorffstr.", "lat": 52.51471, "lng": 13.476173, "labeledLatLngs": [{"label": "display", "lat": 52.51471, "lng": 13.476173}], "distance": 872, "postalCode": "10365", "cc": "DE", "city": "Berlin", "state": "Berlin", "country": "Deutschland", "formattedAddress": ["Frankfurter Allee 113 (M\u00f6llendorffstr.)", "10365 Berlin", "Deutschland"]}, "categories": [{"id": "4bf58dd8d48988d1fa931735", "name": "Hotel", "pluralName": "Hotels", "shortName": "Hotel", "icon": {"prefix": "https://ss3.4sqi.net/img/categories_v2/travel/hotel_", "suffix": ".png"}, "primary": true}], "photos": {"count": 0, "groups": []}}, "referralId": "e-0-5cc94c5e4c9be6002c241e58-18"}, {"reasons": {"count": 0, "items": [{"summary": "This spot is popular", "type": "general", "reasonName": "globalInteractionReason"}]}, "venue": {"id": "4d6912d7fd7ea35dd66da04a", "name": "Canap\u00e9", "location": {"address": "Pfarrstr. 120", "lat": 52.50465182597111, "lng": 13.476403034909405, "labeledLatLngs": [{"label": "display", "lat": 52.50465182597111, "lng": 13.476403034909405}], "distance": 752, "postalCode": "10317", "cc": "DE", "city": "Berlin", "state": "Berlin", "country": "Deutschland", "formattedAddress": ["Pfarrstr. 120", "10317 Berlin", "Deutschland"]}, "categories": [{"id": "4bf58dd8d48988d16a941735", "name": "Bakery", "pluralName": "Bakeries", "shortName": "Bakery", "icon": {"prefix": "https://ss3.4sqi.net/img/categories_v2/food/bakery_", "suffix": ".png"}, "primary": true}], "photos": {"count": 0, "groups": []}}, "referralId": "e-0-4d6912d7fd7ea35dd66da04a-19"}, {"reasons": {"count": 0, "items": [{"summary": "This spot is popular", "type": "general", "reasonName": "globalInteractionReason"}]}, "venue": {"id": "51bc52f1498e39a396f73bcd", "name": "Bullet Shop", "location": {"address": "Frankfurter Allee 250", "crossStreet": "Siegfriedstr.", "lat": 52.51180927967621, "lng": 13.498141708115385, "labeledLatLngs": [{"label": "display", "lat": 52.51180927967621, "lng": 13.498141708115385}], "distance": 947, "postalCode": "10365", "cc": "DE", "city": "Berlin", "state": "Berlin", "country": "Deutschland", "formattedAddress": ["Frankfurter Allee 250 (Siegfriedstr.)", "10365 Berlin", "Deutschland"]}, "categories": [{"id": "4bf58dd8d48988d123951735", "name": "Smoke Shop", "pluralName": "Smoke Shops", "shortName": "Smoke Shop", "icon": {"prefix": "https://ss3.4sqi.net/img/categories_v2/shops/tobacco_", "suffix": ".png"}, "primary": true}], "photos": {"count": 0, "groups": []}}, "referralId": "e-0-51bc52f1498e39a396f73bcd-20"}, {"reasons": {"count": 0, "items": [{"summary": "This spot is popular", "type": "general", "reasonName": "globalInteractionReason"}]}, "venue": {"id": "4bbf4b32b083a5939123a3e9", "name": "India Spice", "location": {"address": "Kaskelstr. 43", "lat": 52.50395789473226, "lng": 13.480911254882812, "labeledLatLngs": [{"label": "display", "lat": 52.50395789473226, "lng": 13.480911254882812}], "distance": 622, "postalCode": "10317", "cc": "DE", "city": "Berlin", "state": "Berlin", "country": "Deutschland", "formattedAddress": ["Kaskelstr. 43", "10317 Berlin", "Deutschland"]}, "categories": [{"id": "4bf58dd8d48988d10f941735", "name": "Indian Restaurant", "pluralName": "Indian Restaurants", "shortName": "Indian", "icon": {"prefix": "https://ss3.4sqi.net/img/categories_v2/food/indian_", "suffix": ".png"}, "primary": true}], "photos": {"count": 0, "groups": []}}, "referralId": "e-0-4bbf4b32b083a5939123a3e9-21"}, {"reasons": {"count": 0, "items": [{"summary": "This spot is popular", "type": "general", "reasonName": "globalInteractionReason"}]}, "venue": {"id": "4c685c5973851b8d3977ba39", "name": "Hotel Victoria", "location": {"address": "Kaskelstr. 50", "lat": 52.50370485409452, "lng": 13.481779129218962, "labeledLatLngs": [{"label": "display", "lat": 52.50370485409452, "lng": 13.481779129218962}], "distance": 624, "postalCode": "10317", "cc": "DE", "city": "Berlin", "state": "Berlin", "country": "Deutschland", "formattedAddress": ["Kaskelstr. 50", "10317 Berlin", "Deutschland"]}, "categories": [{"id": "4bf58dd8d48988d1fa931735", "name": "Hotel", "pluralName": "Hotels", "shortName": "Hotel", "icon": {"prefix": "https://ss3.4sqi.net/img/categories_v2/travel/hotel_", "suffix": ".png"}, "primary": true}], "photos": {"count": 0, "groups": []}, "venuePage": {"id": "55264006"}}, "referralId": "e-0-4c685c5973851b8d3977ba39-22"}, {"reasons": {"count": 0, "items": [{"summary": "This spot is popular", "type": "general", "reasonName": "globalInteractionReason"}]}, "venue": {"id": "4c1cbeeffcf8c9b6ec7eaa0b", "name": "REWE", "location": {"address": "Weitlingstr. 59-60", "lat": 52.50557231559455, "lng": 13.496288604909637, "labeledLatLngs": [{"label": "display", "lat": 52.50557231559455, "lng": 13.496288604909637}], "distance": 856, "postalCode": "10317", "cc": "DE", "city": "Berlin", "state": "Berlin", "country": "Deutschland", "formattedAddress": ["Weitlingstr. 59-60", "10317 Berlin", "Deutschland"]}, "categories": [{"id": "52f2ab2ebcbc57f1066b8b46", "name": "Supermarket", "pluralName": "Supermarkets", "shortName": "Supermarket", "icon": {"prefix": "https://ss3.4sqi.net/img/categories_v2/shops/food_grocery_", "suffix": ".png"}, "primary": true}], "photos": {"count": 0, "groups": []}, "venuePage": {"id": "558120511"}}, "referralId": "e-0-4c1cbeeffcf8c9b6ec7eaa0b-23"}, {"reasons": {"count": 0, "items": [{"summary": "This spot is popular", "type": "general", "reasonName": "globalInteractionReason"}]}, "venue": {"id": "4bcf5f790ffdce72c867b2c0", "name": "Hotel NH Berlin City Ost", "location": {"address": "Rathausstr. 2-3", "lat": 52.51365900633557, "lng": 13.482022789626248, "labeledLatLngs": [{"label": "display", "lat": 52.51365900633557, "lng": 13.482022789626248}], "distance": 557, "postalCode": "10367", "cc": "DE", "city": "Berlin", "state": "Berlin", "country": "Deutschland", "formattedAddress": ["Rathausstr. 2-3", "10367 Berlin", "Deutschland"]}, "categories": [{"id": "4bf58dd8d48988d1fa931735", "name": "Hotel", "pluralName": "Hotels", "shortName": "Hotel", "icon": {"prefix": "https://ss3.4sqi.net/img/categories_v2/travel/hotel_", "suffix": ".png"}, "primary": true}], "photos": {"count": 0, "groups": []}}, "referralId": "e-0-4bcf5f790ffdce72c867b2c0-24"}, {"reasons": {"count": 0, "items": [{"summary": "This spot is popular", "type": "general", "reasonName": "globalInteractionReason"}]}, "venue": {"id": "4fce3eece4b0f39fffe70430", "name": "immergr\u00fcn", "location": {"address": "Frankfurter Allee 111", "crossStreet": "UG", "lat": 52.513317, "lng": 13.47934, "labeledLatLngs": [{"label": "display", "lat": 52.513317, "lng": 13.47934}], "distance": 614, "postalCode": "10247", "cc": "DE", "city": "Berlin", "state": "Berlin", "country": "Deutschland", "formattedAddress": ["Frankfurter Allee 111 (UG)", "10247 Berlin", "Deutschland"]}, "categories": [{"id": "4bf58dd8d48988d112941735", "name": "Juice Bar", "pluralName": "Juice Bars", "shortName": "Juice Bar", "icon": {"prefix": "https://ss3.4sqi.net/img/categories_v2/food/juicebar_", "suffix": ".png"}, "primary": true}], "photos": {"count": 0, "groups": []}}, "referralId": "e-0-4fce3eece4b0f39fffe70430-25"}, {"reasons": {"count": 0, "items": [{"summary": "This spot is popular", "type": "general", "reasonName": "globalInteractionReason"}]}, "venue": {"id": "4b1f5a67f964a520b82524e3", "name": "Caramel Caf\u00e9 B\u00e4ckerei", "location": {"address": "Leopoldstr. 38a", "lat": 52.503190979613976, "lng": 13.486527366266252, "labeledLatLngs": [{"label": "display", "lat": 52.503190979613976, "lng": 13.486527366266252}], "distance": 652, "postalCode": "10317", "cc": "DE", "city": "Berlin", "state": "Berlin", "country": "Deutschland", "formattedAddress": ["Leopoldstr. 38a", "10317 Berlin", "Deutschland"]}, "categories": [{"id": "4bf58dd8d48988d16d941735", "name": "Caf\u00e9", "pluralName": "Caf\u00e9s", "shortName": "Caf\u00e9", "icon": {"prefix": "https://ss3.4sqi.net/img/categories_v2/food/cafe_", "suffix": ".png"}, "primary": true}], "photos": {"count": 0, "groups": []}}, "referralId": "e-0-4b1f5a67f964a520b82524e3-26"}, {"reasons": {"count": 0, "items": [{"summary": "This spot is popular", "type": "general", "reasonName": "globalInteractionReason"}]}, "venue": {"id": "4dd4e473d1649f0f0497685c", "name": "Curry Piraten", "location": {"address": "Rigaer Str. 55", "lat": 52.51462745863635, "lng": 13.47431070001254, "labeledLatLngs": [{"label": "display", "lat": 52.51462745863635, "lng": 13.47431070001254}], "distance": 956, "postalCode": "10247", "cc": "DE", "city": "Berlin", "state": "Berlin", "country": "Deutschland", "formattedAddress": ["Rigaer Str. 55", "10247 Berlin", "Deutschland"]}, "categories": [{"id": "4bf58dd8d48988d16e941735", "name": "Fast Food Restaurant", "pluralName": "Fast Food Restaurants", "shortName": "Fast Food", "icon": {"prefix": "https://ss3.4sqi.net/img/categories_v2/food/fastfood_", "suffix": ".png"}, "primary": true}], "photos": {"count": 0, "groups": []}}, "referralId": "e-0-4dd4e473d1649f0f0497685c-27"}, {"reasons": {"count": 0, "items": [{"summary": "This spot is popular", "type": "general", "reasonName": "globalInteractionReason"}]}, "venue": {"id": "59f728ad4f0e587ad0546579", "name": "Mustafa Demir\u2019s Gem\u00fcse Kebap", "location": {"lat": 52.51423058755912, "lng": 13.474666214733212, "labeledLatLngs": [{"label": "display", "lat": 52.51423058755912, "lng": 13.474666214733212}], "distance": 909, "cc": "DE", "neighborhood": "R\u00fcdigerstra\u00dfe", "country": "Deutschland", "formattedAddress": ["Deutschland"]}, "categories": [{"id": "5283c7b4e4b094cb91ec88d7", "name": "Kebab Restaurant", "pluralName": "Kebab Restaurants", "shortName": "Kebab", "icon": {"prefix": "https://ss3.4sqi.net/img/categories_v2/food/middleeastern_", "suffix": ".png"}, "primary": true}], "photos": {"count": 0, "groups": []}}, "referralId": "e-0-59f728ad4f0e587ad0546579-28"}, {"reasons": {"count": 0, "items": [{"summary": "This spot is popular", "type": "general", "reasonName": "globalInteractionReason"}]}, "venue": {"id": "54f86adf498ef551d4f52255", "name": "Kaffee Kiste", "location": {"address": "Rigaer Str. 56", "crossStreet": "vor S Frankfurter Allee, n. Zugang", "lat": 52.514673834204096, "lng": 13.47432713208184, "labeledLatLngs": [{"label": "display", "lat": 52.514673834204096, "lng": 13.47432713208184}], "distance": 959, "postalCode": "10247", "cc": "DE", "city": "Berlin", "state": "Berlin", "country": "Deutschland", "formattedAddress": ["Rigaer Str. 56 (vor S Frankfurter Allee, n. Zugang)", "10247 Berlin", "Deutschland"]}, "categories": [{"id": "4bf58dd8d48988d1e0931735", "name": "Coffee Shop", "pluralName": "Coffee Shops", "shortName": "Coffee Shop", "icon": {"prefix": "https://ss3.4sqi.net/img/categories_v2/food/coffeeshop_", "suffix": ".png"}, "primary": true}], "photos": {"count": 0, "groups": []}}, "referralId": "e-0-54f86adf498ef551d4f52255-29"}, {"reasons": {"count": 0, "items": [{"summary": "This spot is popular", "type": "general", "reasonName": "globalInteractionReason"}]}, "venue": {"id": "4d3330db9c2d5941a33737d8", "name": "Reichardt's", "location": {"address": "Frankfurter Allee 97", "lat": 52.51413809815975, "lng": 13.473014831542969, "labeledLatLngs": [{"label": "display", "lat": 52.51413809815975, "lng": 13.473014831542969}], "distance": 991, "postalCode": "10247", "cc": "DE", "city": "Berlin", "state": "Berlin", "country": "Deutschland", "formattedAddress": ["Frankfurter Allee 97", "10247 Berlin", "Deutschland"]}, "categories": [{"id": "4bf58dd8d48988d10d941735", "name": "German Restaurant", "pluralName": "German Restaurants", "shortName": "German", "icon": {"prefix": "https://ss3.4sqi.net/img/categories_v2/food/german_", "suffix": ".png"}, "primary": true}], "photos": {"count": 0, "groups": []}}, "referralId": "e-0-4d3330db9c2d5941a33737d8-30"}, {"reasons": {"count": 0, "items": [{"summary": "This spot is popular", "type": "general", "reasonName": "globalInteractionReason"}]}, "venue": {"id": "4dd92958b0fb8af380b00002", "name": "Don Giovanni", "location": {"address": "Atzpodienstr. 12", "lat": 52.51442235115981, "lng": 13.493322684221212, "labeledLatLngs": [{"label": "display", "lat": 52.51442235115981, "lng": 13.493322684221212}], "distance": 830, "postalCode": "10365", "cc": "DE", "city": "Berlin", "state": "Berlin", "country": "Deutschland", "formattedAddress": ["Atzpodienstr. 12", "10365 Berlin", "Deutschland"]}, "categories": [{"id": "4bf58dd8d48988d110941735", "name": "Italian Restaurant", "pluralName": "Italian Restaurants", "shortName": "Italian", "icon": {"prefix": "https://ss3.4sqi.net/img/categories_v2/food/italian_", "suffix": ".png"}, "primary": true}], "photos": {"count": 0, "groups": []}}, "referralId": "e-0-4dd92958b0fb8af380b00002-31"}, {"reasons": {"count": 0, "items": [{"summary": "This spot is popular", "type": "general", "reasonName": "globalInteractionReason"}]}, "venue": {"id": "5597bf78498ea6e886bd8ec8", "name": "EDEKA", "location": {"address": "Weitlingstr. 22", "lat": 52.50932707481885, "lng": 13.497750714593456, "labeledLatLngs": [{"label": "display", "lat": 52.50932707481885, "lng": 13.497750714593456}], "distance": 868, "postalCode": "10317", "cc": "DE", "neighborhood": "Weitlingkiez West", "city": "Berlin", "state": "Berlin", "country": "Deutschland", "formattedAddress": ["Weitlingstr. 22", "10317 Berlin", "Deutschland"]}, "categories": [{"id": "52f2ab2ebcbc57f1066b8b46", "name": "Supermarket", "pluralName": "Supermarkets", "shortName": "Supermarket", "icon": {"prefix": "https://ss3.4sqi.net/img/categories_v2/shops/food_grocery_", "suffix": ".png"}, "primary": true}], "photos": {"count": 0, "groups": []}}, "referralId": "e-0-5597bf78498ea6e886bd8ec8-32"}, {"reasons": {"count": 0, "items": [{"summary": "This spot is popular", "type": "general", "reasonName": "globalInteractionReason"}]}, "venue": {"id": "513843b3e4b04d8c1737e836", "name": "Scoom", "location": {"address": "Frankfurter Allee 111a", "lat": 52.513765932124336, "lng": 13.475074768066406, "labeledLatLngs": [{"label": "display", "lat": 52.513765932124336, "lng": 13.475074768066406}], "distance": 855, "postalCode": "10243", "cc": "DE", "city": "Berlin", "state": "Berlin", "country": "Deutschland", "formattedAddress": ["Frankfurter Allee 111a", "10243 Berlin", "Deutschland"]}, "categories": [{"id": "4bf58dd8d48988d1e0931735", "name": "Coffee Shop", "pluralName": "Coffee Shops", "shortName": "Coffee Shop", "icon": {"prefix": "https://ss3.4sqi.net/img/categories_v2/food/coffeeshop_", "suffix": ".png"}, "primary": true}], "photos": {"count": 0, "groups": []}}, "referralId": "e-0-513843b3e4b04d8c1737e836-33"}, {"reasons": {"count": 0, "items": [{"summary": "This spot is popular", "type": "general", "reasonName": "globalInteractionReason"}]}, "venue": {"id": "4dd7f15a8877f1150ff63943", "name": "AVCI Bistro", "location": {"address": "Weitlingstr. 24", "lat": 52.50884259706542, "lng": 13.497380018234253, "labeledLatLngs": [{"label": "display", "lat": 52.50884259706542, "lng": 13.497380018234253}], "distance": 842, "postalCode": "10317", "cc": "DE", "city": "Berlin", "state": "Berlin", "country": "Deutschland", "formattedAddress": ["Weitlingstr. 24", "10317 Berlin", "Deutschland"]}, "categories": [{"id": "4bf58dd8d48988d10b941735", "name": "Falafel Restaurant", "pluralName": "Falafel Restaurants", "shortName": "Falafel", "icon": {"prefix": "https://ss3.4sqi.net/img/categories_v2/food/falafel_", "suffix": ".png"}, "primary": true}], "photos": {"count": 0, "groups": []}}, "referralId": "e-0-4dd7f15a8877f1150ff63943-34"}, {"reasons": {"count": 0, "items": [{"summary": "This spot is popular", "type": "general", "reasonName": "globalInteractionReason"}]}, "venue": {"id": "4e133e052fb6744af78f268b", "name": "Telekom Shop", "location": {"address": "Frankfurter Allee 113, ECE, Ring-Center", "lat": 52.514469, "lng": 13.476446, "labeledLatLngs": [{"label": "display", "lat": 52.514469, "lng": 13.476446}], "distance": 839, "postalCode": "10365", "cc": "DE", "city": "Berlin", "state": "Berlin", "country": "Deutschland", "formattedAddress": ["Frankfurter Allee 113, ECE, Ring-Center", "10365 Berlin", "Deutschland"]}, "categories": [{"id": "4f04afc02fb6e1c99f3db0bc", "name": "Mobile Phone Shop", "pluralName": "Mobile Phone Shops", "shortName": "Mobile Phones", "icon": {"prefix": "https://ss3.4sqi.net/img/categories_v2/shops/mobilephoneshop_", "suffix": ".png"}, "primary": true}], "photos": {"count": 0, "groups": []}, "venuePage": {"id": "474447745"}}, "referralId": "e-0-4e133e052fb6744af78f268b-35"}, {"reasons": {"count": 0, "items": [{"summary": "This spot is popular", "type": "general", "reasonName": "globalInteractionReason"}]}, "venue": {"id": "4e398208d164102b0372bbd6", "name": "SuperFit", "location": {"address": "Frankfurter Allee 111", "lat": 52.51412102760869, "lng": 13.474038357307473, "labeledLatLngs": [{"label": "display", "lat": 52.51412102760869, "lng": 13.474038357307473}], "distance": 934, "postalCode": "10247", "cc": "DE", "neighborhood": "Samariterkiez", "city": "Berlin", "state": "Berlin", "country": "Deutschland", "formattedAddress": ["Frankfurter Allee 111", "10247 Berlin-Friedrichshain", "Deutschland"]}, "categories": [{"id": "4bf58dd8d48988d175941735", "name": "Gym / Fitness Center", "pluralName": "Gyms or Fitness Centers", "shortName": "Gym / Fitness", "icon": {"prefix": "https://ss3.4sqi.net/img/categories_v2/building/gym_", "suffix": ".png"}, "primary": true}], "photos": {"count": 0, "groups": []}}, "referralId": "e-0-4e398208d164102b0372bbd6-36"}, {"reasons": {"count": 0, "items": [{"summary": "This spot is popular", "type": "general", "reasonName": "globalInteractionReason"}]}, "venue": {"id": "4b424a6bf964a520d6d025e3", "name": "Riga's Pizza Box", "location": {"address": "Rigaer Str. 56", "crossStreet": "Pettenkoferstr.", "lat": 52.514778157902704, "lng": 13.474154806676188, "labeledLatLngs": [{"label": "display", "lat": 52.514778157902704, "lng": 13.474154806676188}], "distance": 975, "postalCode": "10247", "cc": "DE", "city": "Berlin", "state": "Berlin", "country": "Deutschland", "formattedAddress": ["Rigaer Str. 56 (Pettenkoferstr.)", "10247 Berlin", "Deutschland"]}, "categories": [{"id": "4bf58dd8d48988d110941735", "name": "Italian Restaurant", "pluralName": "Italian Restaurants", "shortName": "Italian", "icon": {"prefix": "https://ss3.4sqi.net/img/categories_v2/food/italian_", "suffix": ".png"}, "primary": true}], "photos": {"count": 0, "groups": []}}, "referralId": "e-0-4b424a6bf964a520d6d025e3-37"}, {"reasons": {"count": 0, "items": [{"summary": "This spot is popular", "type": "general", "reasonName": "globalInteractionReason"}]}, "venue": {"id": "4e3a3913b0fbca6e84b2c7c0", "name": "Caf\u00e9 B\u00e4ckerei Bonjour", "location": {"address": "Normannenstr. 37", "lat": 52.51617320285116, "lng": 13.48246095669279, "labeledLatLngs": [{"label": "display", "lat": 52.51617320285116, "lng": 13.48246095669279}], "distance": 818, "postalCode": "10367", "cc": "DE", "city": "Berlin", "state": "Berlin", "country": "Deutschland", "formattedAddress": ["Normannenstr. 37", "10367 Berlin", "Deutschland"]}, "categories": [{"id": "4bf58dd8d48988d16a941735", "name": "Bakery", "pluralName": "Bakeries", "shortName": "Bakery", "icon": {"prefix": "https://ss3.4sqi.net/img/categories_v2/food/bakery_", "suffix": ".png"}, "primary": true}], "photos": {"count": 0, "groups": []}}, "referralId": "e-0-4e3a3913b0fbca6e84b2c7c0-38"}, {"reasons": {"count": 0, "items": [{"summary": "This spot is popular", "type": "general", "reasonName": "globalInteractionReason"}]}, "venue": {"id": "503fbd0a7e2752ec471b5512", "name": "Rossmann", "location": {"address": "Frankfurter Allee 117", "lat": 52.51368862707305, "lng": 13.476703531917877, "labeledLatLngs": [{"label": "display", "lat": 52.51368862707305, "lng": 13.476703531917877}], "distance": 766, "postalCode": "10365", "cc": "DE", "city": "Berlin", "state": "Berlin", "country": "Deutschland", "formattedAddress": ["Frankfurter Allee 117", "10365 Berlin", "Deutschland"]}, "categories": [{"id": "5745c2e4498e11e7bccabdbd", "name": "Drugstore", "pluralName": "Drugstores", "shortName": "Drugstore", "icon": {"prefix": "https://ss3.4sqi.net/img/categories_v2/shops/pharmacy_", "suffix": ".png"}, "primary": true}], "photos": {"count": 0, "groups": []}}, "referralId": "e-0-503fbd0a7e2752ec471b5512-39"}, {"reasons": {"count": 0, "items": [{"summary": "This spot is popular", "type": "general", "reasonName": "globalInteractionReason"}]}, "venue": {"id": "509a9a56498ebbcaf4679302", "name": "Dunkin'", "location": {"address": "Frankfurter Allee 111, Ring Center 1", "lat": 52.514109587620204, "lng": 13.474422466270426, "labeledLatLngs": [{"label": "display", "lat": 52.514109587620204, "lng": 13.474422466270426}], "distance": 913, "postalCode": "10247", "cc": "DE", "city": "Berlin", "state": "Berlin", "country": "Deutschland", "formattedAddress": ["Frankfurter Allee 111, Ring Center 1", "10247 Berlin", "Deutschland"]}, "categories": [{"id": "4bf58dd8d48988d148941735", "name": "Donut Shop", "pluralName": "Donut Shops", "shortName": "Donuts", "icon": {"prefix": "https://ss3.4sqi.net/img/categories_v2/food/donuts_", "suffix": ".png"}, "primary": true}], "photos": {"count": 0, "groups": []}}, "referralId": "e-0-509a9a56498ebbcaf4679302-40"}, {"reasons": {"count": 0, "items": [{"summary": "This spot is popular", "type": "general", "reasonName": "globalInteractionReason"}]}, "venue": {"id": "4e3dcd3cb61cb577be7d0086", "name": "Center Grill", "location": {"address": "Frankfurter Allee 98", "lat": 52.51394178762727, "lng": 13.472736501969502, "labeledLatLngs": [{"label": "display", "lat": 52.51394178762727, "lng": 13.472736501969502}], "distance": 994, "postalCode": "10247", "cc": "DE", "city": "Berlin", "state": "Berlin", "country": "Deutschland", "formattedAddress": ["Frankfurter Allee 98", "10247 Berlin", "Deutschland"]}, "categories": [{"id": "4bf58dd8d48988d147941735", "name": "Diner", "pluralName": "Diners", "shortName": "Diner", "icon": {"prefix": "https://ss3.4sqi.net/img/categories_v2/food/diner_", "suffix": ".png"}, "primary": true}], "photos": {"count": 0, "groups": []}}, "referralId": "e-0-4e3dcd3cb61cb577be7d0086-41"}, {"reasons": {"count": 0, "items": [{"summary": "This spot is popular", "type": "general", "reasonName": "globalInteractionReason"}]}, "venue": {"id": "4c610b26048b9521ede74078", "name": "Rossmann", "location": {"address": "Weitlingstr. 22", "lat": 52.50942376214189, "lng": 13.497594594955444, "labeledLatLngs": [{"label": "display", "lat": 52.50942376214189, "lng": 13.497594594955444}], "distance": 858, "postalCode": "10317", "cc": "DE", "city": "Berlin", "state": "Berlin", "country": "Deutschland", "formattedAddress": ["Weitlingstr. 22", "10317 Berlin", "Deutschland"]}, "categories": [{"id": "5745c2e4498e11e7bccabdbd", "name": "Drugstore", "pluralName": "Drugstores", "shortName": "Drugstore", "icon": {"prefix": "https://ss3.4sqi.net/img/categories_v2/shops/pharmacy_", "suffix": ".png"}, "primary": true}], "photos": {"count": 0, "groups": []}}, "referralId": "e-0-4c610b26048b9521ede74078-42"}, {"reasons": {"count": 0, "items": [{"summary": "This spot is popular", "type": "general", "reasonName": "globalInteractionReason"}]}, "venue": {"id": "4c4884a1c047be9aa4053479", "name": "J.A.S", "location": {"address": "Kaskelstr. 27", "lat": 52.504415378061836, "lng": 13.479100836012712, "labeledLatLngs": [{"label": "display", "lat": 52.504415378061836, "lng": 13.479100836012712}], "distance": 644, "postalCode": "10317", "cc": "DE", "city": "Berlin", "state": "Berlin", "country": "Deutschland", "formattedAddress": ["Kaskelstr. 27", "10317 Berlin", "Deutschland"]}, "categories": [{"id": "4bf58dd8d48988d116941735", "name": "Bar", "pluralName": "Bars", "shortName": "Bar", "icon": {"prefix": "https://ss3.4sqi.net/img/categories_v2/nightlife/pub_", "suffix": ".png"}, "primary": true}], "photos": {"count": 0, "groups": []}}, "referralId": "e-0-4c4884a1c047be9aa4053479-43"}, {"reasons": {"count": 0, "items": [{"summary": "This spot is popular", "type": "general", "reasonName": "globalInteractionReason"}]}, "venue": {"id": "4b6ae535f964a520ace52be3", "name": "Hoa Mai Asia-Supermarkt", "location": {"address": "Frankfurter Allee 104", "lat": 52.51372434887138, "lng": 13.474257259693434, "labeledLatLngs": [{"label": "display", "lat": 52.51372434887138, "lng": 13.474257259693434}], "distance": 896, "postalCode": "10247", "cc": "DE", "city": "Berlin", "state": "Berlin", "country": "Deutschland", "formattedAddress": ["Frankfurter Allee 104", "10247 Berlin", "Deutschland"]}, "categories": [{"id": "4bf58dd8d48988d118951735", "name": "Grocery Store", "pluralName": "Grocery Stores", "shortName": "Grocery Store", "icon": {"prefix": "https://ss3.4sqi.net/img/categories_v2/shops/food_grocery_", "suffix": ".png"}, "primary": true}], "photos": {"count": 0, "groups": []}}, "referralId": "e-0-4b6ae535f964a520ace52be3-44"}, {"reasons": {"count": 0, "items": [{"summary": "This spot is popular", "type": "general", "reasonName": "globalInteractionReason"}]}, "venue": {"id": "4e8a9ae6722eef3e49d732e5", "name": "U-Back", "location": {"address": "Frankfurter Allee 195", "lat": 52.51237102604717, "lng": 13.489361904521312, "labeledLatLngs": [{"label": "display", "lat": 52.51237102604717, "lng": 13.489361904521312}], "distance": 481, "postalCode": "10365", "cc": "DE", "city": "Berlin", "state": "Berlin", "country": "Deutschland", "formattedAddress": ["Frankfurter Allee 195", "10365 Berlin", "Deutschland"]}, "categories": [{"id": "4bf58dd8d48988d16a941735", "name": "Bakery", "pluralName": "Bakeries", "shortName": "Bakery", "icon": {"prefix": "https://ss3.4sqi.net/img/categories_v2/food/bakery_", "suffix": ".png"}, "primary": true}], "photos": {"count": 0, "groups": []}}, "referralId": "e-0-4e8a9ae6722eef3e49d732e5-45"}, {"reasons": {"count": 0, "items": [{"summary": "This spot is popular", "type": "general", "reasonName": "globalInteractionReason"}]}, "venue": {"id": "4e96ffbce5e8c81815b6112a", "name": "HoLis", "location": {"address": "W\u00f6nnichstra\u00dfe 69-71", "lat": 52.50439306347737, "lng": 13.497289276195275, "labeledLatLngs": [{"label": "display", "lat": 52.50439306347737, "lng": 13.497289276195275}], "distance": 979, "cc": "DE", "city": "Berlin", "state": "Berlin", "country": "Deutschland", "formattedAddress": ["W\u00f6nnichstra\u00dfe 69-71", "Berlin", "Deutschland"]}, "categories": [{"id": "4bf58dd8d48988d1fa931735", "name": "Hotel", "pluralName": "Hotels", "shortName": "Hotel", "icon": {"prefix": "https://ss3.4sqi.net/img/categories_v2/travel/hotel_", "suffix": ".png"}, "primary": true}], "photos": {"count": 0, "groups": []}}, "referralId": "e-0-4e96ffbce5e8c81815b6112a-46"}, {"reasons": {"count": 0, "items": [{"summary": "This spot is popular", "type": "general", "reasonName": "globalInteractionReason"}]}, "venue": {"id": "4d98ca952bd6f04d52ac7050", "name": "Caf\u00e9 Backfee", "location": {"address": "Weitlingstr. 33", "crossStreet": "Margaretenstr.", "lat": 52.508102371109466, "lng": 13.497157602459549, "labeledLatLngs": [{"label": "display", "lat": 52.508102371109466, "lng": 13.497157602459549}], "distance": 833, "postalCode": "10317", "cc": "DE", "city": "Berlin", "state": "Berlin", "country": "Deutschland", "formattedAddress": ["Weitlingstr. 33 (Margaretenstr.)", "10317 Berlin", "Deutschland"]}, "categories": [{"id": "4bf58dd8d48988d16a941735", "name": "Bakery", "pluralName": "Bakeries", "shortName": "Bakery", "icon": {"prefix": "https://ss3.4sqi.net/img/categories_v2/food/bakery_", "suffix": ".png"}, "primary": true}], "photos": {"count": 0, "groups": []}}, "referralId": "e-0-4d98ca952bd6f04d52ac7050-47"}, {"reasons": {"count": 0, "items": [{"summary": "This spot is popular", "type": "general", "reasonName": "globalInteractionReason"}]}, "venue": {"id": "4b7626d1f964a52046402ee3", "name": "Rigaer Kiosk", "location": {"address": "Rigaer Strasse 56", "lat": 52.514744732905505, "lng": 13.473874136274151, "labeledLatLngs": [{"label": "display", "lat": 52.514744732905505, "lng": 13.473874136274151}], "distance": 987, "postalCode": "10247", "cc": "DE", "city": "Berlin", "state": "Berlin", "country": "Deutschland", "formattedAddress": ["Rigaer Strasse 56", "10247 Berlin", "Deutschland"]}, "categories": [{"id": "4bf58dd8d48988d1f9941735", "name": "Food & Drink Shop", "pluralName": "Food & Drink Shops", "shortName": "Food & Drink", "icon": {"prefix": "https://ss3.4sqi.net/img/categories_v2/shops/foodanddrink_", "suffix": ".png"}, "primary": true}], "photos": {"count": 0, "groups": []}}, "referralId": "e-0-4b7626d1f964a52046402ee3-48"}, {"reasons": {"count": 0, "items": [{"summary": "This spot is popular", "type": "general", "reasonName": "globalInteractionReason"}]}, "venue": {"id": "4dfddbd7aeb7594e8624e1cd", "name": "HOWOGE-Arena \"Hans Zoschke\"", "location": {"address": "Ruschestr. 90", "lat": 52.516717056888126, "lng": 13.486640453338623, "labeledLatLngs": [{"label": "display", "lat": 52.516717056888126, "lng": 13.486640453338623}], "distance": 869, "postalCode": "10367", "cc": "DE", "city": "Berlin", "state": "Berlin", "country": "Deutschland", "formattedAddress": ["Ruschestr. 90", "10367 Berlin", "Deutschland"]}, "categories": [{"id": "4bf58dd8d48988d188941735", "name": "Soccer Stadium", "pluralName": "Soccer Stadiums", "shortName": "Soccer", "icon": {"prefix": "https://ss3.4sqi.net/img/categories_v2/arts_entertainment/stadium_soccer_", "suffix": ".png"}, "primary": true}], "photos": {"count": 0, "groups": []}}, "referralId": "e-0-4dfddbd7aeb7594e8624e1cd-49"}, {"reasons": {"count": 0, "items": [{"summary": "This spot is popular", "type": "general", "reasonName": "globalInteractionReason"}]}, "venue": {"id": "57a31d52498ec8031e9b999a", "name": "OBI", "location": {"address": "Buchberger Str. 5", "lat": 52.51030039267615, "lng": 13.492010235786438, "labeledLatLngs": [{"label": "display", "lat": 52.51030039267615, "lng": 13.492010235786438}], "distance": 500, "postalCode": "10365", "cc": "DE", "city": "Berlin", "state": "Berlin", "country": "Deutschland", "formattedAddress": ["Buchberger Str. 5", "10365 Berlin-Lichtenberg", "Deutschland"]}, "categories": [{"id": "4bf58dd8d48988d112951735", "name": "Hardware Store", "pluralName": "Hardware Stores", "shortName": "Hardware", "icon": {"prefix": "https://ss3.4sqi.net/img/categories_v2/shops/hardware_", "suffix": ".png"}, "primary": true}], "photos": {"count": 0, "groups": []}}, "referralId": "e-0-57a31d52498ec8031e9b999a-50"}, {"reasons": {"count": 0, "items": [{"summary": "This spot is popular", "type": "general", "reasonName": "globalInteractionReason"}]}, "venue": {"id": "4bd9b70d0115c9b683547880", "name": "Lidl", "location": {"address": "Frankfurter Allee 212", "lat": 52.51117441796975, "lng": 13.492068383357037, "labeledLatLngs": [{"label": "display", "lat": 52.51117441796975, "lng": 13.492068383357037}], "distance": 540, "postalCode": "10365", "cc": "DE", "city": "Berlin", "state": "Berlin", "country": "Deutschland", "formattedAddress": ["Frankfurter Allee 212", "10365 Berlin", "Deutschland"]}, "categories": [{"id": "52f2ab2ebcbc57f1066b8b46", "name": "Supermarket", "pluralName": "Supermarkets", "shortName": "Supermarket", "icon": {"prefix": "https://ss3.4sqi.net/img/categories_v2/shops/food_grocery_", "suffix": ".png"}, "primary": true}], "photos": {"count": 0, "groups": []}, "venuePage": {"id": "573268209"}}, "referralId": "e-0-4bd9b70d0115c9b683547880-51"}, {"reasons": {"count": 0, "items": [{"summary": "This spot is popular", "type": "general", "reasonName": "globalInteractionReason"}]}, "venue": {"id": "4dac2708cda1652a2bb12e59", "name": "Pizzeria \u201cLedi\u201d", "location": {"address": "Weitlingstr. 28", "lat": 52.50850387020215, "lng": 13.497361592632318, "labeledLatLngs": [{"label": "display", "lat": 52.50850387020215, "lng": 13.497361592632318}], "distance": 842, "postalCode": "10317", "cc": "DE", "city": "Berlin", "state": "Berlin", "country": "Deutschland", "formattedAddress": ["Weitlingstr. 28", "10317 Berlin", "Deutschland"]}, "categories": [{"id": "4bf58dd8d48988d1ca941735", "name": "Pizza Place", "pluralName": "Pizza Places", "shortName": "Pizza", "icon": {"prefix": "https://ss3.4sqi.net/img/categories_v2/food/pizza_", "suffix": ".png"}, "primary": true}], "photos": {"count": 0, "groups": []}}, "referralId": "e-0-4dac2708cda1652a2bb12e59-52"}, {"reasons": {"count": 0, "items": [{"summary": "This spot is popular", "type": "general", "reasonName": "globalInteractionReason"}]}, "venue": {"id": "59ed97ae0c9f311104e95be6", "name": "BackWerk", "location": {"address": "Frankfurter Allee 111A", "lat": 52.51408989012353, "lng": 13.474781707023396, "labeledLatLngs": [{"label": "display", "lat": 52.51408989012353, "lng": 13.474781707023396}], "distance": 893, "postalCode": "10247", "cc": "DE", "city": "Berlin", "state": "Berlin", "country": "Deutschland", "formattedAddress": ["Frankfurter Allee 111A", "10247 Berlin", "Deutschland"]}, "categories": [{"id": "4bf58dd8d48988d16a941735", "name": "Bakery", "pluralName": "Bakeries", "shortName": "Bakery", "icon": {"prefix": "https://ss3.4sqi.net/img/categories_v2/food/bakery_", "suffix": ".png"}, "primary": true}], "photos": {"count": 0, "groups": []}, "venuePage": {"id": "557861977"}}, "referralId": "e-0-59ed97ae0c9f311104e95be6-53"}, {"reasons": {"count": 0, "items": [{"summary": "This spot is popular", "type": "general", "reasonName": "globalInteractionReason"}]}, "venue": {"id": "4da715eb5da37feee8966525", "name": "SUBWAY", "location": {"address": "Frankfurter Allee 113", "crossStreet": "Aussenbereich", "lat": 52.513968338604734, "lng": 13.475536108016968, "labeledLatLngs": [{"label": "display", "lat": 52.513968338604734, "lng": 13.475536108016968}], "distance": 845, "postalCode": "10365", "cc": "DE", "city": "Berlin", "state": "Berlin", "country": "Deutschland", "formattedAddress": ["Frankfurter Allee 113 (Aussenbereich)", "10365 Berlin", "Deutschland"]}, "categories": [{"id": "4bf58dd8d48988d1c5941735", "name": "Sandwich Place", "pluralName": "Sandwich Places", "shortName": "Sandwiches", "icon": {"prefix": "https://ss3.4sqi.net/img/categories_v2/food/deli_", "suffix": ".png"}, "primary": true}], "photos": {"count": 0, "groups": []}, "venuePage": {"id": "575010686"}}, "referralId": "e-0-4da715eb5da37feee8966525-54"}, {"reasons": {"count": 0, "items": [{"summary": "This spot is popular", "type": "general", "reasonName": "globalInteractionReason"}]}, "venue": {"id": "4c5be08b94fd0f47e30bc745", "name": "Aastha Restaurant", "location": {"address": "Parkaue 35", "crossStreet": "M\u00f6llendorffstr.", "lat": 52.51676911054223, "lng": 13.479351036226014, "labeledLatLngs": [{"label": "display", "lat": 52.51676911054223, "lng": 13.479351036226014}], "distance": 946, "postalCode": "10367", "cc": "DE", "city": "Berlin", "state": "Berlin", "country": "Deutschland", "formattedAddress": ["Parkaue 35 (M\u00f6llendorffstr.)", "10367 Berlin", "Deutschland"]}, "categories": [{"id": "4bf58dd8d48988d10f941735", "name": "Indian Restaurant", "pluralName": "Indian Restaurants", "shortName": "Indian", "icon": {"prefix": "https://ss3.4sqi.net/img/categories_v2/food/indian_", "suffix": ".png"}, "primary": true}], "photos": {"count": 0, "groups": []}}, "referralId": "e-0-4c5be08b94fd0f47e30bc745-55"}, {"reasons": {"count": 0, "items": [{"summary": "This spot is popular", "type": "general", "reasonName": "globalInteractionReason"}]}, "venue": {"id": "5149d389e4b0d62af82b247e", "name": "Berk's B\u00e4ckerei & Bistro", "location": {"address": "Frankfurter Allee 172", "lat": 52.512694892580676, "lng": 13.485254945419072, "labeledLatLngs": [{"label": "display", "lat": 52.512694892580676, "lng": 13.485254945419072}], "distance": 414, "postalCode": "10365", "cc": "DE", "city": "Berlin", "state": "Berlin", "country": "Deutschland", "formattedAddress": ["Frankfurter Allee 172", "10365 Berlin", "Deutschland"]}, "categories": [{"id": "4bf58dd8d48988d16a941735", "name": "Bakery", "pluralName": "Bakeries", "shortName": "Bakery", "icon": {"prefix": "https://ss3.4sqi.net/img/categories_v2/food/bakery_", "suffix": ".png"}, "primary": true}], "photos": {"count": 0, "groups": []}}, "referralId": "e-0-5149d389e4b0d62af82b247e-56"}, {"reasons": {"count": 0, "items": [{"summary": "This spot is popular", "type": "general", "reasonName": "globalInteractionReason"}]}, "venue": {"id": "52b0777d498ec94719e97a5c", "name": "ALDI NORD", "location": {"address": "Frankfurter Allee 144", "lat": 52.51239073630565, "lng": 13.481309490636074, "labeledLatLngs": [{"label": "display", "lat": 52.51239073630565, "lng": 13.481309490636074}], "distance": 452, "postalCode": "10365", "cc": "DE", "city": "Berlin", "state": "Berlin", "country": "Deutschland", "formattedAddress": ["Frankfurter Allee 144", "10365 Berlin", "Deutschland"]}, "categories": [{"id": "52f2ab2ebcbc57f1066b8b46", "name": "Supermarket", "pluralName": "Supermarkets", "shortName": "Supermarket", "icon": {"prefix": "https://ss3.4sqi.net/img/categories_v2/shops/food_grocery_", "suffix": ".png"}, "primary": true}], "photos": {"count": 0, "groups": []}}, "referralId": "e-0-52b0777d498ec94719e97a5c-57"}, {"reasons": {"count": 0, "items": [{"summary": "This spot is popular", "type": "general", "reasonName": "globalInteractionReason"}]}, "venue": {"id": "4ba907acf964a52009053ae3", "name": "Deutsche Bank", "location": {"address": "Frankfurter Allee 113", "lat": 52.514512, "lng": 13.476408, "labeledLatLngs": [{"label": "display", "lat": 52.514512, "lng": 13.476408}], "distance": 845, "postalCode": "10365", "cc": "DE", "city": "Berlin", "state": "Berlin", "country": "Deutschland", "formattedAddress": ["Frankfurter Allee 113", "10365 Berlin", "Deutschland"]}, "categories": [{"id": "4bf58dd8d48988d10a951735", "name": "Bank", "pluralName": "Banks", "shortName": "Bank", "icon": {"prefix": "https://ss3.4sqi.net/img/categories_v2/shops/financial_", "suffix": ".png"}, "primary": true}], "photos": {"count": 0, "groups": []}}, "referralId": "e-0-4ba907acf964a52009053ae3-58"}, {"reasons": {"count": 0, "items": [{"summary": "This spot is popular", "type": "general", "reasonName": "globalInteractionReason"}]}, "venue": {"id": "50ad553fe4b0651a472ee969", "name": "Lichtenberg vorm Einfahrsignal", "location": {"lat": 52.50825500488281, "lng": 13.49429988861084, "labeledLatLngs": [{"label": "display", "lat": 52.50825500488281, "lng": 13.49429988861084}], "distance": 638, "cc": "DE", "city": "Berlin", "state": "Berlin", "country": "Deutschland", "formattedAddress": ["Berlin", "Deutschland"]}, "categories": [{"id": "4bf58dd8d48988d129951735", "name": "Train Station", "pluralName": "Train Stations", "shortName": "Train Station", "icon": {"prefix": "https://ss3.4sqi.net/img/categories_v2/travel/trainstation_", "suffix": ".png"}, "primary": true}], "photos": {"count": 0, "groups": []}}, "referralId": "e-0-50ad553fe4b0651a472ee969-59"}, {"reasons": {"count": 0, "items": [{"summary": "This spot is popular", "type": "general", "reasonName": "globalInteractionReason"}]}, "venue": {"id": "4b713449f964a520723c2de3", "name": "H&M", "location": {"address": "Frankfurter Allee 111", "lat": 52.51437416576273, "lng": 13.473755215527492, "labeledLatLngs": [{"label": "display", "lat": 52.51437416576273, "lng": 13.473755215527492}], "distance": 967, "postalCode": "10247", "cc": "DE", "neighborhood": "Samariterkiez", "city": "Berlin", "state": "Berlin", "country": "Deutschland", "formattedAddress": ["Frankfurter Allee 111", "10247 Berlin", "Deutschland"]}, "categories": [{"id": "4bf58dd8d48988d103951735", "name": "Clothing Store", "pluralName": "Clothing Stores", "shortName": "Apparel", "icon": {"prefix": "https://ss3.4sqi.net/img/categories_v2/shops/apparel_", "suffix": ".png"}, "primary": true}], "photos": {"count": 0, "groups": []}}, "referralId": "e-0-4b713449f964a520723c2de3-60"}, {"reasons": {"count": 0, "items": [{"summary": "This spot is popular", "type": "general", "reasonName": "globalInteractionReason"}]}, "venue": {"id": "4d921acf56a3f04d2276f241", "name": "Victoria Bistro", "location": {"address": "Kaskelstra\u00dfe 19", "lat": 52.50465002305062, "lng": 13.47789099711944, "labeledLatLngs": [{"label": "display", "lat": 52.50465002305062, "lng": 13.47789099711944}], "distance": 678, "postalCode": "10317", "cc": "DE", "city": "Berlin", "state": "Berlin", "country": "Deutschland", "formattedAddress": ["Kaskelstra\u00dfe 19", "10317 Berlin", "Deutschland"]}, "categories": [{"id": "4bf58dd8d48988d149941735", "name": "Thai Restaurant", "pluralName": "Thai Restaurants", "shortName": "Thai", "icon": {"prefix": "https://ss3.4sqi.net/img/categories_v2/food/thai_", "suffix": ".png"}, "primary": true}], "photos": {"count": 0, "groups": []}}, "referralId": "e-0-4d921acf56a3f04d2276f241-61"}, {"reasons": {"count": 0, "items": [{"summary": "This spot is popular", "type": "general", "reasonName": "globalInteractionReason"}]}, "venue": {"id": "55b791f1498e538abc260cf7", "name": "Eis Kaffee Im Weitlingkiez (Barletta-Eis)", "location": {"address": "Margaretenstr. 27", "lat": 52.507944069391726, "lng": 13.49742744711661, "labeledLatLngs": [{"label": "display", "lat": 52.507944069391726, "lng": 13.49742744711661}], "distance": 853, "postalCode": "10317", "cc": "DE", "city": "Berlin", "state": "Berlin", "country": "Deutschland", "formattedAddress": ["Margaretenstr. 27", "10317 Berlin", "Deutschland"]}, "categories": [{"id": "4bf58dd8d48988d1e0931735", "name": "Coffee Shop", "pluralName": "Coffee Shops", "shortName": "Coffee Shop", "icon": {"prefix": "https://ss3.4sqi.net/img/categories_v2/food/coffeeshop_", "suffix": ".png"}, "primary": true}], "photos": {"count": 0, "groups": []}}, "referralId": "e-0-55b791f1498e538abc260cf7-62"}, {"reasons": {"count": 0, "items": [{"summary": "This spot is popular", "type": "general", "reasonName": "globalInteractionReason"}]}, "venue": {"id": "4ba9091ff964a5208f053ae3", "name": "NORDSEE", "location": {"address": "Frankfurter Allee 111", "lat": 52.514088414677616, "lng": 13.474182286487286, "labeledLatLngs": [{"label": "display", "lat": 52.514088414677616, "lng": 13.474182286487286}], "distance": 924, "postalCode": "10247", "cc": "DE", "city": "Berlin", "state": "Berlin", "country": "Deutschland", "formattedAddress": ["Frankfurter Allee 111", "10247 Berlin", "Deutschland"]}, "categories": [{"id": "4bf58dd8d48988d1ce941735", "name": "Seafood Restaurant", "pluralName": "Seafood Restaurants", "shortName": "Seafood", "icon": {"prefix": "https://ss3.4sqi.net/img/categories_v2/food/seafood_", "suffix": ".png"}, "primary": true}], "photos": {"count": 0, "groups": []}, "venuePage": {"id": "474956338"}}, "referralId": "e-0-4ba9091ff964a5208f053ae3-63"}, {"reasons": {"count": 0, "items": [{"summary": "This spot is popular", "type": "general", "reasonName": "globalInteractionReason"}]}, "venue": {"id": "4e99a17a2c5bf14846bed9ba", "name": "Heimat.Wein", "location": {"address": "T\u00fcrrschmidtstr. 36", "lat": 52.50307927205693, "lng": 13.480472885951356, "labeledLatLngs": [{"label": "display", "lat": 52.50307927205693, "lng": 13.480472885951356}], "distance": 723, "postalCode": "10317", "cc": "DE", "city": "Berlin", "state": "Berlin", "country": "Deutschland", "formattedAddress": ["T\u00fcrrschmidtstr. 36", "10317 Berlin", "Deutschland"]}, "categories": [{"id": "4bf58dd8d48988d119951735", "name": "Wine Shop", "pluralName": "Wine Shops", "shortName": "Wine Shop", "icon": {"prefix": "https://ss3.4sqi.net/img/categories_v2/shops/food_wineshop_", "suffix": ".png"}, "primary": true}], "photos": {"count": 0, "groups": []}}, "referralId": "e-0-4e99a17a2c5bf14846bed9ba-64"}, {"reasons": {"count": 0, "items": [{"summary": "This spot is popular", "type": "general", "reasonName": "globalInteractionReason"}]}, "venue": {"id": "4e5369861495a46b65b65b59", "name": "Coffee Fellows", "location": {"address": "Frankfurter Allee 113", "lat": 52.513848482449035, "lng": 13.475698058438658, "labeledLatLngs": [{"label": "display", "lat": 52.513848482449035, "lng": 13.475698058438658}], "distance": 828, "postalCode": "10365", "cc": "DE", "city": "Berlin", "state": "Berlin", "country": "Deutschland", "formattedAddress": ["Frankfurter Allee 113", "10365 Berlin", "Deutschland"]}, "categories": [{"id": "4bf58dd8d48988d1e0931735", "name": "Coffee Shop", "pluralName": "Coffee Shops", "shortName": "Coffee Shop", "icon": {"prefix": "https://ss3.4sqi.net/img/categories_v2/food/coffeeshop_", "suffix": ".png"}, "primary": true}], "photos": {"count": 0, "groups": []}}, "referralId": "e-0-4e5369861495a46b65b65b59-65"}, {"reasons": {"count": 0, "items": [{"summary": "This spot is popular", "type": "general", "reasonName": "globalInteractionReason"}]}, "venue": {"id": "4f0ca64ee4b0497598cfcad6", "name": "Rathauspark", "location": {"address": "Rathausstr.", "crossStreet": "M\u00f6llendorffstr.", "lat": 52.51487589168357, "lng": 13.479655981063843, "labeledLatLngs": [{"label": "display", "lat": 52.51487589168357, "lng": 13.479655981063843}], "distance": 748, "postalCode": "10367", "cc": "DE", "city": "Berlin", "state": "Berlin", "country": "Deutschland", "formattedAddress": ["Rathausstr. (M\u00f6llendorffstr.)", "10367 Berlin", "Deutschland"]}, "categories": [{"id": "4bf58dd8d48988d163941735", "name": "Park", "pluralName": "Parks", "shortName": "Park", "icon": {"prefix": "https://ss3.4sqi.net/img/categories_v2/parks_outdoors/park_", "suffix": ".png"}, "primary": true}], "photos": {"count": 0, "groups": []}}, "referralId": "e-0-4f0ca64ee4b0497598cfcad6-66"}, {"reasons": {"count": 0, "items": [{"summary": "This spot is popular", "type": "general", "reasonName": "globalInteractionReason"}]}, "venue": {"id": "4d2ca173915fa093c721210a", "name": "Coco's Asia & Sushi Spezialit\u00e4ten", "location": {"address": "Weitlingstra\u00dfe 23", "lat": 52.508653, "lng": 13.497171, "labeledLatLngs": [{"label": "display", "lat": 52.508653, "lng": 13.497171}], "distance": 829, "postalCode": "10317", "cc": "DE", "city": "Berlin", "state": "Berlin", "country": "Deutschland", "formattedAddress": ["Weitlingstra\u00dfe 23", "10317 Berlin", "Deutschland"]}, "categories": [{"id": "4bf58dd8d48988d142941735", "name": "Asian Restaurant", "pluralName": "Asian Restaurants", "shortName": "Asian", "icon": {"prefix": "https://ss3.4sqi.net/img/categories_v2/food/asian_", "suffix": ".png"}, "primary": true}], "photos": {"count": 0, "groups": []}}, "referralId": "e-0-4d2ca173915fa093c721210a-67"}, {"reasons": {"count": 0, "items": [{"summary": "This spot is popular", "type": "general", "reasonName": "globalInteractionReason"}]}, "venue": {"id": "51e646cb498e32915449076e", "name": "Gleis 21/22", "location": {"address": "Bahnhof Berlin-Lichtenberg", "lat": 52.51041, "lng": 13.496003, "labeledLatLngs": [{"label": "display", "lat": 52.51041, "lng": 13.496003}], "distance": 765, "postalCode": "10317", "cc": "DE", "city": "Berlin", "state": "Berlin", "country": "Deutschland", "formattedAddress": ["Bahnhof Berlin-Lichtenberg", "10317 Berlin", "Deutschland"]}, "categories": [{"id": "4f4531504b9074f6e4fb0102", "name": "Platform", "pluralName": "Platforms", "shortName": "Platform", "icon": {"prefix": "https://ss3.4sqi.net/img/categories_v2/travel/trainstation_", "suffix": ".png"}, "primary": true}], "photos": {"count": 0, "groups": []}}, "referralId": "e-0-51e646cb498e32915449076e-68"}, {"reasons": {"count": 0, "items": [{"summary": "This spot is popular", "type": "general", "reasonName": "globalInteractionReason"}]}, "venue": {"id": "509a5de5e4b07ae84fb00cb0", "name": "Fresko Griechische Feinkost", "location": {"address": "Frankfurter Allee 117", "crossStreet": "M\u00f6llendorffstr.", "lat": 52.51402232883063, "lng": 13.477041523481645, "labeledLatLngs": [{"label": "display", "lat": 52.51402232883063, "lng": 13.477041523481645}], "distance": 776, "postalCode": "10247", "cc": "DE", "city": "Berlin", "state": "Berlin", "country": "Deutschland", "formattedAddress": ["Frankfurter Allee 117 (M\u00f6llendorffstr.)", "10247 Berlin", "Deutschland"]}, "categories": [{"id": "4bf58dd8d48988d1f5941735", "name": "Gourmet Shop", "pluralName": "Gourmet Shops", "shortName": "Gourmet", "icon": {"prefix": "https://ss3.4sqi.net/img/categories_v2/shops/food_gourmet_", "suffix": ".png"}, "primary": true}], "photos": {"count": 0, "groups": []}}, "referralId": "e-0-509a5de5e4b07ae84fb00cb0-69"}, {"reasons": {"count": 0, "items": [{"summary": "This spot is popular", "type": "general", "reasonName": "globalInteractionReason"}]}, "venue": {"id": "5299c829498e02ea6afedda1", "name": "PENNY", "location": {"address": "Weitlingstra\u00dfe 9", "crossStreet": "W\u00f6nnichstr.", "lat": 52.51006055926029, "lng": 13.499127876537386, "labeledLatLngs": [{"label": "display", "lat": 52.51006055926029, "lng": 13.499127876537386}], "distance": 968, "postalCode": "10317", "cc": "DE", "city": "Berlin", "state": "Berlin", "country": "Deutschland", "formattedAddress": ["Weitlingstra\u00dfe 9 (W\u00f6nnichstr.)", "10317 Berlin", "Deutschland"]}, "categories": [{"id": "52f2ab2ebcbc57f1066b8b46", "name": "Supermarket", "pluralName": "Supermarkets", "shortName": "Supermarket", "icon": {"prefix": "https://ss3.4sqi.net/img/categories_v2/shops/food_grocery_", "suffix": ".png"}, "primary": true}], "photos": {"count": 0, "groups": []}, "venuePage": {"id": "560105682"}}, "referralId": "e-0-5299c829498e02ea6afedda1-70"}, {"reasons": {"count": 0, "items": [{"summary": "This spot is popular", "type": "general", "reasonName": "globalInteractionReason"}]}, "venue": {"id": "4bd9752811dcc928a2cbf933", "name": "Ernsting's family", "location": {"address": "Frankfurter Allee 113", "lat": 52.51384066360232, "lng": 13.47635865841406, "labeledLatLngs": [{"label": "display", "lat": 52.51384066360232, "lng": 13.47635865841406}], "distance": 794, "postalCode": "10247", "cc": "DE", "city": "Berlin", "state": "Berlin", "country": "Deutschland", "formattedAddress": ["Frankfurter Allee 113", "10247 Berlin", "Deutschland"]}, "categories": [{"id": "4bf58dd8d48988d103951735", "name": "Clothing Store", "pluralName": "Clothing Stores", "shortName": "Apparel", "icon": {"prefix": "https://ss3.4sqi.net/img/categories_v2/shops/apparel_", "suffix": ".png"}, "primary": true}], "photos": {"count": 0, "groups": []}}, "referralId": "e-0-4bd9752811dcc928a2cbf933-71"}, {"reasons": {"count": 0, "items": [{"summary": "This spot is popular", "type": "general", "reasonName": "globalInteractionReason"}]}, "venue": {"id": "52a75e61498ebc5220e9389f", "name": "totsicher", "location": {"address": "Margaretenstr. 2", "lat": 52.50800494815689, "lng": 13.497108561033412, "labeledLatLngs": [{"label": "display", "lat": 52.50800494815689, "lng": 13.497108561033412}], "distance": 831, "postalCode": "10317", "cc": "DE", "city": "Berlin", "state": "Berlin", "country": "Deutschland", "formattedAddress": ["Margaretenstr. 2", "10317 Berlin", "Deutschland"]}, "categories": [{"id": "4bf58dd8d48988d114951735", "name": "Bookstore", "pluralName": "Bookstores", "shortName": "Bookstore", "icon": {"prefix": "https://ss3.4sqi.net/img/categories_v2/shops/bookstore_", "suffix": ".png"}, "primary": true}], "photos": {"count": 0, "groups": []}}, "referralId": "e-0-52a75e61498ebc5220e9389f-72"}, {"reasons": {"count": 0, "items": [{"summary": "This spot is popular", "type": "general", "reasonName": "globalInteractionReason"}]}, "venue": {"id": "4c7bc4633badb1f7c8c45554", "name": "Ditsch", "location": {"address": "Weitlingstr. 22", "crossStreet": "S+U Lichtenberg", "lat": 52.50938769, "lng": 13.49727802, "labeledLatLngs": [{"label": "display", "lat": 52.50938769, "lng": 13.49727802}], "distance": 836, "postalCode": "10317", "cc": "DE", "city": "Berlin", "state": "Berlin", "country": "Deutschland", "formattedAddress": ["Weitlingstr. 22 (S+U Lichtenberg)", "10317 Berlin", "Deutschland"]}, "categories": [{"id": "4bf58dd8d48988d16a941735", "name": "Bakery", "pluralName": "Bakeries", "shortName": "Bakery", "icon": {"prefix": "https://ss3.4sqi.net/img/categories_v2/food/bakery_", "suffix": ".png"}, "primary": true}], "photos": {"count": 0, "groups": []}}, "referralId": "e-0-4c7bc4633badb1f7c8c45554-73"}, {"reasons": {"count": 0, "items": [{"summary": "This spot is popular", "type": "general", "reasonName": "globalInteractionReason"}]}, "venue": {"id": "53b62a19498e02ac539e8083", "name": "Lichtenberg Kanzlei", "location": {"address": "Frankfurter Allee 244", "lat": 52.511685072753615, "lng": 13.49652381973093, "labeledLatLngs": [{"label": "display", "lat": 52.511685072753615, "lng": 13.49652381973093}], "distance": 840, "postalCode": "10365", "cc": "DE", "city": "Berlin", "state": "Berlin", "country": "Deutschland", "formattedAddress": ["Frankfurter Allee 244", "10365 Berlin", "Deutschland"]}, "categories": [{"id": "52f2ab2ebcbc57f1066b8b3f", "name": "Lawyer", "pluralName": "Lawyers", "shortName": "Lawyer", "icon": {"prefix": "https://ss3.4sqi.net/img/categories_v2/education/lawschool_", "suffix": ".png"}, "primary": true}], "photos": {"count": 0, "groups": []}, "venuePage": {"id": "89597000"}}, "referralId": "e-0-53b62a19498e02ac539e8083-74"}, {"reasons": {"count": 0, "items": [{"summary": "This spot is popular", "type": "general", "reasonName": "globalInteractionReason"}]}, "venue": {"id": "548ff2de498ea9eebfcd20a3", "name": "Carpe Diem Caf\u00e9 & B\u00e4ckerei", "location": {"address": "Leopoldstr. 22", "lat": 52.50225236098114, "lng": 13.490609020828984, "labeledLatLngs": [{"label": "display", "lat": 52.50225236098114, "lng": 13.490609020828984}], "distance": 841, "postalCode": "10317", "cc": "DE", "city": "Berlin", "state": "Berlin", "country": "Deutschland", "formattedAddress": ["Leopoldstr. 22", "10317 Berlin", "Deutschland"]}, "categories": [{"id": "4bf58dd8d48988d16a941735", "name": "Bakery", "pluralName": "Bakeries", "shortName": "Bakery", "icon": {"prefix": "https://ss3.4sqi.net/img/categories_v2/food/bakery_", "suffix": ".png"}, "primary": true}], "photos": {"count": 0, "groups": []}}, "referralId": "e-0-548ff2de498ea9eebfcd20a3-75"}, {"reasons": {"count": 0, "items": [{"summary": "This spot is popular", "type": "general", "reasonName": "globalInteractionReason"}]}, "venue": {"id": "4dc671e4ae608779d1542cb2", "name": "Ludwig. Presse und Buch", "location": {"address": "Weitlingstra\u00dfe 22, Bahnhof Lichtenberg", "lat": 52.509739, "lng": 13.4973, "labeledLatLngs": [{"label": "display", "lat": 52.509739, "lng": 13.4973}], "distance": 841, "postalCode": "10317", "cc": "DE", "city": "Berlin", "state": "Berlin", "country": "Deutschland", "formattedAddress": ["Weitlingstra\u00dfe 22, Bahnhof Lichtenberg", "10317 Berlin", "Deutschland"]}, "categories": [{"id": "4bf58dd8d48988d114951735", "name": "Bookstore", "pluralName": "Bookstores", "shortName": "Bookstore", "icon": {"prefix": "https://ss3.4sqi.net/img/categories_v2/shops/bookstore_", "suffix": ".png"}, "primary": true}], "photos": {"count": 0, "groups": []}}, "referralId": "e-0-4dc671e4ae608779d1542cb2-76"}, {"reasons": {"count": 0, "items": [{"summary": "This spot is popular", "type": "general", "reasonName": "globalInteractionReason"}]}, "venue": {"id": "4f870f18e4b03a0f23444586", "name": "Gleis 17/20", "location": {"address": "Bahnhof Berlin-Lichtenberg", "lat": 52.51044241497151, "lng": 13.49716544151306, "labeledLatLngs": [{"label": "display", "lat": 52.51044241497151, "lng": 13.49716544151306}], "distance": 843, "postalCode": "10317", "cc": "DE", "city": "Berlin", "state": "Berlin", "country": "Deutschland", "formattedAddress": ["Bahnhof Berlin-Lichtenberg", "10317 Berlin", "Deutschland"]}, "categories": [{"id": "4f4531504b9074f6e4fb0102", "name": "Platform", "pluralName": "Platforms", "shortName": "Platform", "icon": {"prefix": "https://ss3.4sqi.net/img/categories_v2/travel/trainstation_", "suffix": ".png"}, "primary": true}], "photos": {"count": 0, "groups": []}}, "referralId": "e-0-4f870f18e4b03a0f23444586-77"}, {"reasons": {"count": 0, "items": [{"summary": "This spot is popular", "type": "general", "reasonName": "globalInteractionReason"}]}, "venue": {"id": "51b59f35498e0d4afc18ee83", "name": "Elsen Apotheke", "location": {"address": "Weitlingstr. 73", "lat": 52.5047254, "lng": 13.4953083, "labeledLatLngs": [{"label": "display", "lat": 52.5047254, "lng": 13.4953083}], "distance": 846, "postalCode": "10317", "cc": "DE", "neighborhood": "Weitlingkiez West", "city": "Berlin", "state": "Berlin", "country": "Deutschland", "formattedAddress": ["Weitlingstr. 73", "10317 Berlin", "Deutschland"]}, "categories": [{"id": "4bf58dd8d48988d10f951735", "name": "Pharmacy", "pluralName": "Pharmacies", "shortName": "Pharmacy", "icon": {"prefix": "https://ss3.4sqi.net/img/categories_v2/shops/pharmacy_", "suffix": ".png"}, "primary": true}], "photos": {"count": 0, "groups": []}}, "referralId": "e-0-51b59f35498e0d4afc18ee83-78"}, {"reasons": {"count": 0, "items": [{"summary": "This spot is popular", "type": "general", "reasonName": "globalInteractionReason"}]}, "venue": {"id": "54392529498e0160f9f1ca09", "name": "Lichtenberg-Apotheke", "location": {"address": "Bahnhof Lichtenberg", "lat": 52.5091815727855, "lng": 13.497516790208156, "labeledLatLngs": [{"label": "display", "lat": 52.5091815727855, "lng": 13.497516790208156}], "distance": 851, "cc": "DE", "city": "Berlin", "state": "Berlin", "country": "Deutschland", "formattedAddress": ["Bahnhof Lichtenberg", "Berlin", "Deutschland"]}, "categories": [{"id": "4bf58dd8d48988d10f951735", "name": "Pharmacy", "pluralName": "Pharmacies", "shortName": "Pharmacy", "icon": {"prefix": "https://ss3.4sqi.net/img/categories_v2/shops/pharmacy_", "suffix": ".png"}, "primary": true}], "photos": {"count": 0, "groups": []}}, "referralId": "e-0-54392529498e0160f9f1ca09-79"}, {"reasons": {"count": 0, "items": [{"summary": "This spot is popular", "type": "general", "reasonName": "globalInteractionReason"}]}, "venue": {"id": "4fe4187de4b03373384abb9d", "name": "H M\u00fcnsterlandplatz", "location": {"address": "Weitlingstr.", "crossStreet": "M\u00fcnsterlandplatz", "lat": 52.503678319897396, "lng": 13.494469529762338, "labeledLatLngs": [{"label": "display", "lat": 52.503678319897396, "lng": 13.494469529762338}], "distance": 874, "cc": "DE", "city": "Berlin", "state": "Berlin", "country": "Deutschland", "formattedAddress": ["Weitlingstr. (M\u00fcnsterlandplatz)", "Berlin", "Deutschland"]}, "categories": [{"id": "52f2ab2ebcbc57f1066b8b4f", "name": "Bus Stop", "pluralName": "Bus Stops", "shortName": "Bus Stop", "icon": {"prefix": "https://ss3.4sqi.net/img/categories_v2/travel/busstation_", "suffix": ".png"}, "primary": true}], "photos": {"count": 0, "groups": []}}, "referralId": "e-0-4fe4187de4b03373384abb9d-80"}, {"reasons": {"count": 0, "items": [{"summary": "This spot is popular", "type": "general", "reasonName": "globalInteractionReason"}]}, "venue": {"id": "5023e9fae4b01a8c9c15e086", "name": "Kiez Shop", "location": {"address": "Frankfurter Allee 248", "lat": 52.51197250061232, "lng": 13.497179391966117, "labeledLatLngs": [{"label": "display", "lat": 52.51197250061232, "lng": 13.497179391966117}], "distance": 893, "postalCode": "10365", "cc": "DE", "city": "Berlin", "state": "Berlin", "country": "Deutschland", "formattedAddress": ["Frankfurter Allee 248", "10365 Berlin", "Deutschland"]}, "categories": [{"id": "4d954b0ea243a5684a65b473", "name": "Convenience Store", "pluralName": "Convenience Stores", "shortName": "Convenience Store", "icon": {"prefix": "https://ss3.4sqi.net/img/categories_v2/shops/conveniencestore_", "suffix": ".png"}, "primary": true}], "photos": {"count": 0, "groups": []}}, "referralId": "e-0-5023e9fae4b01a8c9c15e086-81"}, {"reasons": {"count": 0, "items": [{"summary": "This spot is popular", "type": "general", "reasonName": "globalInteractionReason"}]}, "venue": {"id": "5043d6bde4b01c180a65ee52", "name": "Hotel Pension Adamshof", "location": {"address": "Emanuelstr. 3", "lat": 52.501739559195755, "lng": 13.49136651181931, "labeledLatLngs": [{"label": "display", "lat": 52.501739559195755, "lng": 13.49136651181931}], "distance": 915, "postalCode": "10317", "cc": "DE", "city": "Berlin", "state": "Berlin", "country": "Deutschland", "formattedAddress": ["Emanuelstr. 3", "10317 Berlin", "Deutschland"]}, "categories": [{"id": "4f4530a74b9074f6e4fb0100", "name": "Boarding House", "pluralName": "Boarding Houses", "shortName": "Boarding", "icon": {"prefix": "https://ss3.4sqi.net/img/categories_v2/travel/hotel_", "suffix": ".png"}, "primary": true}], "photos": {"count": 0, "groups": []}}, "referralId": "e-0-5043d6bde4b01c180a65ee52-82"}, {"reasons": {"count": 0, "items": [{"summary": "This spot is popular", "type": "general", "reasonName": "globalInteractionReason"}]}, "venue": {"id": "4c23229d9085d13a3c6487cc", "name": "M\u00fcnsterlandplatz", "location": {"address": "M\u00fcnsterlandplatz", "lat": 52.50386646464709, "lng": 13.495652675628662, "labeledLatLngs": [{"label": "display", "lat": 52.50386646464709, "lng": 13.495652675628662}], "distance": 921, "postalCode": "10317", "cc": "DE", "city": "Berlin", "state": "Berlin", "country": "Deutschland", "formattedAddress": ["M\u00fcnsterlandplatz", "10317 Berlin", "Deutschland"]}, "categories": [{"id": "4bf58dd8d48988d163941735", "name": "Park", "pluralName": "Parks", "shortName": "Park", "icon": {"prefix": "https://ss3.4sqi.net/img/categories_v2/parks_outdoors/park_", "suffix": ".png"}, "primary": true}], "photos": {"count": 0, "groups": []}}, "referralId": "e-0-4c23229d9085d13a3c6487cc-83"}, {"reasons": {"count": 0, "items": [{"summary": "This spot is popular", "type": "general", "reasonName": "globalInteractionReason"}]}, "venue": {"id": "4b63fc33f964a520fb992ae3", "name": "Spiele Max", "location": {"address": "Frankfurter Allee 111", "lat": 52.514244386593, "lng": 13.474195168362428, "labeledLatLngs": [{"label": "display", "lat": 52.514244386593, "lng": 13.474195168362428}], "distance": 935, "postalCode": "10247", "cc": "DE", "city": "Berlin", "state": "Berlin", "country": "Deutschland", "formattedAddress": ["Frankfurter Allee 111", "10247 Berlin", "Deutschland"]}, "categories": [{"id": "4bf58dd8d48988d1f3941735", "name": "Toy / Game Store", "pluralName": "Toy / Game Stores", "shortName": "Toys & Games", "icon": {"prefix": "https://ss3.4sqi.net/img/categories_v2/shops/toys_", "suffix": ".png"}, "primary": true}], "photos": {"count": 0, "groups": []}}, "referralId": "e-0-4b63fc33f964a520fb992ae3-84"}, {"reasons": {"count": 0, "items": [{"summary": "This spot is popular", "type": "general", "reasonName": "globalInteractionReason"}]}, "venue": {"id": "56ffe3e8498e3e564b37b49e", "name": "Smart Room - Live Escape Game", "location": {"address": "N\u00f6ldnerstr. 1", "lat": 52.50207, "lng": 13.47585, "labeledLatLngs": [{"label": "display", "lat": 52.50207, "lng": 13.47585}], "distance": 985, "postalCode": "10317", "cc": "DE", "city": "Berlin", "state": "Berlin", "country": "Deutschland", "formattedAddress": ["N\u00f6ldnerstr. 1", "10317 Berlin", "Deutschland"]}, "categories": [{"id": "5109983191d435c0d71c2bb1", "name": "Theme Park Ride / Attraction", "pluralName": "Theme Park Rides/Attractions", "shortName": "Theme Park", "icon": {"prefix": "https://ss3.4sqi.net/img/categories_v2/arts_entertainment/themepark_", "suffix": ".png"}, "primary": true}], "photos": {"count": 0, "groups": []}}, "referralId": "e-0-56ffe3e8498e3e564b37b49e-85"}, {"reasons": {"count": 0, "items": [{"summary": "This spot is popular", "type": "general", "reasonName": "globalInteractionReason"}]}, "venue": {"id": "575ef340498e140b4e43d249", "name": "Akcan D\u00f6ner", "location": {"lat": 52.514908, "lng": 13.473832, "labeledLatLngs": [{"label": "display", "lat": 52.514908, "lng": 13.473832}], "distance": 1001, "cc": "DE", "city": "Berlin", "state": "Berlin", "country": "Deutschland", "formattedAddress": ["Berlin", "Deutschland"]}, "categories": [{"id": "5283c7b4e4b094cb91ec88d8", "name": "Doner Restaurant", "pluralName": "Doner Restaurants", "shortName": "Doner", "icon": {"prefix": "https://ss3.4sqi.net/img/categories_v2/food/turkish_", "suffix": ".png"}, "primary": true}], "photos": {"count": 0, "groups": []}}, "referralId": "e-0-575ef340498e140b4e43d249-86"}]