[{"reasons": {"count": 0, "items": [{"summary": "This spot is popular", "type": "general", "reasonName": "globalInteractionReason"}]}, "venue": {"id": "4a944034f964a520ec2020e3", "name": "Casablanca", "location": {"address": "Rigaer Str. 25", "lat": 52.51689, "lng": 13.46182, "labeledLatLngs": [{"label": "display", "lat": 52.51689, "lng": 13.46182}], "distance": 221, "postalCode": "10247", "cc": "DE", "city": "Berlin", "state": "Berlin", "country": "Deutschland", "formattedAddress": ["Rigaer Str. 25", "10247 Berlin", "Deutschland"]}, "categories": [{"id": "4bf58dd8d48988d10b941735", "name": "Falafel Restaurant", "pluralName": "Falafel Restaurants", "shortName": "Falafel", "icon": {"prefix": "https://ss3.4sqi.net/img/categories_v2/food/falafel_", "suffix": ".png"}, "primary": true}], "photos": {"count": 0, "groups": []}}, "referralId": "e-0-4a944034f964a520ec2020e3-0"}, {"reasons": {"count": 0, "items": [{"summary": "This spot is popular", "type": "general", "reasonName": "globalInteractionReason"}]}, "venue": {"id": "55a28347498e85b323f7f130", "name": "Verzuckert Berlin", "location": {"address": "Schreinerstr. 61", "lat": 52.517848628388876, "lng": 13.462878300139064, "labeledLatLngs": [{"label": "display", "lat": 52.517848628388876, "lng": 13.462878300139064}], "distance": 139, "postalCode": "10247", "cc": "DE", "neighborhood": "Samariterkiez", "city": "Berlin", "state": "Berlin", "country": "Deutschland", "formattedAddress": ["Schreinerstr. 61", "10247 Berlin", "Deutschland"]}, "categories": [{"id": "4bf58dd8d48988d1d0941735", "name": "Dessert Shop", "pluralName": "Dessert Shops", "shortName": "Desserts", "icon": {"prefix": "https://ss3.4sqi.net/img/categories_v2/food/dessert_", "suffix": ".png"}, "primary": true}], "photos": {"count": 0, "groups": []}}, "referralId": "e-0-55a28347498e85b323f7f130-1"}, {"reasons": {"count": 0, "items": [{"summary": "This spot is popular", "type": "general", "reasonName": "globalInteractionReason"}]}, "venue": {"id": "556ae8d3498e7b363bee6b7a", "name": "Bye Bye Cavaliere", "location": {"address": "Proskauer Str. 28", "lat": 52.51750752743603, "lng": 13.461312563313543, "labeledLatLngs": [{"label": "display", "lat": 52.51750752743603, "lng": 13.461312563313543}], "distance": 155, "postalCode": "10248", "cc": "DE", "city": "Berlin", "state": "Berlin", "country": "Deutschland", "formattedAddress": ["Proskauer Str. 28", "10248 Berlin", "Deutschland"]}, "categories": [{"id": "4bf58dd8d48988d1ca941735", "name": "Pizza Place", "pluralName": "Pizza Places", "shortName": "Pizza", "icon": {"prefix": "https://ss3.4sqi.net/img/categories_v2/food/pizza_", "suffix": ".png"}, "primary": true}], "photos": {"count": 0, "groups": []}}, "referralId": "e-0-556ae8d3498e7b363bee6b7a-2"}, {"reasons": {"count": 0, "items": [{"summary": "This spot is popular", "type": "general", "reasonName": "globalInteractionReason"}]}, "venue": {"id": "4b854d28f964a5206d5531e3", "name": "Eisklecks", "location": {"address": "M\u00fchsamstr. 64", "lat": 52.520607781896196, "lng": 13.458861677028661, "labeledLatLngs": [{"label": "display", "lat": 52.520607781896196, "lng": 13.458861677028661}], "distance": 272, "postalCode": "10249", "cc": "DE", "neighborhood": "Fried", "city": "Berlin", "state": "Berlin", "country": "Deutschland", "formattedAddress": ["M\u00fchsamstr. 64", "10249 Berlin", "Deutschland"]}, "categories": [{"id": "4bf58dd8d48988d1c9941735", "name": "Ice Cream Shop", "pluralName": "Ice Cream Shops", "shortName": "Ice Cream", "icon": {"prefix": "https://ss3.4sqi.net/img/categories_v2/food/icecream_", "suffix": ".png"}, "primary": true}], "photos": {"count": 0, "groups": []}}, "referralId": "e-0-4b854d28f964a5206d5531e3-3"}, {"reasons": {"count": 0, "items": [{"summary": "This spot is popular", "type": "general", "reasonName": "globalInteractionReason"}]}, "venue": {"id": "4ba7264ff964a5203d8339e3", "name": "Forckenbeckplatz", "location": {"address": "Eldenaer Str.", "crossStreet": "Liebigstr.", "lat": 52.51951130206744, "lng": 13.460569381713867, "labeledLatLngs": [{"label": "display", "lat": 52.51951130206744, "lng": 13.460569381713867}], "distance": 104, "postalCode": "10247", "cc": "DE", "city": "Berlin", "state": "Berlin", "country": "Deutschland", "formattedAddress": ["Eldenaer Str. (Liebigstr.)", "10247 Berlin", "Deutschland"]}, "categories": [{"id": "4bf58dd8d48988d163941735", "name": "Park", "pluralName": "Parks", "shortName": "Park", "icon": {"prefix": "https://ss3.4sqi.net/img/categories_v2/parks_outdoors/park_", "suffix": ".png"}, "primary": true}], "photos": {"count": 0, "groups": []}}, "referralId": "e-0-4ba7264ff964a5203d8339e3-4"}, {"reasons": {"count": 0, "items": [{"summary": "This spot is popular", "type": "general", "reasonName": "globalInteractionReason"}]}, "venue": {"id": "5a182a3762420b637eaabfb9", "name": "Schreiner's", "location": {"address": "Schreinerstra\u00dfe 53", "lat": 52.517601702799226, "lng": 13.464775085449217, "labeledLatLngs": [{"label": "display", "lat": 52.517601702799226, "lng": 13.464775085449217}], "distance": 251, "postalCode": "10247", "cc": "DE", "neighborhood": "Samariterkiez", "city": "Berlin", "state": "Berlin", "country": "Deutschland", "formattedAddress": ["Schreinerstra\u00dfe 53", "10247 Berlin", "Deutschland"]}, "categories": [{"id": "4bf58dd8d48988d16d941735", "name": "Caf\u00e9", "pluralName": "Caf\u00e9s", "shortName": "Caf\u00e9", "icon": {"prefix": "https://ss3.4sqi.net/img/categories_v2/food/cafe_", "suffix": ".png"}, "primary": true}], "photos": {"count": 0, "groups": []}}, "referralId": "e-0-5a182a3762420b637eaabfb9-5"}, {"reasons": {"count": 0, "items": [{"summary": "This spot is popular", "type": "general", "reasonName": "globalInteractionReason"}]}, "venue": {"id": "4b214c06f964a520bb3924e3", "name": "Vineria del Este", "location": {"address": "B\u00e4nschstr. 41", "lat": 52.51842991112723, "lng": 13.464266512934937, "labeledLatLngs": [{"label": "display", "lat": 52.51842991112723, "lng": 13.464266512934937}], "distance": 179, "postalCode": "10247", "cc": "DE", "neighborhood": "Samariterkiez", "city": "Berlin", "state": "Berlin", "country": "Deutschland", "formattedAddress": ["B\u00e4nschstr. 41", "10247 Berlin", "Deutschland"]}, "categories": [{"id": "4bf58dd8d48988d1db931735", "name": "Tapas Restaurant", "pluralName": "Tapas Restaurants", "shortName": "Tapas", "icon": {"prefix": "https://ss3.4sqi.net/img/categories_v2/food/tapas_", "suffix": ".png"}, "primary": true}], "photos": {"count": 0, "groups": []}}, "referralId": "e-0-4b214c06f964a520bb3924e3-6"}, {"reasons": {"count": 0, "items": [{"summary": "This spot is popular", "type": "general", "reasonName": "globalInteractionReason"}]}, "venue": {"id": "5790e5b2498e81f1deeda271", "name": "Salami Social Club", "location": {"address": "Frankfurter Allee 43", "lat": 52.51501293065886, "lng": 13.46347680510007, "labeledLatLngs": [{"label": "display", "lat": 52.51501293065886, "lng": 13.46347680510007}], "distance": 446, "postalCode": "10365", "cc": "DE", "city": "Berlin", "state": "Berlin", "country": "Deutschland", "formattedAddress": ["Frankfurter Allee 43", "10365 Berlin", "Deutschland"]}, "categories": [{"id": "4bf58dd8d48988d1ca941735", "name": "Pizza Place", "pluralName": "Pizza Places", "shortName": "Pizza", "icon": {"prefix": "https://ss3.4sqi.net/img/categories_v2/food/pizza_", "suffix": ".png"}, "primary": true}], "photos": {"count": 0, "groups": []}}, "referralId": "e-0-5790e5b2498e81f1deeda271-7"}, {"reasons": {"count": 0, "items": [{"summary": "This spot is popular", "type": "general", "reasonName": "globalInteractionReason"}]}, "venue": {"id": "4ae8586bf964a520c8ae21e3", "name": "Drachenspielplatz", "location": {"address": "Schreinerstr. 48/49", "lat": 52.51729206785169, "lng": 13.466868951001157, "labeledLatLngs": [{"label": "display", "lat": 52.51729206785169, "lng": 13.466868951001157}], "distance": 391, "postalCode": "10247", "cc": "DE", "city": "Berlin", "state": "Berlin", "country": "Deutschland", "formattedAddress": ["Schreinerstr. 48/49", "10247 Berlin", "Deutschland"]}, "categories": [{"id": "4bf58dd8d48988d1e7941735", "name": "Playground", "pluralName": "Playgrounds", "shortName": "Playground", "icon": {"prefix": "https://ss3.4sqi.net/img/categories_v2/parks_outdoors/playground_", "suffix": ".png"}, "primary": true}], "photos": {"count": 0, "groups": []}}, "referralId": "e-0-4ae8586bf964a520c8ae21e3-8"}, {"reasons": {"count": 0, "items": [{"summary": "This spot is popular", "type": "general", "reasonName": "globalInteractionReason"}]}, "venue": {"id": "4bb5002129269c74a9f1ca92", "name": "Minimal Bar", "location": {"address": "Rigaer Str. 31", "crossStreet": "Silvio-Meier Str.", "lat": 52.51644, "lng": 13.463944, "labeledLatLngs": [{"label": "display", "lat": 52.51644, "lng": 13.463944}], "distance": 310, "postalCode": "10247", "cc": "DE", "city": "Berlin", "state": "Berlin", "country": "Deutschland", "formattedAddress": ["Rigaer Str. 31 (Silvio-Meier Str.)", "10247 Berlin", "Deutschland"]}, "categories": [{"id": "4bf58dd8d48988d116941735", "name": "Bar", "pluralName": "Bars", "shortName": "Bar", "icon": {"prefix": "https://ss3.4sqi.net/img/categories_v2/nightlife/pub_", "suffix": ".png"}, "primary": true}], "photos": {"count": 0, "groups": []}}, "referralId": "e-0-4bb5002129269c74a9f1ca92-9"}, {"reasons": {"count": 0, "items": [{"summary": "This spot is popular", "type": "general", "reasonName": "globalInteractionReason"}]}, "venue": {"id": "5a077465b3d8e22ec6f77ec0", "name": "Mama Maria's", "location": {"address": "Frankfurter Allee 33", "lat": 52.51537, "lng": 13.461211, "labeledLatLngs": [{"label": "display", "lat": 52.51537, "lng": 13.461211}], "distance": 392, "postalCode": "10247", "cc": "DE", "city": "Berlin", "state": "Berlin", "country": "Deutschland", "formattedAddress": ["Frankfurter Allee 33", "10247 Berlin", "Deutschland"]}, "categories": [{"id": "4bf58dd8d48988d1ca941735", "name": "Pizza Place", "pluralName": "Pizza Places", "shortName": "Pizza", "icon": {"prefix": "https://ss3.4sqi.net/img/categories_v2/food/pizza_", "suffix": ".png"}, "primary": true}], "photos": {"count": 0, "groups": []}}, "referralId": "e-0-5a077465b3d8e22ec6f77ec0-10"}, {"reasons": {"count": 0, "items": [{"summary": "This spot is popular", "type": "general", "reasonName": "globalInteractionReason"}]}, "venue": {"id": "5b3e64ed16fa04002c5c115f", "name": "Mom's Creation", "location": {"address": "Proskauer strasse 1", "crossStreet": "Frankfurter allee", "lat": 52.515564, "lng": 13.460521, "labeledLatLngs": [{"label": "display", "lat": 52.515564, "lng": 13.460521}], "distance": 378, "postalCode": "10247", "cc": "DE", "neighborhood": "Samariterkiez", "city": "Berlin", "state": "Berlin", "country": "Deutschland", "formattedAddress": ["Proskauer strasse 1 (Frankfurter allee)", "10247 Berlin", "Deutschland"]}, "categories": [{"id": "4bf58dd8d48988d1d3941735", "name": "Vegetarian / Vegan Restaurant", "pluralName": "Vegetarian / Vegan Restaurants", "shortName": "Vegetarian / Vegan", "icon": {"prefix": "https://ss3.4sqi.net/img/categories_v2/food/vegetarian_", "suffix": ".png"}, "primary": true}], "photos": {"count": 0, "groups": []}}, "referralId": "e-0-5b3e64ed16fa04002c5c115f-11"}, {"reasons": {"count": 0, "items": [{"summary": "This spot is popular", "type": "general", "reasonName": "globalInteractionReason"}]}, "venue": {"id": "52a8cff911d2288df0dbf106", "name": "Papaleo Pizzeria", "location": {"address": "B\u00e4nschstra\u00dfe 67", "lat": 52.517953, "lng": 13.467741, "labeledLatLngs": [{"label": "display", "lat": 52.517953, "lng": 13.467741}], "distance": 420, "postalCode": "10247", "cc": "DE", "city": "Berlin", "state": "Berlin", "country": "Deutschland", "formattedAddress": ["B\u00e4nschstra\u00dfe 67", "10247 Berlin", "Deutschland"]}, "categories": [{"id": "4bf58dd8d48988d1ca941735", "name": "Pizza Place", "pluralName": "Pizza Places", "shortName": "Pizza", "icon": {"prefix": "https://ss3.4sqi.net/img/categories_v2/food/pizza_", "suffix": ".png"}, "primary": true}], "photos": {"count": 0, "groups": []}}, "referralId": "e-0-52a8cff911d2288df0dbf106-12"}, {"reasons": {"count": 0, "items": [{"summary": "This spot is popular", "type": "general", "reasonName": "globalInteractionReason"}]}, "venue": {"id": "4ba27384f964a5202efa37e3", "name": "Sindibad", "location": {"address": "Silvio-Meier-Str. 1", "lat": 52.51513303005888, "lng": 13.462939589679683, "labeledLatLngs": [{"label": "display", "lat": 52.51513303005888, "lng": 13.462939589679683}], "distance": 425, "postalCode": "10247", "cc": "DE", "city": "Berlin", "state": "Berlin", "country": "Deutschland", "formattedAddress": ["Silvio-Meier-Str. 1", "10247 Berlin", "Deutschland"]}, "categories": [{"id": "4bf58dd8d48988d10b941735", "name": "Falafel Restaurant", "pluralName": "Falafel Restaurants", "shortName": "Falafel", "icon": {"prefix": "https://ss3.4sqi.net/img/categories_v2/food/falafel_", "suffix": ".png"}, "primary": true}], "photos": {"count": 0, "groups": []}}, "referralId": "e-0-4ba27384f964a5202efa37e3-13"}, {"reasons": {"count": 0, "items": [{"summary": "This spot is popular", "type": "general", "reasonName": "globalInteractionReason"}]}, "venue": {"id": "5ac7ef3fb1ec136ccf8f5f34", "name": "Sohnemann", "location": {"address": "Niederbarnimstr. 23", "lat": 52.514236, "lng": 13.459542, "labeledLatLngs": [{"label": "display", "lat": 52.514236, "lng": 13.459542}], "distance": 537, "postalCode": "10427", "cc": "DE", "city": "Berlin", "state": "Berlin", "country": "Deutschland", "formattedAddress": ["Niederbarnimstr. 23", "10427 Berlin", "Deutschland"]}, "categories": [{"id": "4bf58dd8d48988d11e941735", "name": "Cocktail Bar", "pluralName": "Cocktail Bars", "shortName": "Cocktail", "icon": {"prefix": "https://ss3.4sqi.net/img/categories_v2/nightlife/cocktails_", "suffix": ".png"}, "primary": true}], "photos": {"count": 0, "groups": []}}, "referralId": "e-0-5ac7ef3fb1ec136ccf8f5f34-14"}, {"reasons": {"count": 0, "items": [{"summary": "This spot is popular", "type": "general", "reasonName": "globalInteractionReason"}]}, "venue": {"id": "4ba218c5f964a5207fdb37e3", "name": "FrischeParadies", "location": {"address": "Hermann-Blankenstein-Str. 48", "lat": 52.52155464457061, "lng": 13.468519449234009, "labeledLatLngs": [{"label": "display", "lat": 52.52155464457061, "lng": 13.468519449234009}], "distance": 548, "postalCode": "10249", "cc": "DE", "city": "Berlin", "state": "Berlin", "country": "Deutschland", "formattedAddress": ["Hermann-Blankenstein-Str. 48", "10249 Berlin", "Deutschland"]}, "categories": [{"id": "4bf58dd8d48988d1f5941735", "name": "Gourmet Shop", "pluralName": "Gourmet Shops", "shortName": "Gourmet", "icon": {"prefix": "https://ss3.4sqi.net/img/categories_v2/shops/food_gourmet_", "suffix": ".png"}, "primary": true}], "photos": {"count": 0, "groups": []}, "venuePage": {"id": "565361502"}}, "referralId": "e-0-4ba218c5f964a5207fdb37e3-15"}, {"reasons": {"count": 0, "items": [{"summary": "This spot is popular", "type": "general", "reasonName": "globalInteractionReason"}]}, "venue": {"id": "57b449df498e197ef88bb367", "name": "Tapiocaria", "location": {"address": "Samariterstr. 34a", "crossStreet": "Rigaer Str.", "lat": 52.51627309503224, "lng": 13.464839458465576, "labeledLatLngs": [{"label": "display", "lat": 52.51627309503224, "lng": 13.464839458465576}], "distance": 359, "postalCode": "10785", "cc": "DE", "neighborhood": "Samariterkiez", "city": "Berlin", "state": "Berlin", "country": "Deutschland", "formattedAddress": ["Samariterstr. 34a (Rigaer Str.)", "10785 Berlin", "Deutschland"]}, "categories": [{"id": "4bf58dd8d48988d16b941735", "name": "Brazilian Restaurant", "pluralName": "Brazilian Restaurants", "shortName": "Brazilian", "icon": {"prefix": "https://ss3.4sqi.net/img/categories_v2/food/argentinian_", "suffix": ".png"}, "primary": true}], "photos": {"count": 0, "groups": []}}, "referralId": "e-0-57b449df498e197ef88bb367-16"}, {"reasons": {"count": 0, "items": [{"summary": "This spot is popular", "type": "general", "reasonName": "globalInteractionReason"}]}, "venue": {"id": "4b8bc22ef964a520eaa932e3", "name": "Der Laden", "location": {"address": "B\u00e4nschstrasse", "crossStreet": "Samariterstrasse", "lat": 52.518169129699395, "lng": 13.465642805648091, "labeledLatLngs": [{"label": "display", "lat": 52.518169129699395, "lng": 13.465642805648091}], "distance": 277, "postalCode": "10247", "cc": "DE", "city": "Berlin", "state": "Berlin", "country": "Deutschland", "formattedAddress": ["B\u00e4nschstrasse (Samariterstrasse)", "10247 Berlin", "Deutschland"]}, "categories": [{"id": "4bf58dd8d48988d1f9941735", "name": "Food & Drink Shop", "pluralName": "Food & Drink Shops", "shortName": "Food & Drink", "icon": {"prefix": "https://ss3.4sqi.net/img/categories_v2/shops/foodanddrink_", "suffix": ".png"}, "primary": true}], "photos": {"count": 0, "groups": []}}, "referralId": "e-0-4b8bc22ef964a520eaa932e3-17"}, {"reasons": {"count": 0, "items": [{"summary": "This spot is popular", "type": "general", "reasonName": "globalInteractionReason"}]}, "venue": {"id": "50113ab3e4b0260c40a950da", "name": "Cafe Della Peppina", "location": {"address": "Samariterstr. 14", "lat": 52.51766917578809, "lng": 13.465702872435877, "labeledLatLngs": [{"label": "display", "lat": 52.51766917578809, "lng": 13.465702872435877}], "distance": 301, "postalCode": "10247", "cc": "DE", "city": "Berlin", "state": "Berlin", "country": "Deutschland", "formattedAddress": ["Samariterstr. 14", "10247 Berlin", "Deutschland"]}, "categories": [{"id": "4bf58dd8d48988d110941735", "name": "Italian Restaurant", "pluralName": "Italian Restaurants", "shortName": "Italian", "icon": {"prefix": "https://ss3.4sqi.net/img/categories_v2/food/italian_", "suffix": ".png"}, "primary": true}], "photos": {"count": 0, "groups": []}}, "referralId": "e-0-50113ab3e4b0260c40a950da-18"}, {"reasons": {"count": 0, "items": [{"summary": "This spot is popular", "type": "general", "reasonName": "globalInteractionReason"}]}, "venue": {"id": "4cac427b2f08236a0b2a8a61", "name": "Teehandlung Bohea", "location": {"address": "Niederbarnimstr. 3", "lat": 52.51449265043573, "lng": 13.459533590582103, "labeledLatLngs": [{"label": "display", "lat": 52.51449265043573, "lng": 13.459533590582103}], "distance": 510, "postalCode": "10247", "cc": "DE", "city": "Berlin", "state": "Berlin", "country": "Deutschland", "formattedAddress": ["Niederbarnimstr. 3", "10247 Berlin", "Deutschland"]}, "categories": [{"id": "4bf58dd8d48988d1dc931735", "name": "Tea Room", "pluralName": "Tea Rooms", "shortName": "Tea Room", "icon": {"prefix": "https://ss3.4sqi.net/img/categories_v2/food/tearoom_", "suffix": ".png"}, "primary": true}], "photos": {"count": 0, "groups": []}}, "referralId": "e-0-4cac427b2f08236a0b2a8a61-19"}, {"reasons": {"count": 0, "items": [{"summary": "This spot is popular", "type": "general", "reasonName": "globalInteractionReason"}]}, "venue": {"id": "5734663a498e1e63082f3e4b", "name": "Die Kaffee Freunde (Die Kaffeefreunde)", "location": {"address": "B\u00e4nschstr. 73", "lat": 52.51770415249472, "lng": 13.468495898671334, "labeledLatLngs": [{"label": "display", "lat": 52.51770415249472, "lng": 13.468495898671334}], "distance": 477, "postalCode": "10247", "cc": "DE", "city": "Berlin", "state": "Berlin", "country": "Deutschland", "formattedAddress": ["B\u00e4nschstr. 73", "10247 Berlin", "Deutschland"]}, "categories": [{"id": "4bf58dd8d48988d16d941735", "name": "Caf\u00e9", "pluralName": "Caf\u00e9s", "shortName": "Caf\u00e9", "icon": {"prefix": "https://ss3.4sqi.net/img/categories_v2/food/cafe_", "suffix": ".png"}, "primary": true}], "photos": {"count": 0, "groups": []}}, "referralId": "e-0-5734663a498e1e63082f3e4b-20"}, {"reasons": {"count": 0, "items": [{"summary": "This spot is popular", "type": "general", "reasonName": "globalInteractionReason"}]}, "venue": {"id": "587182ce9c439d43ab0e3582", "name": "Eure Kneipe", "location": {"address": "Weidenweg 60", "lat": 52.519063, "lng": 13.45513, "labeledLatLngs": [{"label": "display", "lat": 52.519063, "lng": 13.45513}], "distance": 446, "cc": "DE", "city": "Berlin", "state": "Berlin", "country": "Deutschland", "formattedAddress": ["Weidenweg 60", "Berlin", "Deutschland"]}, "categories": [{"id": "4bf58dd8d48988d11b941735", "name": "Pub", "pluralName": "Pubs", "shortName": "Pub", "icon": {"prefix": "https://ss3.4sqi.net/img/categories_v2/nightlife/pub_", "suffix": ".png"}, "primary": true}], "photos": {"count": 0, "groups": []}}, "referralId": "e-0-587182ce9c439d43ab0e3582-21"}, {"reasons": {"count": 0, "items": [{"summary": "This spot is popular", "type": "general", "reasonName": "globalInteractionReason"}]}, "venue": {"id": "4bc346824cdfc9b618149721", "name": "Kasiske", "location": {"address": "Schreinerstr. 50", "lat": 52.51727002623143, "lng": 13.466361158623348, "labeledLatLngs": [{"label": "display", "lat": 52.51727002623143, "lng": 13.466361158623348}], "distance": 362, "postalCode": "10247", "cc": "DE", "city": "Berlin", "state": "Berlin", "country": "Deutschland", "formattedAddress": ["Schreinerstr. 50", "10247 Berlin", "Deutschland"]}, "categories": [{"id": "4bf58dd8d48988d11b941735", "name": "Pub", "pluralName": "Pubs", "shortName": "Pub", "icon": {"prefix": "https://ss3.4sqi.net/img/categories_v2/nightlife/pub_", "suffix": ".png"}, "primary": true}], "photos": {"count": 0, "groups": []}}, "referralId": "e-0-4bc346824cdfc9b618149721-22"}, {"reasons": {"count": 0, "items": [{"summary": "This spot is popular", "type": "general", "reasonName": "globalInteractionReason"}]}, "venue": {"id": "4af2a90df964a5202be821e3", "name": "Karl-Marx-Allee", "location": {"address": "Karl-Marx-Allee", "lat": 52.516888859397504, "lng": 13.457794218021077, "labeledLatLngs": [{"label": "display", "lat": 52.516888859397504, "lng": 13.457794218021077}], "distance": 346, "postalCode": "10243", "cc": "DE", "city": "Berlin", "state": "Berlin", "country": "Deutschland", "formattedAddress": ["Karl-Marx-Allee", "10243 Berlin", "Deutschland"]}, "categories": [{"id": "4bf58dd8d48988d1f9931735", "name": "Road", "pluralName": "Roads", "shortName": "Road", "icon": {"prefix": "https://ss3.4sqi.net/img/categories_v2/travel/highway_", "suffix": ".png"}, "primary": true}], "photos": {"count": 0, "groups": []}}, "referralId": "e-0-4af2a90df964a5202be821e3-23"}, {"reasons": {"count": 0, "items": [{"summary": "This spot is popular", "type": "general", "reasonName": "globalInteractionReason"}]}, "venue": {"id": "52d30bc9498e8eb7bb10cf57", "name": "Chay Village", "location": {"address": "Niederbarnimstr. 10", "lat": 52.51350872991399, "lng": 13.4584744619995, "labeledLatLngs": [{"label": "display", "lat": 52.51350872991399, "lng": 13.4584744619995}], "distance": 637, "postalCode": "10247", "cc": "DE", "city": "Berlin", "state": "Berlin", "country": "Deutschland", "formattedAddress": ["Niederbarnimstr. 10", "10247 Berlin", "Deutschland"]}, "categories": [{"id": "4bf58dd8d48988d1d3941735", "name": "Vegetarian / Vegan Restaurant", "pluralName": "Vegetarian / Vegan Restaurants", "shortName": "Vegetarian / Vegan", "icon": {"prefix": "https://ss3.4sqi.net/img/categories_v2/food/vegetarian_", "suffix": ".png"}, "primary": true}], "photos": {"count": 0, "groups": []}}, "referralId": "e-0-52d30bc9498e8eb7bb10cf57-24"}, {"reasons": {"count": 0, "items": [{"summary": "This spot is popular", "type": "general", "reasonName": "globalInteractionReason"}]}, "venue": {"id": "5762ed38498e386d3d6b7a44", "name": "wein&gut", "location": {"address": "Schreinerstra\u00dfe 22", "lat": 52.51671528, "lng": 13.46815903, "labeledLatLngs": [{"label": "display", "lat": 52.51671528, "lng": 13.46815903}], "distance": 498, "postalCode": "10247", "cc": "DE", "city": "Berlin", "state": "Berlin", "country": "Deutschland", "formattedAddress": ["Schreinerstra\u00dfe 22", "10247 Berlin", "Deutschland"]}, "categories": [{"id": "4bf58dd8d48988d119951735", "name": "Wine Shop", "pluralName": "Wine Shops", "shortName": "Wine Shop", "icon": {"prefix": "https://ss3.4sqi.net/img/categories_v2/shops/food_wineshop_", "suffix": ".png"}, "primary": true}], "photos": {"count": 0, "groups": []}, "venuePage": {"id": "562359734"}}, "referralId": "e-0-5762ed38498e386d3d6b7a44-25"}, {"reasons": {"count": 0, "items": [{"summary": "This spot is popular", "type": "general", "reasonName": "globalInteractionReason"}]}, "venue": {"id": "4af81138f964a520db0a22e3", "name": "Die Garbe", "location": {"address": "Frankfurter Allee 40", "lat": 52.51495841870727, "lng": 13.462492383659528, "labeledLatLngs": [{"label": "display", "lat": 52.51495841870727, "lng": 13.462492383659528}], "distance": 439, "postalCode": "10247", "cc": "DE", "city": "Berlin", "state": "Berlin", "country": "Deutschland", "formattedAddress": ["Frankfurter Allee 40", "10247 Berlin", "Deutschland"]}, "categories": [{"id": "52e81612bcbc57f1066b79f1", "name": "Bistro", "pluralName": "Bistros", "shortName": "Bistro", "icon": {"prefix": "https://ss3.4sqi.net/img/categories_v2/food/default_", "suffix": ".png"}, "primary": true}], "photos": {"count": 0, "groups": []}}, "referralId": "e-0-4af81138f964a520db0a22e3-26"}, {"reasons": {"count": 0, "items": [{"summary": "This spot is popular", "type": "general", "reasonName": "globalInteractionReason"}]}, "venue": {"id": "4dbafef56e815ab0de600b81", "name": "Cadenhead's Whisky Market", "location": {"address": "Mainzer Str. 20", "lat": 52.51352661611225, "lng": 13.462526253029882, "labeledLatLngs": [{"label": "display", "lat": 52.51352661611225, "lng": 13.462526253029882}], "distance": 598, "postalCode": "10247", "cc": "DE", "city": "Berlin", "state": "Berlin", "country": "Deutschland", "formattedAddress": ["Mainzer Str. 20", "10247 Berlin", "Deutschland"]}, "categories": [{"id": "4bf58dd8d48988d186941735", "name": "Liquor Store", "pluralName": "Liquor Stores", "shortName": "Liquor Store", "icon": {"prefix": "https://ss3.4sqi.net/img/categories_v2/shops/food_liquor_", "suffix": ".png"}, "primary": true}], "photos": {"count": 0, "groups": []}}, "referralId": "e-0-4dbafef56e815ab0de600b81-27"}, {"reasons": {"count": 0, "items": [{"summary": "This spot is popular", "type": "general", "reasonName": "globalInteractionReason"}]}, "venue": {"id": "4b1ce6dbf964a520530a24e3", "name": "La Tienda del Barrio", "location": {"address": "Niederbarnimstr. 10", "lat": 52.513639, "lng": 13.458449, "labeledLatLngs": [{"label": "display", "lat": 52.513639, "lng": 13.458449}], "distance": 624, "postalCode": "10247", "cc": "DE", "city": "Berlin", "state": "Berlin", "country": "Deutschland", "formattedAddress": ["Niederbarnimstr. 10", "10247 Berlin", "Deutschland"]}, "categories": [{"id": "4bf58dd8d48988d16d941735", "name": "Caf\u00e9", "pluralName": "Caf\u00e9s", "shortName": "Caf\u00e9", "icon": {"prefix": "https://ss3.4sqi.net/img/categories_v2/food/cafe_", "suffix": ".png"}, "primary": true}], "photos": {"count": 0, "groups": []}, "venuePage": {"id": "55534419"}}, "referralId": "e-0-4b1ce6dbf964a520530a24e3-28"}, {"reasons": {"count": 0, "items": [{"summary": "This spot is popular", "type": "general", "reasonName": "globalInteractionReason"}]}, "venue": {"id": "5963d96242d8c238027ead6e", "name": "Protokoll", "location": {"address": "Boxhagener Str. 110", "crossStreet": "Simon-Dach-Str.", "lat": 52.513074529751556, "lng": 13.457070711506269, "labeledLatLngs": [{"label": "display", "lat": 52.513074529751556, "lng": 13.457070711506269}], "distance": 719, "postalCode": "10245", "cc": "DE", "neighborhood": "Friedrichshain, Berlin", "city": "Berlin", "state": "Berlin", "country": "Deutschland", "formattedAddress": ["Boxhagener Str. 110 (Simon-Dach-Str.)", "10245 Berlin", "Deutschland"]}, "categories": [{"id": "4bf58dd8d48988d11b941735", "name": "Pub", "pluralName": "Pubs", "shortName": "Pub", "icon": {"prefix": "https://ss3.4sqi.net/img/categories_v2/nightlife/pub_", "suffix": ".png"}, "primary": true}], "photos": {"count": 0, "groups": []}, "venuePage": {"id": "436434294"}}, "referralId": "e-0-5963d96242d8c238027ead6e-29"}, {"reasons": {"count": 0, "items": [{"summary": "This spot is popular", "type": "general", "reasonName": "globalInteractionReason"}]}, "venue": {"id": "4b65d808f964a52082032be3", "name": "Engler's Unikat", "location": {"address": "Samariterstr. 17", "lat": 52.51906005641643, "lng": 13.466539909002941, "labeledLatLngs": [{"label": "display", "lat": 52.51906005641643, "lng": 13.466539909002941}], "distance": 327, "postalCode": "10247", "cc": "DE", "city": "Berlin", "state": "Berlin", "country": "Deutschland", "formattedAddress": ["Samariterstr. 17", "10247 Berlin", "Deutschland"]}, "categories": [{"id": "4bf58dd8d48988d10d941735", "name": "German Restaurant", "pluralName": "German Restaurants", "shortName": "German", "icon": {"prefix": "https://ss3.4sqi.net/img/categories_v2/food/german_", "suffix": ".png"}, "primary": true}], "photos": {"count": 0, "groups": []}}, "referralId": "e-0-4b65d808f964a52082032be3-30"}, {"reasons": {"count": 0, "items": [{"summary": "This spot is popular", "type": "general", "reasonName": "globalInteractionReason"}]}, "venue": {"id": "51efa60e498e0e94ebe83757", "name": "dm-drogerie markt", "location": {"address": "Rigaer Stra\u00dfe 67", "lat": 52.515968987598235, "lng": 13.4686313263893, "labeledLatLngs": [{"label": "display", "lat": 52.515968987598235, "lng": 13.4686313263893}], "distance": 569, "postalCode": "10247", "cc": "DE", "city": "Berlin", "state": "Berlin", "country": "Deutschland", "formattedAddress": ["Rigaer Stra\u00dfe 67", "10247 Berlin", "Deutschland"]}, "categories": [{"id": "5745c2e4498e11e7bccabdbd", "name": "Drugstore", "pluralName": "Drugstores", "shortName": "Drugstore", "icon": {"prefix": "https://ss3.4sqi.net/img/categories_v2/shops/pharmacy_", "suffix": ".png"}, "primary": true}], "photos": {"count": 0, "groups": []}, "venuePage": {"id": "453030549"}}, "referralId": "e-0-51efa60e498e0e94ebe83757-31"}, {"reasons": {"count": 0, "items": [{"summary": "This spot is popular", "type": "general", "reasonName": "globalInteractionReason"}]}, "venue": {"id": "4b62de73f964a52077562ae3", "name": "Fitness First Women Club", "location": {"address": "Frankfurter Allee 57-59", "lat": 52.51483104498394, "lng": 13.46597136441801, "labeledLatLngs": [{"label": "display", "lat": 52.51483104498394, "lng": 13.46597136441801}], "distance": 535, "postalCode": "10247", "cc": "DE", "city": "Berlin", "state": "Berlin", "country": "Deutschland", "formattedAddress": ["Frankfurter Allee 57-59", "10247 Berlin", "Deutschland"]}, "categories": [{"id": "4bf58dd8d48988d175941735", "name": "Gym / Fitness Center", "pluralName": "Gyms or Fitness Centers", "shortName": "Gym / Fitness", "icon": {"prefix": "https://ss3.4sqi.net/img/categories_v2/building/gym_", "suffix": ".png"}, "primary": true}], "photos": {"count": 0, "groups": []}}, "referralId": "e-0-4b62de73f964a52077562ae3-32"}, {"reasons": {"count": 0, "items": [{"summary": "This spot is popular", "type": "general", "reasonName": "globalInteractionReason"}]}, "venue": {"id": "5c7ac5f4a6031c002cff0b77", "name": "Futura Neapolitan Pizza", "location": {"address": "B\u00e4nschstr. 91", "crossStreet": "Pettenkoferstr.", "lat": 52.517285, "lng": 13.471429, "labeledLatLngs": [{"label": "display", "lat": 52.517285, "lng": 13.471429}], "distance": 681, "postalCode": "10247", "cc": "DE", "neighborhood": "Samariterkiez", "city": "Berlin", "state": "Berlin", "country": "Deutschland", "formattedAddress": ["B\u00e4nschstr. 91 (Pettenkoferstr.)", "10247 Berlin", "Deutschland"]}, "categories": [{"id": "4bf58dd8d48988d1ca941735", "name": "Pizza Place", "pluralName": "Pizza Places", "shortName": "Pizza", "icon": {"prefix": "https://ss3.4sqi.net/img/categories_v2/food/pizza_", "suffix": ".png"}, "primary": true}], "photos": {"count": 0, "groups": []}}, "referralId": "e-0-5c7ac5f4a6031c002cff0b77-33"}, {"reasons": {"count": 0, "items": [{"summary": "This spot is popular", "type": "general", "reasonName": "globalInteractionReason"}]}, "venue": {"id": "51b2285f498e40c0ecbfb5f1", "name": "Zerostress pizza", "location": {"address": "Colbestr. 3", "crossStreet": "Frankfurter Allee", "lat": 52.51431600724806, "lng": 13.46456064871702, "labeledLatLngs": [{"label": "display", "lat": 52.51431600724806, "lng": 13.46456064871702}], "distance": 543, "postalCode": "10247", "cc": "DE", "neighborhood": "Boxhagener Kiez, Berlin", "city": "Berlin", "state": "Berlin", "country": "Deutschland", "formattedAddress": ["Colbestr. 3 (Frankfurter Allee)", "10247 Berlin", "Deutschland"]}, "categories": [{"id": "4bf58dd8d48988d1ca941735", "name": "Pizza Place", "pluralName": "Pizza Places", "shortName": "Pizza", "icon": {"prefix": "https://ss3.4sqi.net/img/categories_v2/food/pizza_", "suffix": ".png"}, "primary": true}], "photos": {"count": 0, "groups": []}}, "referralId": "e-0-51b2285f498e40c0ecbfb5f1-34"}, {"reasons": {"count": 0, "items": [{"summary": "This spot is popular", "type": "general", "reasonName": "globalInteractionReason"}]}, "venue": {"id": "5033bfafe4b0a854c5577442", "name": "Holiday Bistro", "location": {"address": "Rigaer Str.", "crossStreet": "Proskauer Str.", "lat": 52.517031206249314, "lng": 13.461190230021318, "labeledLatLngs": [{"label": "display", "lat": 52.517031206249314, "lng": 13.461190230021318}], "distance": 209, "postalCode": "10247", "cc": "DE", "city": "Berlin", "state": "Berlin", "country": "Deutschland", "formattedAddress": ["Rigaer Str. (Proskauer Str.)", "10247 Berlin", "Deutschland"]}, "categories": [{"id": "5283c7b4e4b094cb91ec88d8", "name": "Doner Restaurant", "pluralName": "Doner Restaurants", "shortName": "Doner", "icon": {"prefix": "https://ss3.4sqi.net/img/categories_v2/food/turkish_", "suffix": ".png"}, "primary": true}], "photos": {"count": 0, "groups": []}}, "referralId": "e-0-5033bfafe4b0a854c5577442-35"}, {"reasons": {"count": 0, "items": [{"summary": "This spot is popular", "type": "general", "reasonName": "globalInteractionReason"}]}, "venue": {"id": "4b354e54f964a520182c25e3", "name": "Freibeuter", "location": {"address": "Gabelsbergerstr. 10", "crossStreet": "Rigaerstr.", "lat": 52.51616139024366, "lng": 13.463535717728673, "labeledLatLngs": [{"label": "display", "lat": 52.51616139024366, "lng": 13.463535717728673}], "distance": 326, "postalCode": "10247", "cc": "DE", "city": "Berlin", "state": "Berlin", "country": "Deutschland", "formattedAddress": ["Gabelsbergerstr. 10 (Rigaerstr.)", "10247 Berlin", "Deutschland"]}, "categories": [{"id": "4bf58dd8d48988d116941735", "name": "Bar", "pluralName": "Bars", "shortName": "Bar", "icon": {"prefix": "https://ss3.4sqi.net/img/categories_v2/nightlife/pub_", "suffix": ".png"}, "primary": true}], "photos": {"count": 0, "groups": []}}, "referralId": "e-0-4b354e54f964a520182c25e3-36"}, {"reasons": {"count": 0, "items": [{"summary": "This spot is popular", "type": "general", "reasonName": "globalInteractionReason"}]}, "venue": {"id": "535b9421498e6ddd0350d039", "name": "S\u00fc\u00dfe S\u00fcnde", "location": {"address": "Niederbarnimstr. 21", "lat": 52.51396535656903, "lng": 13.458981177535694, "labeledLatLngs": [{"label": "display", "lat": 52.51396535656903, "lng": 13.458981177535694}], "distance": 577, "postalCode": "10247", "cc": "DE", "city": "Berlin", "state": "Berlin", "country": "Deutschland", "formattedAddress": ["Niederbarnimstr. 21", "10247 Berlin", "Deutschland"]}, "categories": [{"id": "4bf58dd8d48988d1c9941735", "name": "Ice Cream Shop", "pluralName": "Ice Cream Shops", "shortName": "Ice Cream", "icon": {"prefix": "https://ss3.4sqi.net/img/categories_v2/food/icecream_", "suffix": ".png"}, "primary": true}], "photos": {"count": 0, "groups": []}}, "referralId": "e-0-535b9421498e6ddd0350d039-37"}, {"reasons": {"count": 0, "items": [{"summary": "This spot is popular", "type": "general", "reasonName": "globalInteractionReason"}]}, "venue": {"id": "5838984500841a1ae37d04da", "name": "Hangmee", "location": {"address": "Boxhagener Str. 108", "crossStreet": "Niederbarnimstr.", "lat": 52.512985, "lng": 13.457702, "labeledLatLngs": [{"label": "display", "lat": 52.512985, "lng": 13.457702}], "distance": 710, "postalCode": "10245", "cc": "DE", "city": "Berlin", "state": "Berlin", "country": "Deutschland", "formattedAddress": ["Boxhagener Str. 108 (Niederbarnimstr.)", "10245 Berlin", "Deutschland"]}, "categories": [{"id": "4bf58dd8d48988d149941735", "name": "Thai Restaurant", "pluralName": "Thai Restaurants", "shortName": "Thai", "icon": {"prefix": "https://ss3.4sqi.net/img/categories_v2/food/thai_", "suffix": ".png"}, "primary": true}], "photos": {"count": 0, "groups": []}}, "referralId": "e-0-5838984500841a1ae37d04da-38"}, {"reasons": {"count": 0, "items": [{"summary": "This spot is popular", "type": "general", "reasonName": "globalInteractionReason"}]}, "venue": {"id": "4bc718766501c9b6fbbb3d29", "name": "Naked Steel", "location": {"address": "Mainzer Str. 10", "lat": 52.51301858271715, "lng": 13.462167743123073, "labeledLatLngs": [{"label": "display", "lat": 52.51301858271715, "lng": 13.462167743123073}], "distance": 653, "postalCode": "10247", "cc": "DE", "city": "Berlin", "state": "Berlin", "country": "Deutschland", "formattedAddress": ["Mainzer Str. 10", "10247 Berlin", "Deutschland"]}, "categories": [{"id": "52f2ab2ebcbc57f1066b8b20", "name": "Piercing Parlor", "pluralName": "Piercing Parlors", "shortName": "Piercing Parlor", "icon": {"prefix": "https://ss3.4sqi.net/img/categories_v2/shops/piercing_", "suffix": ".png"}, "primary": true}], "photos": {"count": 0, "groups": []}}, "referralId": "e-0-4bc718766501c9b6fbbb3d29-39"}, {"reasons": {"count": 0, "items": [{"summary": "This spot is popular", "type": "general", "reasonName": "globalInteractionReason"}]}, "venue": {"id": "5ae8a16889ad46002474950a", "name": "Aleppo Supper Club", "location": {"address": "Rigaer Str. 58", "lat": 52.515405, "lng": 13.470988, "labeledLatLngs": [{"label": "display", "lat": 52.515405, "lng": 13.470988}], "distance": 737, "postalCode": "10247", "cc": "DE", "neighborhood": "Samariterkiez", "city": "Berlin", "state": "Berlin", "country": "Deutschland", "formattedAddress": ["Rigaer Str. 58", "10247 Berlin", "Deutschland"]}, "categories": [{"id": "5bae9231bedf3950379f89da", "name": "Syrian Restaurant", "pluralName": "Syrian Restaurants", "shortName": "Syrian Restaurant", "icon": {"prefix": "https://ss3.4sqi.net/img/categories_v2/food/middleeastern_", "suffix": ".png"}, "primary": true}], "photos": {"count": 0, "groups": []}}, "referralId": "e-0-5ae8a16889ad46002474950a-40"}, {"reasons": {"count": 0, "items": [{"summary": "This spot is popular", "type": "general", "reasonName": "globalInteractionReason"}]}, "venue": {"id": "52b88825498e69819a6b6238", "name": "Getr\u00e4nkefeinkost", "location": {"address": "Boxhagener Str. 24", "lat": 52.51304393792196, "lng": 13.457071276734203, "labeledLatLngs": [{"label": "display", "lat": 52.51304393792196, "lng": 13.457071276734203}], "distance": 722, "postalCode": "10245", "cc": "DE", "city": "Berlin", "state": "Berlin", "country": "Deutschland", "formattedAddress": ["Boxhagener Str. 24", "10245 Berlin", "Deutschland"]}, "categories": [{"id": "5370f356bcbc57f1066c94c2", "name": "Beer Store", "pluralName": "Beer Stores", "shortName": "Beer Store", "icon": {"prefix": "https://ss3.4sqi.net/img/categories_v2/nightlife/beergarden_", "suffix": ".png"}, "primary": true}], "photos": {"count": 0, "groups": []}}, "referralId": "e-0-52b88825498e69819a6b6238-41"}, {"reasons": {"count": 0, "items": [{"summary": "This spot is popular", "type": "general", "reasonName": "globalInteractionReason"}]}, "venue": {"id": "4b0bd665f964a5200b3423e3", "name": "Pizza XXL", "location": {"address": "Frankfurter Allee 42", "lat": 52.51489463206857, "lng": 13.462913425060396, "labeledLatLngs": [{"label": "display", "lat": 52.51489463206857, "lng": 13.462913425060396}], "distance": 451, "postalCode": "10247", "cc": "DE", "city": "Berlin", "state": "Berlin", "country": "Deutschland", "formattedAddress": ["Frankfurter Allee 42", "10247 Berlin", "Deutschland"]}, "categories": [{"id": "4bf58dd8d48988d1ca941735", "name": "Pizza Place", "pluralName": "Pizza Places", "shortName": "Pizza", "icon": {"prefix": "https://ss3.4sqi.net/img/categories_v2/food/pizza_", "suffix": ".png"}, "primary": true}], "photos": {"count": 0, "groups": []}}, "referralId": "e-0-4b0bd665f964a5200b3423e3-42"}, {"reasons": {"count": 0, "items": [{"summary": "This spot is popular", "type": "general", "reasonName": "globalInteractionReason"}]}, "venue": {"id": "50293d9de4b056f76787cf28", "name": "yogibar", "location": {"address": "Boxhagener Str. 31", "crossStreet": "Gabriel-Max-Str.", "lat": 52.512464699266445, "lng": 13.459270050117397, "labeledLatLngs": [{"label": "display", "lat": 52.512464699266445, "lng": 13.459270050117397}], "distance": 733, "postalCode": "10245", "cc": "DE", "city": "Berlin", "state": "Berlin", "country": "Deutschland", "formattedAddress": ["Boxhagener Str. 31 (Gabriel-Max-Str.)", "10245 Berlin", "Deutschland"]}, "categories": [{"id": "4bf58dd8d48988d102941735", "name": "Yoga Studio", "pluralName": "Yoga Studios", "shortName": "Yoga Studio", "icon": {"prefix": "https://ss3.4sqi.net/img/categories_v2/shops/gym_yogastudio_", "suffix": ".png"}, "primary": true}], "photos": {"count": 0, "groups": []}}, "referralId": "e-0-50293d9de4b056f76787cf28-43"}, {"reasons": {"count": 0, "items": [{"summary": "This spot is popular", "type": "general", "reasonName": "globalInteractionReason"}]}, "venue": {"id": "58c3f2525804ea5c146520a0", "name": "Da Dino", "location": {"address": "Schreinerstr. 44", "lat": 52.5169781627533, "lng": 13.467925213196139, "labeledLatLngs": [{"label": "display", "lat": 52.5169781627533, "lng": 13.467925213196139}], "distance": 470, "postalCode": "10247", "cc": "DE", "city": "Berlin", "state": "Berlin", "country": "Deutschland", "formattedAddress": ["Schreinerstr. 44", "10247 Berlin", "Deutschland"]}, "categories": [{"id": "4bf58dd8d48988d110941735", "name": "Italian Restaurant", "pluralName": "Italian Restaurants", "shortName": "Italian", "icon": {"prefix": "https://ss3.4sqi.net/img/categories_v2/food/italian_", "suffix": ".png"}, "primary": true}], "photos": {"count": 0, "groups": []}}, "referralId": "e-0-58c3f2525804ea5c146520a0-44"}, {"reasons": {"count": 0, "items": [{"summary": "This spot is popular", "type": "general", "reasonName": "globalInteractionReason"}]}, "venue": {"id": "4d512a71d7eaa143d2aa6f0f", "name": "Kiez Cuisine", "location": {"address": "Samariterstr. 29", "lat": 52.51769808454843, "lng": 13.465780001018523, "labeledLatLngs": [{"label": "display", "lat": 52.51769808454843, "lng": 13.465780001018523}], "distance": 304, "postalCode": "10247", "cc": "DE", "city": "Berlin", "state": "Berlin", "country": "Deutschland", "formattedAddress": ["Samariterstr. 29", "10247 Berlin", "Deutschland"]}, "categories": [{"id": "4bf58dd8d48988d1d3941735", "name": "Vegetarian / Vegan Restaurant", "pluralName": "Vegetarian / Vegan Restaurants", "shortName": "Vegetarian / Vegan", "icon": {"prefix": "https://ss3.4sqi.net/img/categories_v2/food/vegetarian_", "suffix": ".png"}, "primary": true}], "photos": {"count": 0, "groups": []}}, "referralId": "e-0-4d512a71d7eaa143d2aa6f0f-45"}, {"reasons": {"count": 0, "items": [{"summary": "This spot is popular", "type": "general", "reasonName": "globalInteractionReason"}]}, "venue": {"id": "4cd6af897da9a35d8ac6f0b9", "name": "Coffein Centrale", "location": {"address": "Mainzer Str. 20", "lat": 52.51337276255017, "lng": 13.462436464317955, "labeledLatLngs": [{"label": "display", "lat": 52.51337276255017, "lng": 13.462436464317955}], "distance": 615, "postalCode": "10247", "cc": "DE", "city": "Berlin", "state": "Berlin", "country": "Deutschland", "formattedAddress": ["Mainzer Str. 20", "10247 Berlin", "Deutschland"]}, "categories": [{"id": "4bf58dd8d48988d16d941735", "name": "Caf\u00e9", "pluralName": "Caf\u00e9s", "shortName": "Caf\u00e9", "icon": {"prefix": "https://ss3.4sqi.net/img/categories_v2/food/cafe_", "suffix": ".png"}, "primary": true}], "photos": {"count": 0, "groups": []}}, "referralId": "e-0-4cd6af897da9a35d8ac6f0b9-46"}, {"reasons": {"count": 0, "items": [{"summary": "This spot is popular", "type": "general", "reasonName": "globalInteractionReason"}]}, "venue": {"id": "50ef2f56e4b02f6b33d79264", "name": "New Day", "location": {"address": "Niederbarnimstr. 25", "lat": 52.514687805400115, "lng": 13.459789400112028, "labeledLatLngs": [{"label": "display", "lat": 52.514687805400115, "lng": 13.459789400112028}], "distance": 484, "postalCode": "10247", "cc": "DE", "city": "Berlin", "state": "Berlin", "country": "Deutschland", "formattedAddress": ["Niederbarnimstr. 25", "10247 Berlin", "Deutschland"]}, "categories": [{"id": "4bf58dd8d48988d14a941735", "name": "Vietnamese Restaurant", "pluralName": "Vietnamese Restaurants", "shortName": "Vietnamese", "icon": {"prefix": "https://ss3.4sqi.net/img/categories_v2/food/vietnamese_", "suffix": ".png"}, "primary": true}], "photos": {"count": 0, "groups": []}}, "referralId": "e-0-50ef2f56e4b02f6b33d79264-47"}, {"reasons": {"count": 0, "items": [{"summary": "This spot is popular", "type": "general", "reasonName": "globalInteractionReason"}]}, "venue": {"id": "4f7897b5e4b05cde61fa4329", "name": "b-ware! ladenkino", "location": {"address": "G\u00e4rtnerstr. 19", "lat": 52.51194563013532, "lng": 13.461566205809204, "labeledLatLngs": [{"label": "display", "lat": 52.51194563013532, "lng": 13.461566205809204}], "distance": 772, "postalCode": "10245", "cc": "DE", "city": "Berlin", "state": "Berlin", "country": "Deutschland", "formattedAddress": ["G\u00e4rtnerstr. 19", "10245 Berlin", "Deutschland"]}, "categories": [{"id": "4bf58dd8d48988d17e941735", "name": "Indie Movie Theater", "pluralName": "Indie Movie Theaters", "shortName": "Indie Movies", "icon": {"prefix": "https://ss3.4sqi.net/img/categories_v2/arts_entertainment/movietheater_", "suffix": ".png"}, "primary": true}], "photos": {"count": 0, "groups": []}}, "referralId": "e-0-4f7897b5e4b05cde61fa4329-48"}, {"reasons": {"count": 0, "items": [{"summary": "This spot is popular", "type": "general", "reasonName": "globalInteractionReason"}]}, "venue": {"id": "4adcda79f964a520cc4621e3", "name": "Caf\u00e9 Tasso", "location": {"address": "Frankfurter Allee 11", "lat": 52.515704159406944, "lng": 13.456952941875391, "labeledLatLngs": [{"label": "display", "lat": 52.515704159406944, "lng": 13.456952941875391}], "distance": 479, "postalCode": "10247", "cc": "DE", "neighborhood": "Rigaer Stra\u00dfe", "city": "Berlin", "state": "Berlin", "country": "Deutschland", "formattedAddress": ["Frankfurter Allee 11", "10247 Berlin", "Deutschland"]}, "categories": [{"id": "4bf58dd8d48988d16d941735", "name": "Caf\u00e9", "pluralName": "Caf\u00e9s", "shortName": "Caf\u00e9", "icon": {"prefix": "https://ss3.4sqi.net/img/categories_v2/food/cafe_", "suffix": ".png"}, "primary": true}], "photos": {"count": 0, "groups": []}}, "referralId": "e-0-4adcda79f964a520cc4621e3-49"}, {"reasons": {"count": 0, "items": [{"summary": "This spot is popular", "type": "general", "reasonName": "globalInteractionReason"}]}, "venue": {"id": "5583c5e2498e2ca877633d84", "name": "K. LIEBLINGs / Coffee Profilers", "location": {"address": "Karl-Marx-Allee 134", "lat": 52.51581607078898, "lng": 13.451219201087952, "labeledLatLngs": [{"label": "display", "lat": 52.51581607078898, "lng": 13.451219201087952}], "distance": 789, "postalCode": "10243", "cc": "DE", "neighborhood": "Boxhagener Kiez", "city": "Berlin", "state": "Berlin", "country": "Deutschland", "formattedAddress": ["Karl-Marx-Allee 134", "10243 Berlin", "Deutschland"]}, "categories": [{"id": "4bf58dd8d48988d1e0931735", "name": "Coffee Shop", "pluralName": "Coffee Shops", "shortName": "Coffee Shop", "icon": {"prefix": "https://ss3.4sqi.net/img/categories_v2/food/coffeeshop_", "suffix": ".png"}, "primary": true}], "photos": {"count": 0, "groups": []}}, "referralId": "e-0-5583c5e2498e2ca877633d84-50"}, {"reasons": {"count": 0, "items": [{"summary": "This spot is popular", "type": "general", "reasonName": "globalInteractionReason"}]}, "venue": {"id": "4c1508b9a5eb76b07f98c2b7", "name": "Pomodorino", "location": {"address": "Stra\u00dfmannstr. 21", "lat": 52.52220765152743, "lng": 13.449970217055668, "labeledLatLngs": [{"label": "display", "lat": 52.52220765152743, "lng": 13.449970217055668}], "distance": 877, "postalCode": "10249", "cc": "DE", "city": "Berlin", "state": "Berlin", "country": "Deutschland", "formattedAddress": ["Stra\u00dfmannstr. 21", "10249 Berlin", "Deutschland"]}, "categories": [{"id": "4bf58dd8d48988d1ca941735", "name": "Pizza Place", "pluralName": "Pizza Places", "shortName": "Pizza", "icon": {"prefix": "https://ss3.4sqi.net/img/categories_v2/food/pizza_", "suffix": ".png"}, "primary": true}], "photos": {"count": 0, "groups": []}}, "referralId": "e-0-4c1508b9a5eb76b07f98c2b7-51"}, {"reasons": {"count": 0, "items": [{"summary": "This spot is popular", "type": "general", "reasonName": "globalInteractionReason"}]}, "venue": {"id": "5ba0d1e031fd14002cc9bd7e", "name": "li.ke", "location": {"address": "Gr\u00fcnberger Stra\u00dfe 69", "lat": 52.51148843532215, "lng": 13.458749909324519, "labeledLatLngs": [{"label": "display", "lat": 52.51148843532215, "lng": 13.458749909324519}], "distance": 847, "cc": "DE", "neighborhood": "Boxhagener Kiez", "city": "Berlin", "state": "Berlin", "country": "Deutschland", "formattedAddress": ["Gr\u00fcnberger Stra\u00dfe 69", "Berlin", "Deutschland"]}, "categories": [{"id": "4bf58dd8d48988d149941735", "name": "Thai Restaurant", "pluralName": "Thai Restaurants", "shortName": "Thai", "icon": {"prefix": "https://ss3.4sqi.net/img/categories_v2/food/thai_", "suffix": ".png"}, "primary": true}], "photos": {"count": 0, "groups": []}}, "referralId": "e-0-5ba0d1e031fd14002cc9bd7e-52"}, {"reasons": {"count": 0, "items": [{"summary": "This spot is popular", "type": "general", "reasonName": "globalInteractionReason"}]}, "venue": {"id": "4b1a4442f964a52081e823e3", "name": "Wochenmarkt Boxhagener Platz", "location": {"address": "Boxhagener Platz", "lat": 52.51103535677912, "lng": 13.459767959663045, "labeledLatLngs": [{"label": "display", "lat": 52.51103535677912, "lng": 13.459767959663045}], "distance": 883, "postalCode": "10245", "cc": "DE", "city": "Berlin", "state": "Berlin", "country": "Deutschland", "formattedAddress": ["Boxhagener Platz", "10245 Berlin", "Deutschland"]}, "categories": [{"id": "4bf58dd8d48988d1fa941735", "name": "Farmers Market", "pluralName": "Farmers Markets", "shortName": "Farmer's Market", "icon": {"prefix": "https://ss3.4sqi.net/img/categories_v2/shops/food_farmersmarket_", "suffix": ".png"}, "primary": true}], "photos": {"count": 0, "groups": []}}, "referralId": "e-0-4b1a4442f964a52081e823e3-53"}, {"reasons": {"count": 0, "items": [{"summary": "This spot is popular", "type": "general", "reasonName": "globalInteractionReason"}]}, "venue": {"id": "57039823cd101d4ac84dcfb7", "name": "KleinMein", "location": {"address": "Waldeyerstr. 9", "lat": 52.514847, "lng": 13.471392, "labeledLatLngs": [{"label": "display", "lat": 52.514847, "lng": 13.471392}], "distance": 794, "postalCode": "10247", "cc": "DE", "neighborhood": "Samariterkiez", "city": "Berlin", "state": "Berlin", "country": "Deutschland", "formattedAddress": ["Waldeyerstr. 9", "10247 Berlin", "Deutschland"]}, "categories": [{"id": "4bf58dd8d48988d1e0931735", "name": "Coffee Shop", "pluralName": "Coffee Shops", "shortName": "Coffee Shop", "icon": {"prefix": "https://ss3.4sqi.net/img/categories_v2/food/coffeeshop_", "suffix": ".png"}, "primary": true}], "photos": {"count": 0, "groups": []}}, "referralId": "e-0-57039823cd101d4ac84dcfb7-54"}, {"reasons": {"count": 0, "items": [{"summary": "This spot is popular", "type": "general", "reasonName": "globalInteractionReason"}]}, "venue": {"id": "4bd2aa97caff95212b4ed3f0", "name": "Hermann-Blankenstein-Park", "location": {"address": "Eldenaer Str.", "crossStreet": "Richard-Ermisch-Str.", "lat": 52.52196591288184, "lng": 13.460826873779297, "labeledLatLngs": [{"label": "display", "lat": 52.52196591288184, "lng": 13.460826873779297}], "distance": 348, "postalCode": "10247", "cc": "DE", "city": "Berlin", "state": "Berlin", "country": "Deutschland", "formattedAddress": ["Eldenaer Str. (Richard-Ermisch-Str.)", "10247 Berlin", "Deutschland"]}, "categories": [{"id": "4bf58dd8d48988d163941735", "name": "Park", "pluralName": "Parks", "shortName": "Park", "icon": {"prefix": "https://ss3.4sqi.net/img/categories_v2/parks_outdoors/park_", "suffix": ".png"}, "primary": true}], "photos": {"count": 0, "groups": []}}, "referralId": "e-0-4bd2aa97caff95212b4ed3f0-55"}, {"reasons": {"count": 0, "items": [{"summary": "This spot is popular", "type": "general", "reasonName": "globalInteractionReason"}]}, "venue": {"id": "556ef1f0498e7ea7645ad1bc", "name": "Pi Mediterran", "location": {"address": "G\u00e4rtnerstr 17", "lat": 52.511439, "lng": 13.461133, "labeledLatLngs": [{"label": "display", "lat": 52.511439, "lng": 13.461133}], "distance": 829, "postalCode": "10245", "cc": "DE", "city": "Berlin", "state": "Berlin", "country": "Deutschland", "formattedAddress": ["G\u00e4rtnerstr 17", "10245 Berlin", "Deutschland"]}, "categories": [{"id": "4bf58dd8d48988d1c0941735", "name": "Mediterranean Restaurant", "pluralName": "Mediterranean Restaurants", "shortName": "Mediterranean", "icon": {"prefix": "https://ss3.4sqi.net/img/categories_v2/food/mediterranean_", "suffix": ".png"}, "primary": true}], "photos": {"count": 0, "groups": []}}, "referralId": "e-0-556ef1f0498e7ea7645ad1bc-56"}, {"reasons": {"count": 0, "items": [{"summary": "This spot is popular", "type": "general", "reasonName": "globalInteractionReason"}]}, "venue": {"id": "536509dd498e22fa4caabefa", "name": "Shakespeare and Sons", "location": {"address": "Warschauer Str. 74", "crossStreet": "Gr\u00fcnberger Str.", "lat": 52.512636356259506, "lng": 13.453112840652466, "labeledLatLngs": [{"label": "display", "lat": 52.512636356259506, "lng": 13.453112840652466}], "distance": 907, "postalCode": "10243", "cc": "DE", "neighborhood": "Friedrichshain, Berlin", "city": "Berlin", "state": "Berlin", "country": "Deutschland", "formattedAddress": ["Warschauer Str. 74 (Gr\u00fcnberger Str.)", "10243 Berlin", "Deutschland"]}, "categories": [{"id": "4bf58dd8d48988d114951735", "name": "Bookstore", "pluralName": "Bookstores", "shortName": "Bookstore", "icon": {"prefix": "https://ss3.4sqi.net/img/categories_v2/shops/bookstore_", "suffix": ".png"}, "primary": true}], "photos": {"count": 0, "groups": []}}, "referralId": "e-0-536509dd498e22fa4caabefa-57"}, {"reasons": {"count": 0, "items": [{"summary": "This spot is popular", "type": "general", "reasonName": "globalInteractionReason"}]}, "venue": {"id": "5733846a498ebbf28b67b374", "name": "Radio - The Label Bar", "location": {"address": "Frankfurter Allee 23", "lat": 52.5156422803932, "lng": 13.459150771045568, "labeledLatLngs": [{"label": "display", "lat": 52.5156422803932, "lng": 13.459150771045568}], "distance": 400, "postalCode": "10247", "cc": "DE", "city": "Berlin", "state": "Berlin", "country": "Deutschland", "formattedAddress": ["Frankfurter Allee 23", "10247 Berlin", "Deutschland"]}, "categories": [{"id": "4bf58dd8d48988d116941735", "name": "Bar", "pluralName": "Bars", "shortName": "Bar", "icon": {"prefix": "https://ss3.4sqi.net/img/categories_v2/nightlife/pub_", "suffix": ".png"}, "primary": true}], "photos": {"count": 0, "groups": []}}, "referralId": "e-0-5733846a498ebbf28b67b374-58"}, {"reasons": {"count": 0, "items": [{"summary": "This spot is popular", "type": "general", "reasonName": "globalInteractionReason"}]}, "venue": {"id": "5336d472498ea485123a59b0", "name": "HHV Store", "location": {"address": "Gr\u00fcnberger Str. 54", "lat": 52.511895456032306, "lng": 13.456103420405865, "labeledLatLngs": [{"label": "display", "lat": 52.511895456032306, "lng": 13.456103420405865}], "distance": 865, "postalCode": "10245", "cc": "DE", "city": "Berlin", "state": "Berlin", "country": "Deutschland", "formattedAddress": ["Gr\u00fcnberger Str. 54", "10245 Berlin", "Deutschland"]}, "categories": [{"id": "4bf58dd8d48988d10d951735", "name": "Record Shop", "pluralName": "Record Shops", "shortName": "Record Shop", "icon": {"prefix": "https://ss3.4sqi.net/img/categories_v2/shops/record_shop_", "suffix": ".png"}, "primary": true}], "photos": {"count": 0, "groups": []}}, "referralId": "e-0-5336d472498ea485123a59b0-59"}, {"reasons": {"count": 0, "items": [{"summary": "This spot is popular", "type": "general", "reasonName": "globalInteractionReason"}]}, "venue": {"id": "4bd41fbc046076b0ef637771", "name": "EisPiraten", "location": {"address": "Gr\u00fcnberger Str. 85", "lat": 52.511008114807154, "lng": 13.461591560020933, "labeledLatLngs": [{"label": "display", "lat": 52.511008114807154, "lng": 13.461591560020933}], "distance": 876, "postalCode": "10245", "cc": "DE", "city": "Berlin", "state": "Berlin", "country": "Deutschland", "formattedAddress": ["Gr\u00fcnberger Str. 85", "10245 Berlin", "Deutschland"]}, "categories": [{"id": "4bf58dd8d48988d1c9941735", "name": "Ice Cream Shop", "pluralName": "Ice Cream Shops", "shortName": "Ice Cream", "icon": {"prefix": "https://ss3.4sqi.net/img/categories_v2/food/icecream_", "suffix": ".png"}, "primary": true}], "photos": {"count": 0, "groups": []}}, "referralId": "e-0-4bd41fbc046076b0ef637771-60"}, {"reasons": {"count": 0, "items": [{"summary": "This spot is popular", "type": "general", "reasonName": "globalInteractionReason"}]}, "venue": {"id": "4b1e56d2f964a520e71824e3", "name": "Lemongrass", "location": {"address": "Simon-Dach-Str. 2", "lat": 52.512525, "lng": 13.457317, "labeledLatLngs": [{"label": "display", "lat": 52.512525, "lng": 13.457317}], "distance": 768, "postalCode": "10245", "cc": "DE", "city": "Berlin", "state": "Berlin", "country": "Deutschland", "formattedAddress": ["Simon-Dach-Str. 2", "10245 Berlin", "Deutschland"]}, "categories": [{"id": "4bf58dd8d48988d149941735", "name": "Thai Restaurant", "pluralName": "Thai Restaurants", "shortName": "Thai", "icon": {"prefix": "https://ss3.4sqi.net/img/categories_v2/food/thai_", "suffix": ".png"}, "primary": true}], "photos": {"count": 0, "groups": []}}, "referralId": "e-0-4b1e56d2f964a520e71824e3-61"}, {"reasons": {"count": 0, "items": [{"summary": "This spot is popular", "type": "general", "reasonName": "globalInteractionReason"}]}, "venue": {"id": "4c78014c97028cfabb4cd6fe", "name": "Il Tinello", "location": {"address": "Samariterstr. 28", "lat": 52.51841861878021, "lng": 13.466121923248616, "labeledLatLngs": [{"label": "display", "lat": 52.51841861878021, "lng": 13.466121923248616}], "distance": 302, "postalCode": "10247", "cc": "DE", "city": "Berlin", "state": "Berlin", "country": "Deutschland", "formattedAddress": ["Samariterstr. 28", "10247 Berlin", "Deutschland"]}, "categories": [{"id": "4bf58dd8d48988d110941735", "name": "Italian Restaurant", "pluralName": "Italian Restaurants", "shortName": "Italian", "icon": {"prefix": "https://ss3.4sqi.net/img/categories_v2/food/italian_", "suffix": ".png"}, "primary": true}], "photos": {"count": 0, "groups": []}}, "referralId": "e-0-4c78014c97028cfabb4cd6fe-62"}, {"reasons": {"count": 0, "items": [{"summary": "This spot is popular", "type": "general", "reasonName": "globalInteractionReason"}]}, "venue": {"id": "528e47eb498e40b1a1005925", "name": "Fatoush", "location": {"address": "Simon-Dach-Str. 41", "lat": 52.511459411791, "lng": 13.457050323486328, "labeledLatLngs": [{"label": "display", "lat": 52.511459411791, "lng": 13.457050323486328}], "distance": 884, "postalCode": "10245", "cc": "DE", "city": "Berlin", "state": "Berlin", "country": "Deutschland", "formattedAddress": ["Simon-Dach-Str. 41", "10245 Berlin", "Deutschland"]}, "categories": [{"id": "4bf58dd8d48988d115941735", "name": "Middle Eastern Restaurant", "pluralName": "Middle Eastern Restaurants", "shortName": "Middle Eastern", "icon": {"prefix": "https://ss3.4sqi.net/img/categories_v2/food/middleeastern_", "suffix": ".png"}, "primary": true}], "photos": {"count": 0, "groups": []}}, "referralId": "e-0-528e47eb498e40b1a1005925-63"}, {"reasons": {"count": 0, "items": [{"summary": "This spot is popular", "type": "general", "reasonName": "globalInteractionReason"}]}, "venue": {"id": "4ae9e7bbf964a52079b721e3", "name": "BIO COMPANY", "location": {"address": "Voigtstr. 38", "lat": 52.515852961290506, "lng": 13.468134177929201, "labeledLatLngs": [{"label": "display", "lat": 52.515852961290506, "lng": 13.468134177929201}], "distance": 550, "postalCode": "10247", "cc": "DE", "city": "Berlin", "state": "Berlin", "country": "Deutschland", "formattedAddress": ["Voigtstr. 38", "10247 Berlin", "Deutschland"]}, "categories": [{"id": "52f2ab2ebcbc57f1066b8b45", "name": "Organic Grocery", "pluralName": "Organic Groceries", "shortName": "Organic Grocery", "icon": {"prefix": "https://ss3.4sqi.net/img/categories_v2/shops/food_grocery_", "suffix": ".png"}, "primary": true}], "photos": {"count": 0, "groups": []}, "venuePage": {"id": "472458220"}}, "referralId": "e-0-4ae9e7bbf964a52079b721e3-64"}, {"reasons": {"count": 0, "items": [{"summary": "This spot is popular", "type": "general", "reasonName": "globalInteractionReason"}]}, "venue": {"id": "56843244498e00c0102354eb", "name": "Trautes Hain", "location": {"address": "Peterburger Str. 95", "lat": 52.51713157645406, "lng": 13.453620254481637, "labeledLatLngs": [{"label": "display", "lat": 52.51713157645406, "lng": 13.453620254481637}], "distance": 582, "postalCode": "10247", "cc": "DE", "city": "Berlin", "state": "Berlin", "country": "Deutschland", "formattedAddress": ["Peterburger Str. 95", "10247 Berlin", "Deutschland"]}, "categories": [{"id": "4bf58dd8d48988d11b941735", "name": "Pub", "pluralName": "Pubs", "shortName": "Pub", "icon": {"prefix": "https://ss3.4sqi.net/img/categories_v2/nightlife/pub_", "suffix": ".png"}, "primary": true}], "photos": {"count": 0, "groups": []}}, "referralId": "e-0-56843244498e00c0102354eb-65"}, {"reasons": {"count": 0, "items": [{"summary": "This spot is popular", "type": "general", "reasonName": "globalInteractionReason"}]}, "venue": {"id": "535aac42498eae1fbd4b816b", "name": "Chai Ji", "location": {"address": "Rigaer Stra\u00dfe 30", "crossStreet": "Silvio-Meier-Str.", "lat": 52.516508, "lng": 13.463286, "labeledLatLngs": [{"label": "display", "lat": 52.516508, "lng": 13.463286}], "distance": 284, "postalCode": "10247", "cc": "DE", "city": "Berlin", "state": "Berlin", "country": "Deutschland", "formattedAddress": ["Rigaer Stra\u00dfe 30 (Silvio-Meier-Str.)", "10247 Berlin", "Deutschland"]}, "categories": [{"id": "4bf58dd8d48988d10f941735", "name": "Indian Restaurant", "pluralName": "Indian Restaurants", "shortName": "Indian", "icon": {"prefix": "https://ss3.4sqi.net/img/categories_v2/food/indian_", "suffix": ".png"}, "primary": true}], "photos": {"count": 0, "groups": []}}, "referralId": "e-0-535aac42498eae1fbd4b816b-66"}, {"reasons": {"count": 0, "items": [{"summary": "This spot is popular", "type": "general", "reasonName": "globalInteractionReason"}]}, "venue": {"id": "4e0587ad81dc6d6d36a55cd0", "name": "Booze Bar", "location": {"address": "Boxhagener Str. 105", "lat": 52.51266429010427, "lng": 13.458672189695298, "labeledLatLngs": [{"label": "display", "lat": 52.51266429010427, "lng": 13.458672189695298}], "distance": 722, "postalCode": "10245", "cc": "DE", "city": "Berlin", "state": "Berlin", "country": "Deutschland", "formattedAddress": ["Boxhagener Str. 105", "10245 Berlin", "Deutschland"]}, "categories": [{"id": "4bf58dd8d48988d11e941735", "name": "Cocktail Bar", "pluralName": "Cocktail Bars", "shortName": "Cocktail", "icon": {"prefix": "https://ss3.4sqi.net/img/categories_v2/nightlife/cocktails_", "suffix": ".png"}, "primary": true}], "photos": {"count": 0, "groups": []}}, "referralId": "e-0-4e0587ad81dc6d6d36a55cd0-67"}, {"reasons": {"count": 0, "items": [{"summary": "This spot is popular", "type": "general", "reasonName": "globalInteractionReason"}]}, "venue": {"id": "4af9600bf964a5207f1122e3", "name": "Hot Dog Soup", "location": {"address": "Gr\u00fcnberger Str. 69", "crossStreet": "Gabriel-Max-Str.", "lat": 52.51148105093338, "lng": 13.458573003047329, "labeledLatLngs": [{"label": "display", "lat": 52.51148105093338, "lng": 13.458573003047329}], "distance": 851, "postalCode": "10245", "cc": "DE", "city": "Berlin", "state": "Berlin", "country": "Deutschland", "formattedAddress": ["Gr\u00fcnberger Str. 69 (Gabriel-Max-Str.)", "10245 Berlin", "Deutschland"]}, "categories": [{"id": "4bf58dd8d48988d16f941735", "name": "Hot Dog Joint", "pluralName": "Hot Dog Joints", "shortName": "Hot Dogs", "icon": {"prefix": "https://ss3.4sqi.net/img/categories_v2/food/hotdog_", "suffix": ".png"}, "primary": true}], "photos": {"count": 0, "groups": []}}, "referralId": "e-0-4af9600bf964a5207f1122e3-68"}, {"reasons": {"count": 0, "items": [{"summary": "This spot is popular", "type": "general", "reasonName": "globalInteractionReason"}]}, "venue": {"id": "576ec2d2498e50ff86ed1fb6", "name": "Heritage Colonial Cuisine", "location": {"address": "Frankfurter Allee 21", "lat": 52.515916, "lng": 13.458576, "labeledLatLngs": [{"label": "display", "lat": 52.515916, "lng": 13.458576}], "distance": 392, "postalCode": "10247", "cc": "DE", "city": "Berlin", "state": "Berlin", "country": "Deutschland", "formattedAddress": ["Frankfurter Allee 21", "10247 Berlin", "Deutschland"]}, "categories": [{"id": "4bf58dd8d48988d14a941735", "name": "Vietnamese Restaurant", "pluralName": "Vietnamese Restaurants", "shortName": "Vietnamese", "icon": {"prefix": "https://ss3.4sqi.net/img/categories_v2/food/vietnamese_", "suffix": ".png"}, "primary": true}], "photos": {"count": 0, "groups": []}}, "referralId": "e-0-576ec2d2498e50ff86ed1fb6-69"}, {"reasons": {"count": 0, "items": [{"summary": "This spot is popular", "type": "general", "reasonName": "globalInteractionReason"}]}, "venue": {"id": "4d7a6bdf6ae037048679cb25", "name": "Saporito", "location": {"address": "Stra\u00dfmannstr. 21", "crossStreet": "Petersburger Str.", "lat": 52.52228497346113, "lng": 13.450016137626529, "labeledLatLngs": [{"label": "display", "lat": 52.52228497346113, "lng": 13.450016137626529}], "distance": 878, "postalCode": "10249", "cc": "DE", "city": "Berlin", "state": "Berlin", "country": "Deutschland", "formattedAddress": ["Stra\u00dfmannstr. 21 (Petersburger Str.)", "10249 Berlin", "Deutschland"]}, "categories": [{"id": "4bf58dd8d48988d110941735", "name": "Italian Restaurant", "pluralName": "Italian Restaurants", "shortName": "Italian", "icon": {"prefix": "https://ss3.4sqi.net/img/categories_v2/food/italian_", "suffix": ".png"}, "primary": true}], "photos": {"count": 0, "groups": []}}, "referralId": "e-0-4d7a6bdf6ae037048679cb25-70"}, {"reasons": {"count": 0, "items": [{"summary": "This spot is popular", "type": "general", "reasonName": "globalInteractionReason"}]}, "venue": {"id": "4bbdc7f54e069c7409159fe3", "name": "Al Gazali", "location": {"address": "Krossener Str. 21", "lat": 52.510514223539914, "lng": 13.459297238492324, "labeledLatLngs": [{"label": "display", "lat": 52.510514223539914, "lng": 13.459297238492324}], "distance": 945, "postalCode": "10245", "cc": "DE", "city": "Berlin", "state": "Berlin", "country": "Deutschland", "formattedAddress": ["Krossener Str. 21", "10245 Berlin", "Deutschland"]}, "categories": [{"id": "4bf58dd8d48988d10b941735", "name": "Falafel Restaurant", "pluralName": "Falafel Restaurants", "shortName": "Falafel", "icon": {"prefix": "https://ss3.4sqi.net/img/categories_v2/food/falafel_", "suffix": ".png"}, "primary": true}], "photos": {"count": 0, "groups": []}}, "referralId": "e-0-4bbdc7f54e069c7409159fe3-71"}, {"reasons": {"count": 0, "items": [{"summary": "This spot is popular", "type": "general", "reasonName": "globalInteractionReason"}]}, "venue": {"id": "4a93587bf964a520971f20e3", "name": "Fischladen", "location": {"address": "Rigaer Str. 83", "lat": 52.51700621578385, "lng": 13.461707225465307, "labeledLatLngs": [{"label": "display", "lat": 52.51700621578385, "lng": 13.461707225465307}], "distance": 208, "postalCode": "10247", "cc": "DE", "city": "Berlin", "state": "Berlin", "country": "Deutschland", "formattedAddress": ["Rigaer Str. 83", "10247 Berlin", "Deutschland"]}, "categories": [{"id": "4bf58dd8d48988d118941735", "name": "Dive Bar", "pluralName": "Dive Bars", "shortName": "Dive Bar", "icon": {"prefix": "https://ss3.4sqi.net/img/categories_v2/nightlife/divebar_", "suffix": ".png"}, "primary": true}], "photos": {"count": 0, "groups": []}}, "referralId": "e-0-4a93587bf964a520971f20e3-72"}, {"reasons": {"count": 0, "items": [{"summary": "This spot is popular", "type": "general", "reasonName": "globalInteractionReason"}]}, "venue": {"id": "4c6174d3832fa5931717f2d3", "name": "Melt", "location": {"address": "Gr\u00fcnberger Str. 40", "lat": 52.51226770825317, "lng": 13.453911336470677, "labeledLatLngs": [{"label": "display", "lat": 52.51226770825317, "lng": 13.453911336470677}], "distance": 906, "postalCode": "10245", "cc": "DE", "city": "Berlin", "state": "Berlin", "country": "Deutschland", "formattedAddress": ["Gr\u00fcnberger Str. 40", "10245 Berlin", "Deutschland"]}, "categories": [{"id": "52e81612bcbc57f1066b79f2", "name": "Creperie", "pluralName": "Creperies", "shortName": "Creperie", "icon": {"prefix": "https://ss3.4sqi.net/img/categories_v2/food/creperie_", "suffix": ".png"}, "primary": true}], "photos": {"count": 0, "groups": []}}, "referralId": "e-0-4c6174d3832fa5931717f2d3-73"}, {"reasons": {"count": 0, "items": [{"summary": "This spot is popular", "type": "general", "reasonName": "globalInteractionReason"}]}, "venue": {"id": "5366185e498e00ff04b60f31", "name": "Fine Bagels", "location": {"address": "Warschauer Str. 74", "lat": 52.512644, "lng": 13.453135, "labeledLatLngs": [{"label": "display", "lat": 52.512644, "lng": 13.453135}], "distance": 905, "postalCode": "10243", "cc": "DE", "city": "Berlin", "state": "Berlin", "country": "Deutschland", "formattedAddress": ["Warschauer Str. 74", "10243 Berlin", "Deutschland"]}, "categories": [{"id": "4bf58dd8d48988d179941735", "name": "Bagel Shop", "pluralName": "Bagel Shops", "shortName": "Bagels", "icon": {"prefix": "https://ss3.4sqi.net/img/categories_v2/food/bagels_", "suffix": ".png"}, "primary": true}], "photos": {"count": 0, "groups": []}}, "referralId": "e-0-5366185e498e00ff04b60f31-74"}, {"reasons": {"count": 0, "items": [{"summary": "This spot is popular", "type": "general", "reasonName": "globalInteractionReason"}]}, "venue": {"id": "4b708248f964a520d91e2de3", "name": "koy", "location": {"address": "Rigaer Str. 26", "lat": 52.516978564287626, "lng": 13.462001432060234, "labeledLatLngs": [{"label": "display", "lat": 52.516978564287626, "lng": 13.462001432060234}], "distance": 212, "postalCode": "10247", "cc": "DE", "city": "Berlin", "state": "Berlin", "country": "Deutschland", "formattedAddress": ["Rigaer Str. 26", "10247 Berlin", "Deutschland"]}, "categories": [{"id": "4bf58dd8d48988d14a941735", "name": "Vietnamese Restaurant", "pluralName": "Vietnamese Restaurants", "shortName": "Vietnamese", "icon": {"prefix": "https://ss3.4sqi.net/img/categories_v2/food/vietnamese_", "suffix": ".png"}, "primary": true}], "photos": {"count": 0, "groups": []}}, "referralId": "e-0-4b708248f964a520d91e2de3-75"}, {"reasons": {"count": 0, "items": [{"summary": "This spot is popular", "type": "general", "reasonName": "globalInteractionReason"}]}, "venue": {"id": "56fec8b2498eb4b35b80494d", "name": "Friedrichs Wirtschaft", "location": {"address": "Niederbarnimstra\u00dfe 16", "lat": 52.513214, "lng": 13.458249, "labeledLatLngs": [{"label": "display", "lat": 52.513214, "lng": 13.458249}], "distance": 673, "postalCode": "10247", "cc": "DE", "city": "Berlin", "state": "Berlin", "country": "Deutschland", "formattedAddress": ["Niederbarnimstra\u00dfe 16", "10247 Berlin", "Deutschland"]}, "categories": [{"id": "56aa371ce4b08b9a8d573574", "name": "Franconian Restaurant", "pluralName": "Franconian Restaurants", "shortName": "Franconian", "icon": {"prefix": "https://ss3.4sqi.net/img/categories_v2/food/german_", "suffix": ".png"}, "primary": true}], "photos": {"count": 0, "groups": []}}, "referralId": "e-0-56fec8b2498eb4b35b80494d-76"}, {"reasons": {"count": 0, "items": [{"summary": "This spot is popular", "type": "general", "reasonName": "globalInteractionReason"}]}, "venue": {"id": "4d971e70af3d236a1b911ac7", "name": "Zum Goldenen Lenker", "location": {"address": "Gr\u00fcnberger Stra\u00dfe 90", "crossStreet": "Seumestra\u00dfe", "lat": 52.510808166243464, "lng": 13.462651304396907, "labeledLatLngs": [{"label": "display", "lat": 52.510808166243464, "lng": 13.462651304396907}], "distance": 901, "postalCode": "10245", "cc": "DE", "city": "Berlin", "state": "Berlin", "country": "Deutschland", "formattedAddress": ["Gr\u00fcnberger Stra\u00dfe 90 (Seumestra\u00dfe)", "10245 Berlin", "Deutschland"]}, "categories": [{"id": "4bf58dd8d48988d115951735", "name": "Bike Shop", "pluralName": "Bike Shops", "shortName": "Bike Shop", "icon": {"prefix": "https://ss3.4sqi.net/img/categories_v2/shops/bikeshop_", "suffix": ".png"}, "primary": true}], "photos": {"count": 0, "groups": []}}, "referralId": "e-0-4d971e70af3d236a1b911ac7-77"}, {"reasons": {"count": 0, "items": [{"summary": "This spot is popular", "type": "general", "reasonName": "globalInteractionReason"}]}, "venue": {"id": "4da04fcec41ca1433b0345a3", "name": "Blaue Bohnen Kaffeer\u00f6sterei", "location": {"address": "Seumestr. 14", "lat": 52.51043615659477, "lng": 13.462552693620097, "labeledLatLngs": [{"label": "display", "lat": 52.51043615659477, "lng": 13.462552693620097}], "distance": 941, "postalCode": "10245", "cc": "DE", "neighborhood": "Boxhagener Kiez", "city": "Berlin", "state": "Berlin", "country": "Deutschland", "formattedAddress": ["Seumestr. 14", "10245 Berlin", "Deutschland"]}, "categories": [{"id": "4bf58dd8d48988d1e0931735", "name": "Coffee Shop", "pluralName": "Coffee Shops", "shortName": "Coffee Shop", "icon": {"prefix": "https://ss3.4sqi.net/img/categories_v2/food/coffeeshop_", "suffix": ".png"}, "primary": true}], "photos": {"count": 0, "groups": []}}, "referralId": "e-0-4da04fcec41ca1433b0345a3-78"}, {"reasons": {"count": 0, "items": [{"summary": "This spot is popular", "type": "general", "reasonName": "globalInteractionReason"}]}, "venue": {"id": "4dbda4f343a1d8504baac3f3", "name": "Ali Baba", "location": {"address": "Krossener Str. 17", "lat": 52.510716796399265, "lng": 13.457534689434333, "labeledLatLngs": [{"label": "display", "lat": 52.510716796399265, "lng": 13.457534689434333}], "distance": 952, "postalCode": "10245", "cc": "DE", "city": "Berlin", "state": "Berlin", "country": "Deutschland", "formattedAddress": ["Krossener Str. 17", "10245 Berlin", "Deutschland"]}, "categories": [{"id": "4bf58dd8d48988d115941735", "name": "Middle Eastern Restaurant", "pluralName": "Middle Eastern Restaurants", "shortName": "Middle Eastern", "icon": {"prefix": "https://ss3.4sqi.net/img/categories_v2/food/middleeastern_", "suffix": ".png"}, "primary": true}], "photos": {"count": 0, "groups": []}}, "referralId": "e-0-4dbda4f343a1d8504baac3f3-79"}, {"reasons": {"count": 0, "items": [{"summary": "This spot is popular", "type": "general", "reasonName": "globalInteractionReason"}]}, "venue": {"id": "4af524c0f964a5206cf821e3", "name": "B\u00e4ckerei Pistoria", "location": {"address": "Schreinerstr. 23", "lat": 52.516765926065695, "lng": 13.468571439676994, "labeledLatLngs": [{"label": "display", "lat": 52.516765926065695, "lng": 13.468571439676994}], "distance": 520, "postalCode": "10247", "cc": "DE", "city": "Berlin", "state": "Berlin", "country": "Deutschland", "formattedAddress": ["Schreinerstr. 23", "10247 Berlin", "Deutschland"]}, "categories": [{"id": "4bf58dd8d48988d16a941735", "name": "Bakery", "pluralName": "Bakeries", "shortName": "Bakery", "icon": {"prefix": "https://ss3.4sqi.net/img/categories_v2/food/bakery_", "suffix": ".png"}, "primary": true}], "photos": {"count": 0, "groups": []}}, "referralId": "e-0-4af524c0f964a5206cf821e3-80"}, {"reasons": {"count": 0, "items": [{"summary": "This spot is popular", "type": "general", "reasonName": "globalInteractionReason"}]}, "venue": {"id": "4ff84cf1e4b04619c7cc3d3d", "name": "Louise Ch\u00e9rie Caf\u00e9", "location": {"address": "Gr\u00fcnberger Str. 91", "lat": 52.51090471586084, "lng": 13.46243230655939, "labeledLatLngs": [{"label": "display", "lat": 52.51090471586084, "lng": 13.46243230655939}], "distance": 889, "postalCode": "10245", "cc": "DE", "neighborhood": "Boxhagener Kiez", "city": "Berlin", "state": "Berlin", "country": "Deutschland", "formattedAddress": ["Gr\u00fcnberger Str. 91", "10245 Berlin", "Deutschland"]}, "categories": [{"id": "4bf58dd8d48988d16d941735", "name": "Caf\u00e9", "pluralName": "Caf\u00e9s", "shortName": "Caf\u00e9", "icon": {"prefix": "https://ss3.4sqi.net/img/categories_v2/food/cafe_", "suffix": ".png"}, "primary": true}], "photos": {"count": 0, "groups": []}, "venuePage": {"id": "151031670"}}, "referralId": "e-0-4ff84cf1e4b04619c7cc3d3d-81"}, {"reasons": {"count": 0, "items": [{"summary": "This spot is popular", "type": "general", "reasonName": "globalInteractionReason"}]}, "venue": {"id": "4bd2f3b4462cb713e82fdd07", "name": "Sanabel", "location": {"address": "Gabriel-Max-Str. 16", "lat": 52.51100980548266, "lng": 13.458758472458484, "labeledLatLngs": [{"label": "display", "lat": 52.51100980548266, "lng": 13.458758472458484}], "distance": 899, "postalCode": "10245", "cc": "DE", "city": "Berlin", "state": "Berlin", "country": "Deutschland", "formattedAddress": ["Gabriel-Max-Str. 16", "10245 Berlin", "Deutschland"]}, "categories": [{"id": "4bf58dd8d48988d10b941735", "name": "Falafel Restaurant", "pluralName": "Falafel Restaurants", "shortName": "Falafel", "icon": {"prefix": "https://ss3.4sqi.net/img/categories_v2/food/falafel_", "suffix": ".png"}, "primary": true}], "photos": {"count": 0, "groups": []}}, "referralId": "e-0-4bd2f3b4462cb713e82fdd07-82"}, {"reasons": {"count": 0, "items": [{"summary": "This spot is popular", "type": "general", "reasonName": "globalInteractionReason"}]}, "venue": {"id": "58669dfd13af1c32d09c0a44", "name": "1990 Vegan Living", "location": {"address": "Krossener Str. 19", "crossStreet": "Boxhagener Platz", "lat": 52.5104097662086, "lng": 13.45849871635437, "labeledLatLngs": [{"label": "display", "lat": 52.5104097662086, "lng": 13.45849871635437}], "distance": 968, "postalCode": "10245", "cc": "DE", "neighborhood": "Boxhagener Kiez", "city": "Berlin", "state": "Berlin", "country": "Deutschland", "formattedAddress": ["Krossener Str. 19 (Boxhagener Platz)", "10245 Berlin", "Deutschland"]}, "categories": [{"id": "4bf58dd8d48988d1d3941735", "name": "Vegetarian / Vegan Restaurant", "pluralName": "Vegetarian / Vegan Restaurants", "shortName": "Vegetarian / Vegan", "icon": {"prefix": "https://ss3.4sqi.net/img/categories_v2/food/vegetarian_", "suffix": ".png"}, "primary": true}], "photos": {"count": 0, "groups": []}}, "referralId": "e-0-58669dfd13af1c32d09c0a44-83"}, {"reasons": {"count": 0, "items": [{"summary": "This spot is popular", "type": "general", "reasonName": "globalInteractionReason"}]}, "venue": {"id": "4bf32fcf6ba2b71335188977", "name": "Franz Mehring Buchhandlung", "location": {"address": "Frankfurter Allee 65", "lat": 52.514666960261586, "lng": 13.46672773361206, "labeledLatLngs": [{"label": "display", "lat": 52.514666960261586, "lng": 13.46672773361206}], "distance": 579, "postalCode": "10247", "cc": "DE", "city": "Berlin", "state": "Berlin", "country": "Deutschland", "formattedAddress": ["Frankfurter Allee 65", "10247 Berlin", "Deutschland"]}, "categories": [{"id": "4bf58dd8d48988d114951735", "name": "Bookstore", "pluralName": "Bookstores", "shortName": "Bookstore", "icon": {"prefix": "https://ss3.4sqi.net/img/categories_v2/shops/bookstore_", "suffix": ".png"}, "primary": true}], "photos": {"count": 0, "groups": []}}, "referralId": "e-0-4bf32fcf6ba2b71335188977-84"}, {"reasons": {"count": 0, "items": [{"summary": "This spot is popular", "type": "general", "reasonName": "globalInteractionReason"}]}, "venue": {"id": "4baa56c3f964a520bc603ae3", "name": "UrbanBoarding Longboard und Skateboard Shop", "location": {"address": "Gr\u00fcnberger Str. 42", "lat": 52.51202508194773, "lng": 13.454193230688475, "labeledLatLngs": [{"label": "display", "lat": 52.51202508194773, "lng": 13.454193230688475}], "distance": 918, "postalCode": "10245", "cc": "DE", "city": "Berlin", "state": "Berlin", "country": "Deutschland", "formattedAddress": ["Gr\u00fcnberger Str. 42", "10245 Berlin", "Deutschland"]}, "categories": [{"id": "4bf58dd8d48988d1f1941735", "name": "Board Shop", "pluralName": "Board Shops", "shortName": "Board Shop", "icon": {"prefix": "https://ss3.4sqi.net/img/categories_v2/parks_outdoors/surfspot_", "suffix": ".png"}, "primary": true}], "photos": {"count": 0, "groups": []}, "venuePage": {"id": "200867844"}}, "referralId": "e-0-4baa56c3f964a520bc603ae3-85"}, {"reasons": {"count": 0, "items": [{"summary": "This spot is popular", "type": "general", "reasonName": "globalInteractionReason"}]}, "venue": {"id": "4c38cf370a71c9b6d35f41c9", "name": "Lolly Pub", "location": {"address": "B\u00e4nschstr. 54", "lat": 52.51793129259826, "lng": 13.46585177880877, "labeledLatLngs": [{"label": "display", "lat": 52.51793129259826, "lng": 13.46585177880877}], "distance": 299, "postalCode": "10247", "cc": "DE", "city": "Berlin", "state": "Berlin", "country": "Deutschland", "formattedAddress": ["B\u00e4nschstr. 54", "10247 Berlin", "Deutschland"]}, "categories": [{"id": "4bf58dd8d48988d11d941735", "name": "Sports Bar", "pluralName": "Sports Bars", "shortName": "Sports Bar", "icon": {"prefix": "https://ss3.4sqi.net/img/categories_v2/nightlife/sportsbar_", "suffix": ".png"}, "primary": true}], "photos": {"count": 0, "groups": []}}, "referralId": "e-0-4c38cf370a71c9b6d35f41c9-86"}, {"reasons": {"count": 0, "items": [{"summary": "This spot is popular", "type": "general", "reasonName": "globalInteractionReason"}]}, "venue": {"id": "59c94660c9f9075136f7cbc3", "name": "Hako Ramen", "location": {"address": "Boxhagener Str. 26", "crossStreet": "Simon-Dach-Str.", "lat": 52.51267510739075, "lng": 13.458088579430422, "labeledLatLngs": [{"label": "display", "lat": 52.51267510739075, "lng": 13.458088579430422}], "distance": 733, "postalCode": "10245", "cc": "DE", "neighborhood": "Boxhagener Kiez", "city": "Berlin", "state": "Berlin", "country": "Deutschland", "formattedAddress": ["Boxhagener Str. 26 (Simon-Dach-Str.)", "10245 Berlin", "Deutschland"]}, "categories": [{"id": "55a59bace4b013909087cb24", "name": "Ramen Restaurant", "pluralName": "Ramen Restaurants", "shortName": "Ramen", "icon": {"prefix": "https://ss3.4sqi.net/img/categories_v2/food/ramen_", "suffix": ".png"}, "primary": true}], "photos": {"count": 0, "groups": []}}, "referralId": "e-0-59c94660c9f9075136f7cbc3-87"}, {"reasons": {"count": 0, "items": [{"summary": "This spot is popular", "type": "general", "reasonName": "globalInteractionReason"}]}, "venue": {"id": "57385eab498e9028345aa578", "name": "La Despensa", "location": {"address": "Samariterstr. 35", "lat": 52.515922, "lng": 13.46479, "labeledLatLngs": [{"label": "display", "lat": 52.515922, "lng": 13.46479}], "distance": 389, "postalCode": "10247", "cc": "DE", "neighborhood": "Samariterkiez", "city": "Berlin", "state": "Berlin", "country": "Deutschland", "formattedAddress": ["Samariterstr. 35", "10247 Berlin", "Deutschland"]}, "categories": [{"id": "4bf58dd8d48988d1cd941735", "name": "South American Restaurant", "pluralName": "South American Restaurants", "shortName": "South American", "icon": {"prefix": "https://ss3.4sqi.net/img/categories_v2/food/argentinian_", "suffix": ".png"}, "primary": true}], "photos": {"count": 0, "groups": []}}, "referralId": "e-0-57385eab498e9028345aa578-88"}, {"reasons": {"count": 0, "items": [{"summary": "This spot is popular", "type": "general", "reasonName": "globalInteractionReason"}]}, "venue": {"id": "518b8580498e33a20a7145af", "name": "Rembrandt Burger", "location": {"address": "Richard-Sorge-Str. 21", "lat": 52.51997371400662, "lng": 13.447589191840589, "labeledLatLngs": [{"label": "display", "lat": 52.51997371400662, "lng": 13.447589191840589}], "distance": 964, "postalCode": "10249", "cc": "DE", "city": "Berlin", "state": "Berlin", "country": "Deutschland", "formattedAddress": ["Richard-Sorge-Str. 21", "10249 Berlin", "Deutschland"]}, "categories": [{"id": "4bf58dd8d48988d16c941735", "name": "Burger Joint", "pluralName": "Burger Joints", "shortName": "Burgers", "icon": {"prefix": "https://ss3.4sqi.net/img/categories_v2/food/burger_", "suffix": ".png"}, "primary": true}], "photos": {"count": 0, "groups": []}, "venuePage": {"id": "77222771"}}, "referralId": "e-0-518b8580498e33a20a7145af-89"}, {"reasons": {"count": 0, "items": [{"summary": "This spot is popular", "type": "general", "reasonName": "globalInteractionReason"}]}, "venue": {"id": "51ab9df0498ebe068dce3ca9", "name": "Butterhandlung", "location": {"address": "Scharnweberstr. 54", "crossStreet": "M\u00fcggelstr.", "lat": 52.512276475772644, "lng": 13.471021769013547, "labeledLatLngs": [{"label": "display", "lat": 52.512276475772644, "lng": 13.471021769013547}], "distance": 968, "postalCode": "10247", "cc": "DE", "city": "Berlin", "state": "Berlin", "country": "Deutschland", "formattedAddress": ["Scharnweberstr. 54 (M\u00fcggelstr.)", "10247 Berlin", "Deutschland"]}, "categories": [{"id": "52e81612bcbc57f1066b79f9", "name": "Modern European Restaurant", "pluralName": "Modern European Restaurants", "shortName": "Modern European", "icon": {"prefix": "https://ss3.4sqi.net/img/categories_v2/food/default_", "suffix": ".png"}, "primary": true}], "photos": {"count": 0, "groups": []}}, "referralId": "e-0-51ab9df0498ebe068dce3ca9-90"}, {"reasons": {"count": 0, "items": [{"summary": "This spot is popular", "type": "general", "reasonName": "globalInteractionReason"}]}, "venue": {"id": "4c075d1c42d4b7135aa6f445", "name": "Sheriff Teddy Bar", "location": {"address": "Weserstr. 25", "crossStreet": "Wismarplatz", "lat": 52.51132260020181, "lng": 13.463336505621017, "labeledLatLngs": [{"label": "display", "lat": 52.51132260020181, "lng": 13.463336505621017}], "distance": 848, "postalCode": "10247", "cc": "DE", "city": "Berlin", "state": "Berlin", "country": "Deutschland", "formattedAddress": ["Weserstr. 25 (Wismarplatz)", "10247 Berlin", "Deutschland"]}, "categories": [{"id": "4bf58dd8d48988d116941735", "name": "Bar", "pluralName": "Bars", "shortName": "Bar", "icon": {"prefix": "https://ss3.4sqi.net/img/categories_v2/nightlife/pub_", "suffix": ".png"}, "primary": true}], "photos": {"count": 0, "groups": []}}, "referralId": "e-0-4c075d1c42d4b7135aa6f445-91"}, {"reasons": {"count": 0, "items": [{"summary": "This spot is popular", "type": "general", "reasonName": "globalInteractionReason"}]}, "venue": {"id": "595fcb26e179103edc2672a4", "name": "Chipi Chipi Bomb\u00f3n", "location": {"address": "Warschauerstra\u00dfe 12", "lat": 52.51320538679989, "lng": 13.452758191047728, "labeledLatLngs": [{"label": "display", "lat": 52.51320538679989, "lng": 13.452758191047728}], "distance": 876, "postalCode": "10243", "cc": "DE", "state": "Berlin", "country": "Deutschland", "formattedAddress": ["Warschauerstra\u00dfe 12", "10243", "Deutschland"]}, "categories": [{"id": "4bf58dd8d48988d1c9941735", "name": "Ice Cream Shop", "pluralName": "Ice Cream Shops", "shortName": "Ice Cream", "icon": {"prefix": "https://ss3.4sqi.net/img/categories_v2/food/icecream_", "suffix": ".png"}, "primary": true}], "photos": {"count": 0, "groups": []}}, "referralId": "e-0-595fcb26e179103edc2672a4-92"}, {"reasons": {"count": 0, "items": [{"summary": "This spot is popular", "type": "general", "reasonName": "globalInteractionReason"}]}, "venue": {"id": "4b85987af964a520936731e3", "name": "Macondo", "location": {"address": "G\u00e4rtnerstr. 14", "crossStreet": "Boxhagener Platz", "lat": 52.510971217107446, "lng": 13.460786008778014, "labeledLatLngs": [{"label": "display", "lat": 52.510971217107446, "lng": 13.460786008778014}], "distance": 882, "postalCode": "10245", "cc": "DE", "city": "Berlin", "state": "Berlin", "country": "Deutschland", "formattedAddress": ["G\u00e4rtnerstr. 14 (Boxhagener Platz)", "10245 Berlin", "Deutschland"]}, "categories": [{"id": "4bf58dd8d48988d16d941735", "name": "Caf\u00e9", "pluralName": "Caf\u00e9s", "shortName": "Caf\u00e9", "icon": {"prefix": "https://ss3.4sqi.net/img/categories_v2/food/cafe_", "suffix": ".png"}, "primary": true}], "photos": {"count": 0, "groups": []}}, "referralId": "e-0-4b85987af964a520936731e3-93"}, {"reasons": {"count": 0, "items": [{"summary": "This spot is popular", "type": "general", "reasonName": "globalInteractionReason"}]}, "venue": {"id": "5aa14c79175562051ce3bf6b", "name": "Bread-\u00e0-Porter", "location": {"address": "Karl-Marx-Allee 140", "lat": 52.515803, "lng": 13.453228, "labeledLatLngs": [{"label": "display", "lat": 52.515803, "lng": 13.453228}], "distance": 669, "postalCode": "10243", "cc": "DE", "city": "Berlin", "state": "Berlin", "country": "Deutschland", "formattedAddress": ["Karl-Marx-Allee 140", "10243 Berlin", "Deutschland"]}, "categories": [{"id": "4bf58dd8d48988d1c5941735", "name": "Sandwich Place", "pluralName": "Sandwich Places", "shortName": "Sandwiches", "icon": {"prefix": "https://ss3.4sqi.net/img/categories_v2/food/deli_", "suffix": ".png"}, "primary": true}], "photos": {"count": 0, "groups": []}}, "referralId": "e-0-5aa14c79175562051ce3bf6b-94"}, {"reasons": {"count": 0, "items": [{"summary": "This spot is popular", "type": "general", "reasonName": "globalInteractionReason"}]}, "venue": {"id": "505a168de4b033863fbb6a18", "name": "Kiezsauna", "location": {"address": "Graudenzer Str. 19", "lat": 52.5152088929159, "lng": 13.44890955658569, "labeledLatLngs": [{"label": "display", "lat": 52.5152088929159, "lng": 13.44890955658569}], "distance": 959, "postalCode": "10243", "cc": "DE", "neighborhood": "Friedenstra\u00dfe", "city": "Berlin", "state": "Berlin", "country": "Deutschland", "formattedAddress": ["Graudenzer Str. 19", "10243 Berlin", "Deutschland"]}, "categories": [{"id": "58daa1558bbb0b01f18ec1ae", "name": "Sauna / Steam Room", "pluralName": "Saunas / Steam Rooms", "shortName": "Sauna / Steam Room", "icon": {"prefix": "https://ss3.4sqi.net/img/categories_v2/shops/spa_", "suffix": ".png"}, "primary": true}], "photos": {"count": 0, "groups": []}}, "referralId": "e-0-505a168de4b033863fbb6a18-95"}, {"reasons": {"count": 0, "items": [{"summary": "This spot is popular", "type": "general", "reasonName": "globalInteractionReason"}]}, "venue": {"id": "4d94b24b3c348eecb38ba8ae", "name": "Zeus Pizzeria & Pide", "location": {"address": "Boxhagener Str. 29", "lat": 52.51260188731147, "lng": 13.458886365004346, "labeledLatLngs": [{"label": "display", "lat": 52.51260188731147, "lng": 13.458886365004346}], "distance": 725, "postalCode": "10245", "cc": "DE", "neighborhood": "Friedrichshain", "city": "Berlin", "state": "Berlin", "country": "Deutschland", "formattedAddress": ["Boxhagener Str. 29", "10245 Berlin", "Deutschland"]}, "categories": [{"id": "4bf58dd8d48988d1ca941735", "name": "Pizza Place", "pluralName": "Pizza Places", "shortName": "Pizza", "icon": {"prefix": "https://ss3.4sqi.net/img/categories_v2/food/pizza_", "suffix": ".png"}, "primary": true}], "photos": {"count": 0, "groups": []}}, "referralId": "e-0-4d94b24b3c348eecb38ba8ae-96"}, {"reasons": {"count": 0, "items": [{"summary": "This spot is popular", "type": "general", "reasonName": "globalInteractionReason"}]}, "venue": {"id": "54fadb6b498ea7e048e83835", "name": "Passenger Espresso Pop Up", "location": {"address": "Boxhagener Platz", "lat": 52.51057961489879, "lng": 13.459368671274381, "labeledLatLngs": [{"label": "display", "lat": 52.51057961489879, "lng": 13.459368671274381}], "distance": 937, "postalCode": "10245", "cc": "DE", "city": "Berlin", "state": "Berlin", "country": "Deutschland", "formattedAddress": ["Boxhagener Platz", "10245 Berlin", "Deutschland"]}, "categories": [{"id": "4bf58dd8d48988d16d941735", "name": "Caf\u00e9", "pluralName": "Caf\u00e9s", "shortName": "Caf\u00e9", "icon": {"prefix": "https://ss3.4sqi.net/img/categories_v2/food/cafe_", "suffix": ".png"}, "primary": true}], "photos": {"count": 0, "groups": []}}, "referralId": "e-0-54fadb6b498ea7e048e83835-97"}, {"reasons": {"count": 0, "items": [{"summary": "This spot is popular", "type": "general", "reasonName": "globalInteractionReason"}]}, "venue": {"id": "5203f167498e5bedaf4c2649", "name": "Bar BoBu", "location": {"address": "M\u00fcggelstr. 9", "crossStreet": "Scharnweberstr.", "lat": 52.5121231473871, "lng": 13.470992229823871, "labeledLatLngs": [{"label": "display", "lat": 52.5121231473871, "lng": 13.470992229823871}], "distance": 980, "postalCode": "10247", "cc": "DE", "city": "Berlin", "state": "Berlin", "country": "Deutschland", "formattedAddress": ["M\u00fcggelstr. 9 (Scharnweberstr.)", "10247 Berlin", "Deutschland"]}, "categories": [{"id": "4bf58dd8d48988d116941735", "name": "Bar", "pluralName": "Bars", "shortName": "Bar", "icon": {"prefix": "https://ss3.4sqi.net/img/categories_v2/nightlife/pub_", "suffix": ".png"}, "primary": true}], "photos": {"count": 0, "groups": []}}, "referralId": "e-0-5203f167498e5bedaf4c2649-98"}, {"reasons": {"count": 0, "items": [{"summary": "This spot is popular", "type": "general", "reasonName": "globalInteractionReason"}]}, "venue": {"id": "5c152e49033693002c729a8c", "name": "Small Block", "location": {"lat": 52.519109, "lng": 13.450669, "labeledLatLngs": [{"label": "display", "lat": 52.519109, "lng": 13.450669}], "distance": 749, "cc": "DE", "city": "Berlin", "state": "Berlin", "country": "Deutschland", "formattedAddress": ["Berlin", "Deutschland"]}, "categories": [{"id": "4bf58dd8d48988d16d941735", "name": "Caf\u00e9", "pluralName": "Caf\u00e9s", "shortName": "Caf\u00e9", "icon": {"prefix": "https://ss3.4sqi.net/img/categories_v2/food/cafe_", "suffix": ".png"}, "primary": true}], "photos": {"count": 0, "groups": []}}, "referralId": "e-0-5c152e49033693002c729a8c-99"}]