[{"reasons": {"count": 0, "items": [{"summary": "This spot is popular", "type": "general", "reasonName": "globalInteractionReason"}]}, "venue": {"id": "4bc819a46501c9b6c59d3f29", "name": "Dresdner Feinb\u00e4ckerei", "location": {"address": "B\u00f6lschestr. 89", "crossStreet": "Lindenallee", "lat": 52.45407267187916, "lng": 13.625035750355172, "labeledLatLngs": [{"label": "display", "lat": 52.45407267187916, "lng": 13.625035750355172}], "distance": 969, "postalCode": "12587", "cc": "DE", "city": "Berlin", "state": "Berlin", "country": "Deutschland", "formattedAddress": ["B\u00f6lschestr. 89 (Lindenallee)", "12587 Berlin", "Deutschland"]}, "categories": [{"id": "4bf58dd8d48988d16a941735", "name": "Bakery", "pluralName": "Bakeries", "shortName": "Bakery", "icon": {"prefix": "https://ss3.4sqi.net/img/categories_v2/food/bakery_", "suffix": ".png"}, "primary": true}], "photos": {"count": 0, "groups": []}}, "referralId": "e-0-4bc819a46501c9b6c59d3f29-0"}, {"reasons": {"count": 0, "items": [{"summary": "This spot is popular", "type": "general", "reasonName": "globalInteractionReason"}]}, "venue": {"id": "4ba90c08f964a520aa063ae3", "name": "Rabu", "location": {"address": "Scharnweberstr. 67", "lat": 52.45480252444568, "lng": 13.628036359398225, "labeledLatLngs": [{"label": "display", "lat": 52.45480252444568, "lng": 13.628036359398225}], "distance": 751, "postalCode": "12587", "cc": "DE", "city": "Berlin", "state": "Berlin", "country": "Deutschland", "formattedAddress": ["Scharnweberstr. 67", "12587 Berlin", "Deutschland"]}, "categories": [{"id": "4bf58dd8d48988d116941735", "name": "Bar", "pluralName": "Bars", "shortName": "Bar", "icon": {"prefix": "https://ss3.4sqi.net/img/categories_v2/nightlife/pub_", "suffix": ".png"}, "primary": true}], "photos": {"count": 0, "groups": []}}, "referralId": "e-0-4ba90c08f964a520aa063ae3-1"}, {"reasons": {"count": 0, "items": [{"summary": "This spot is popular", "type": "general", "reasonName": "globalInteractionReason"}]}, "venue": {"id": "4b76f7d7f964a5209b6f2ee3", "name": "Kino Union", "location": {"address": "B\u00f6lschestr. 69", "lat": 52.45641171285207, "lng": 13.625468095190591, "labeledLatLngs": [{"label": "display", "lat": 52.45641171285207, "lng": 13.625468095190591}], "distance": 856, "postalCode": "12587", "cc": "DE", "city": "Berlin", "state": "Berlin", "country": "Deutschland", "formattedAddress": ["B\u00f6lschestr. 69", "12587 Berlin", "Deutschland"]}, "categories": [{"id": "4bf58dd8d48988d17e941735", "name": "Indie Movie Theater", "pluralName": "Indie Movie Theaters", "shortName": "Indie Movies", "icon": {"prefix": "https://ss3.4sqi.net/img/categories_v2/arts_entertainment/movietheater_", "suffix": ".png"}, "primary": true}], "photos": {"count": 0, "groups": []}}, "referralId": "e-0-4b76f7d7f964a5209b6f2ee3-2"}, {"reasons": {"count": 0, "items": [{"summary": "This spot is popular", "type": "general", "reasonName": "globalInteractionReason"}]}, "venue": {"id": "4ca1df132fb1a143e2460841", "name": "Fein B\u00e4ckerei", "location": {"address": "B\u00f6lschestra\u00dfe 78", "crossStreet": "Schmaler Weg", "lat": 52.45582877, "lng": 13.625376562500001, "labeledLatLngs": [{"label": "display", "lat": 52.45582877, "lng": 13.625376562500001}], "distance": 877, "postalCode": "12587", "cc": "DE", "city": "Berlin", "state": "Berlin", "country": "Deutschland", "formattedAddress": ["B\u00f6lschestra\u00dfe 78 (Schmaler Weg)", "12587 Berlin", "Deutschland"]}, "categories": [{"id": "4bf58dd8d48988d16a941735", "name": "Bakery", "pluralName": "Bakeries", "shortName": "Bakery", "icon": {"prefix": "https://ss3.4sqi.net/img/categories_v2/food/bakery_", "suffix": ".png"}, "primary": true}], "photos": {"count": 0, "groups": []}}, "referralId": "e-0-4ca1df132fb1a143e2460841-3"}, {"reasons": {"count": 0, "items": [{"summary": "This spot is popular", "type": "general", "reasonName": "globalInteractionReason"}]}, "venue": {"id": "4c7eaf42d860b60c45ac5e9d", "name": "Wirtshaus Rolandseck", "location": {"address": "Scharnweberstr. 80", "lat": 52.45288419670799, "lng": 13.62781047821045, "labeledLatLngs": [{"label": "display", "lat": 52.45288419670799, "lng": 13.62781047821045}], "distance": 882, "postalCode": "12587", "cc": "DE", "city": "Berlin", "state": "Berlin", "country": "Deutschland", "formattedAddress": ["Scharnweberstr. 80", "12587 Berlin", "Deutschland"]}, "categories": [{"id": "4bf58dd8d48988d10d941735", "name": "German Restaurant", "pluralName": "German Restaurants", "shortName": "German", "icon": {"prefix": "https://ss3.4sqi.net/img/categories_v2/food/german_", "suffix": ".png"}, "primary": true}], "photos": {"count": 0, "groups": []}, "venuePage": {"id": "151506174"}}, "referralId": "e-0-4c7eaf42d860b60c45ac5e9d-4"}, {"reasons": {"count": 0, "items": [{"summary": "This spot is popular", "type": "general", "reasonName": "globalInteractionReason"}]}, "venue": {"id": "503a4e12e4b021b479f6ac99", "name": "Softeis", "location": {"address": "B\u00f6lschestr. 75", "lat": 52.456202, "lng": 13.625145, "labeledLatLngs": [{"label": "display", "lat": 52.456202, "lng": 13.625145}], "distance": 883, "cc": "DE", "city": "Berlin", "state": "Berlin", "country": "Deutschland", "formattedAddress": ["B\u00f6lschestr. 75", "Berlin", "Deutschland"]}, "categories": [{"id": "4bf58dd8d48988d1c9941735", "name": "Ice Cream Shop", "pluralName": "Ice Cream Shops", "shortName": "Ice Cream", "icon": {"prefix": "https://ss3.4sqi.net/img/categories_v2/food/icecream_", "suffix": ".png"}, "primary": true}], "photos": {"count": 0, "groups": []}}, "referralId": "e-0-503a4e12e4b021b479f6ac99-5"}, {"reasons": {"count": 0, "items": [{"summary": "This spot is popular", "type": "general", "reasonName": "globalInteractionReason"}]}, "venue": {"id": "502e90e5e4b0c5661c73764b", "name": "Freiluftkino Friedrichshagen", "location": {"address": "Hinter dem Kurpark 13", "crossStreet": "Naturtheater Friedrichshagen", "lat": 52.45957890576208, "lng": 13.623846173286438, "labeledLatLngs": [{"label": "display", "lat": 52.45957890576208, "lng": 13.623846173286438}], "distance": 967, "postalCode": "12587", "cc": "DE", "city": "Berlin", "state": "Berlin", "country": "Deutschland", "formattedAddress": ["Hinter dem Kurpark 13 (Naturtheater Friedrichshagen)", "12587 Berlin", "Deutschland"]}, "categories": [{"id": "4bf58dd8d48988d17f941735", "name": "Movie Theater", "pluralName": "Movie Theaters", "shortName": "Movie Theater", "icon": {"prefix": "https://ss3.4sqi.net/img/categories_v2/arts_entertainment/movietheater_", "suffix": ".png"}, "primary": true}], "photos": {"count": 0, "groups": []}}, "referralId": "e-0-502e90e5e4b0c5661c73764b-6"}, {"reasons": {"count": 0, "items": [{"summary": "This spot is popular", "type": "general", "reasonName": "globalInteractionReason"}]}, "venue": {"id": "4b5ef868f964a52076a029e3", "name": "Lietzenbeck", "location": {"address": "B\u00f6lschestr. 72", "lat": 52.45654936700508, "lng": 13.62345681371486, "labeledLatLngs": [{"label": "display", "lat": 52.45654936700508, "lng": 13.62345681371486}], "distance": 988, "postalCode": "12587", "cc": "DE", "city": "Berlin", "state": "Berlin", "country": "Deutschland", "formattedAddress": ["B\u00f6lschestr. 72", "12587 Berlin", "Deutschland"]}, "categories": [{"id": "4bf58dd8d48988d16a941735", "name": "Bakery", "pluralName": "Bakeries", "shortName": "Bakery", "icon": {"prefix": "https://ss3.4sqi.net/img/categories_v2/food/bakery_", "suffix": ".png"}, "primary": true}], "photos": {"count": 0, "groups": []}}, "referralId": "e-0-4b5ef868f964a52076a029e3-7"}]