[{"reasons": {"count": 0, "items": [{"summary": "This spot is popular", "type": "general", "reasonName": "globalInteractionReason"}]}, "venue": {"id": "576c27bd498e10ec35e895ea", "name": "Malafemmena", "location": {"address": "Hauptstrasse 85", "lat": 52.47389092837818, "lng": 13.338341542831259, "labeledLatLngs": [{"label": "display", "lat": 52.47389092837818, "lng": 13.338341542831259}], "distance": 509, "postalCode": "12159", "cc": "DE", "city": "Berlin", "state": "Berlin", "country": "Deutschland", "formattedAddress": ["Hauptstrasse 85", "12159 Berlin", "Deutschland"]}, "categories": [{"id": "4bf58dd8d48988d110941735", "name": "Italian Restaurant", "pluralName": "Italian Restaurants", "shortName": "Italian", "icon": {"prefix": "https://ss3.4sqi.net/img/categories_v2/food/italian_", "suffix": ".png"}, "primary": true}], "photos": {"count": 0, "groups": []}}, "referralId": "e-0-576c27bd498e10ec35e895ea-0"}, {"reasons": {"count": 0, "items": [{"summary": "This spot is popular", "type": "general", "reasonName": "globalInteractionReason"}]}, "venue": {"id": "51964736498ebc044093ed2a", "name": "DaBangg", "location": {"address": "Hedwigstr. 18", "lat": 52.47153598116325, "lng": 13.336096189631295, "labeledLatLngs": [{"label": "display", "lat": 52.47153598116325, "lng": 13.336096189631295}], "distance": 477, "postalCode": "12159", "cc": "DE", "city": "Berlin", "state": "Berlin", "country": "Deutschland", "formattedAddress": ["Hedwigstr. 18", "12159 Berlin", "Deutschland"]}, "categories": [{"id": "4bf58dd8d48988d113941735", "name": "Korean Restaurant", "pluralName": "Korean Restaurants", "shortName": "Korean", "icon": {"prefix": "https://ss3.4sqi.net/img/categories_v2/food/korean_", "suffix": ".png"}, "primary": true}], "photos": {"count": 0, "groups": []}}, "referralId": "e-0-51964736498ebc044093ed2a-1"}, {"reasons": {"count": 0, "items": [{"summary": "This spot is popular", "type": "general", "reasonName": "globalInteractionReason"}]}, "venue": {"id": "4ddc11a4d4c082f960be6244", "name": "Cecilieng\u00e4rten", "location": {"address": "12159 Berlin", "lat": 52.47367325451671, "lng": 13.341670111574388, "labeledLatLngs": [{"label": "display", "lat": 52.47367325451671, "lng": 13.341670111574388}], "distance": 394, "postalCode": "12159", "cc": "DE", "city": "Berlin", "state": "Berlin", "country": "Deutschland", "formattedAddress": ["12159 Berlin", "12159 Berlin", "Deutschland"]}, "categories": [{"id": "4bf58dd8d48988d15a941735", "name": "Garden", "pluralName": "Gardens", "shortName": "Garden", "icon": {"prefix": "https://ss3.4sqi.net/img/categories_v2/parks_outdoors/garden_", "suffix": ".png"}, "primary": true}], "photos": {"count": 0, "groups": []}}, "referralId": "e-0-4ddc11a4d4c082f960be6244-2"}, {"reasons": {"count": 0, "items": [{"summary": "This spot is popular", "type": "general", "reasonName": "globalInteractionReason"}]}, "venue": {"id": "4bc05ec22a89ef3b6c6bf088", "name": "Frau Behrens Torten", "location": {"address": "Rheinstr. 65", "crossStreet": "Dickhardtstr.", "lat": 52.471240812826586, "lng": 13.335039286448925, "labeledLatLngs": [{"label": "display", "lat": 52.471240812826586, "lng": 13.335039286448925}], "distance": 537, "postalCode": "12159", "cc": "DE", "city": "Berlin", "state": "Berlin", "country": "Deutschland", "formattedAddress": ["Rheinstr. 65 (Dickhardtstr.)", "12159 Berlin", "Deutschland"]}, "categories": [{"id": "4bf58dd8d48988d16d941735", "name": "Caf\u00e9", "pluralName": "Caf\u00e9s", "shortName": "Caf\u00e9", "icon": {"prefix": "https://ss3.4sqi.net/img/categories_v2/food/cafe_", "suffix": ".png"}, "primary": true}], "photos": {"count": 0, "groups": []}}, "referralId": "e-0-4bc05ec22a89ef3b6c6bf088-3"}, {"reasons": {"count": 0, "items": [{"summary": "This spot is popular", "type": "general", "reasonName": "globalInteractionReason"}]}, "venue": {"id": "4e397b57b0fb2f7ee86781eb", "name": "LPG BioMarkt", "location": {"address": "Hauptstr. 78", "lat": 52.473097549247605, "lng": 13.337083954335595, "labeledLatLngs": [{"label": "display", "lat": 52.473097549247605, "lng": 13.337083954335595}], "distance": 503, "postalCode": "12159", "cc": "DE", "city": "Berlin", "state": "Berlin", "country": "Deutschland", "formattedAddress": ["Hauptstr. 78", "12159 Berlin", "Deutschland"]}, "categories": [{"id": "52f2ab2ebcbc57f1066b8b45", "name": "Organic Grocery", "pluralName": "Organic Groceries", "shortName": "Organic Grocery", "icon": {"prefix": "https://ss3.4sqi.net/img/categories_v2/shops/food_grocery_", "suffix": ".png"}, "primary": true}], "photos": {"count": 0, "groups": []}}, "referralId": "e-0-4e397b57b0fb2f7ee86781eb-4"}, {"reasons": {"count": 0, "items": [{"summary": "This spot is popular", "type": "general", "reasonName": "globalInteractionReason"}]}, "venue": {"id": "52ea4541498e29d79756c8fa", "name": "Tra My", "location": {"address": "Lauterstra\u00dfe 16", "lat": 52.47192918990401, "lng": 13.335341489104312, "labeledLatLngs": [{"label": "display", "lat": 52.47192918990401, "lng": 13.335341489104312}], "distance": 539, "postalCode": "12159", "cc": "DE", "city": "Berlin", "state": "Berlin", "country": "Deutschland", "formattedAddress": ["Lauterstra\u00dfe 16", "12159 Berlin", "Deutschland"]}, "categories": [{"id": "4bf58dd8d48988d14a941735", "name": "Vietnamese Restaurant", "pluralName": "Vietnamese Restaurants", "shortName": "Vietnamese", "icon": {"prefix": "https://ss3.4sqi.net/img/categories_v2/food/vietnamese_", "suffix": ".png"}, "primary": true}], "photos": {"count": 0, "groups": []}}, "referralId": "e-0-52ea4541498e29d79756c8fa-5"}, {"reasons": {"count": 0, "items": [{"summary": "This spot is popular", "type": "general", "reasonName": "globalInteractionReason"}]}, "venue": {"id": "5553c22b498ed2380d9228f3", "name": "Zig Zag Jazz Club", "location": {"address": "Hauptstr. 89", "crossStreet": "Sponholzstr.", "lat": 52.475245, "lng": 13.34024, "labeledLatLngs": [{"label": "display", "lat": 52.475245, "lng": 13.34024}], "distance": 587, "postalCode": "12159", "cc": "DE", "city": "Berlin", "state": "Berlin", "country": "Deutschland", "formattedAddress": ["Hauptstr. 89 (Sponholzstr.)", "12159 Berlin", "Deutschland"]}, "categories": [{"id": "4bf58dd8d48988d1e7931735", "name": "Jazz Club", "pluralName": "Jazz Clubs", "shortName": "Jazz Club", "icon": {"prefix": "https://ss3.4sqi.net/img/categories_v2/arts_entertainment/musicvenue_jazzclub_", "suffix": ".png"}, "primary": true}], "photos": {"count": 0, "groups": []}}, "referralId": "e-0-5553c22b498ed2380d9228f3-6"}, {"reasons": {"count": 0, "items": [{"summary": "This spot is popular", "type": "general", "reasonName": "globalInteractionReason"}]}, "venue": {"id": "4e63dd5062e13e3bcf42aad0", "name": "La Marianna", "location": {"address": "Feuerbachstr. 63", "lat": 52.464563440847186, "lng": 13.33855739335681, "labeledLatLngs": [{"label": "display", "lat": 52.464563440847186, "lng": 13.33855739335681}], "distance": 689, "postalCode": "12163", "cc": "DE", "neighborhood": "Steglitz", "city": "Berlin", "state": "Berlin", "country": "Deutschland", "formattedAddress": ["Feuerbachstr. 63", "12163 Berlin", "Deutschland"]}, "categories": [{"id": "4bf58dd8d48988d110941735", "name": "Italian Restaurant", "pluralName": "Italian Restaurants", "shortName": "Italian", "icon": {"prefix": "https://ss3.4sqi.net/img/categories_v2/food/italian_", "suffix": ".png"}, "primary": true}], "photos": {"count": 0, "groups": []}}, "referralId": "e-0-4e63dd5062e13e3bcf42aad0-7"}, {"reasons": {"count": 0, "items": [{"summary": "This spot is popular", "type": "general", "reasonName": "globalInteractionReason"}]}, "venue": {"id": "54ab7e98498eea9b59fcd9aa", "name": "Lula am Markt", "location": {"address": "Lauterstr. 14/15", "lat": 52.47201175490675, "lng": 13.335469251204604, "labeledLatLngs": [{"label": "display", "lat": 52.47201175490675, "lng": 13.335469251204604}], "distance": 535, "postalCode": "12159", "cc": "DE", "city": "Berlin", "state": "Berlin", "country": "Deutschland", "formattedAddress": ["Lauterstr. 14/15", "12159 Berlin", "Deutschland"]}, "categories": [{"id": "52e81612bcbc57f1066b79f1", "name": "Bistro", "pluralName": "Bistros", "shortName": "Bistro", "icon": {"prefix": "https://ss3.4sqi.net/img/categories_v2/food/default_", "suffix": ".png"}, "primary": true}], "photos": {"count": 0, "groups": []}}, "referralId": "e-0-54ab7e98498eea9b59fcd9aa-8"}, {"reasons": {"count": 0, "items": [{"summary": "This spot is popular", "type": "general", "reasonName": "globalInteractionReason"}]}, "venue": {"id": "4c416f05af052d7f5d657d79", "name": "pane al caff\u00e8", "location": {"address": "Rheinstra\u00dfe 61", "lat": 52.47043876678622, "lng": 13.334167997362965, "labeledLatLngs": [{"label": "display", "lat": 52.47043876678622, "lng": 13.334167997362965}], "distance": 584, "postalCode": "12159", "cc": "DE", "city": "Berlin", "state": "Berlin", "country": "Deutschland", "formattedAddress": ["Rheinstra\u00dfe 61", "12159 Berlin", "Deutschland"]}, "categories": [{"id": "4bf58dd8d48988d16d941735", "name": "Caf\u00e9", "pluralName": "Caf\u00e9s", "shortName": "Caf\u00e9", "icon": {"prefix": "https://ss3.4sqi.net/img/categories_v2/food/cafe_", "suffix": ".png"}, "primary": true}], "photos": {"count": 0, "groups": []}}, "referralId": "e-0-4c416f05af052d7f5d657d79-9"}, {"reasons": {"count": 0, "items": [{"summary": "This spot is popular", "type": "general", "reasonName": "globalInteractionReason"}]}, "venue": {"id": "4bdc723dfed22d7fdf3258c9", "name": "LuLa Deli Deluxe", "location": {"address": "Lauterstrasse 14", "crossStreet": "Rheinstr.", "lat": 52.47156510733492, "lng": 13.335753081340616, "labeledLatLngs": [{"label": "display", "lat": 52.47156510733492, "lng": 13.335753081340616}], "distance": 500, "postalCode": "12159", "cc": "DE", "city": "Berlin", "state": "Berlin", "country": "Deutschland", "formattedAddress": ["Lauterstrasse 14 (Rheinstr.)", "12159 Berlin", "Deutschland"]}, "categories": [{"id": "52e81612bcbc57f1066b79f1", "name": "Bistro", "pluralName": "Bistros", "shortName": "Bistro", "icon": {"prefix": "https://ss3.4sqi.net/img/categories_v2/food/default_", "suffix": ".png"}, "primary": true}], "photos": {"count": 0, "groups": []}}, "referralId": "e-0-4bdc723dfed22d7fdf3258c9-10"}, {"reasons": {"count": 0, "items": [{"summary": "This spot is popular", "type": "general", "reasonName": "globalInteractionReason"}]}, "venue": {"id": "4b842a88f964a520fd2431e3", "name": "Trattoria del Corso", "location": {"address": "Hauptstr. 70", "crossStreet": "H\u00e4hnelstr.", "lat": 52.47554457710545, "lng": 13.339681814664848, "labeledLatLngs": [{"label": "display", "lat": 52.47554457710545, "lng": 13.339681814664848}], "distance": 631, "postalCode": "12159", "cc": "DE", "city": "Berlin", "state": "Berlin", "country": "Deutschland", "formattedAddress": ["Hauptstr. 70 (H\u00e4hnelstr.)", "12159 Berlin", "Deutschland"]}, "categories": [{"id": "55a5a1ebe4b013909087cb7f", "name": "Trattoria/Osteria", "pluralName": "Trattorias/Osterias", "shortName": "Trattoria/Osteria", "icon": {"prefix": "https://ss3.4sqi.net/img/categories_v2/food/italian_", "suffix": ".png"}, "primary": true}], "photos": {"count": 0, "groups": []}}, "referralId": "e-0-4b842a88f964a520fd2431e3-11"}, {"reasons": {"count": 0, "items": [{"summary": "This spot is popular", "type": "general", "reasonName": "globalInteractionReason"}]}, "venue": {"id": "53491789498eb4838e523ecf", "name": "la Donna Cannone", "location": {"lat": 52.464377, "lng": 13.338788, "labeledLatLngs": [{"label": "display", "lat": 52.464377, "lng": 13.338788}], "distance": 702, "cc": "DE", "country": "Deutschland", "formattedAddress": ["Deutschland"]}, "categories": [{"id": "4bf58dd8d48988d1d0941735", "name": "Dessert Shop", "pluralName": "Dessert Shops", "shortName": "Desserts", "icon": {"prefix": "https://ss3.4sqi.net/img/categories_v2/food/dessert_", "suffix": ".png"}, "primary": true}], "photos": {"count": 0, "groups": []}}, "referralId": "e-0-53491789498eb4838e523ecf-12"}, {"reasons": {"count": 0, "items": [{"summary": "This spot is popular", "type": "general", "reasonName": "globalInteractionReason"}]}, "venue": {"id": "4bb650ef6edc76b086be301c", "name": "Offenbar", "location": {"address": "Hauptstr. 80 B", "lat": 52.47229559318634, "lng": 13.336064923687426, "labeledLatLngs": [{"label": "display", "lat": 52.47229559318634, "lng": 13.336064923687426}], "distance": 511, "postalCode": "12159", "cc": "DE", "city": "Berlin", "state": "Berlin", "country": "Deutschland", "formattedAddress": ["Hauptstr. 80 B", "12159 Berlin", "Deutschland"]}, "categories": [{"id": "4bf58dd8d48988d11e941735", "name": "Cocktail Bar", "pluralName": "Cocktail Bars", "shortName": "Cocktail", "icon": {"prefix": "https://ss3.4sqi.net/img/categories_v2/nightlife/cocktails_", "suffix": ".png"}, "primary": true}], "photos": {"count": 0, "groups": []}}, "referralId": "e-0-4bb650ef6edc76b086be301c-13"}, {"reasons": {"count": 0, "items": [{"summary": "This spot is popular", "type": "general", "reasonName": "globalInteractionReason"}]}, "venue": {"id": "5af160f606fb60002c7d06ca", "name": "Lula Deli & Grill", "location": {"address": "Lauterstr. 14/15", "crossStreet": "Niedstr.", "lat": 52.472331857004846, "lng": 13.335067660142299, "labeledLatLngs": [{"label": "display", "lat": 52.472331857004846, "lng": 13.335067660142299}], "distance": 574, "postalCode": "12159", "cc": "DE", "city": "Berlin", "state": "Berlin", "country": "Deutschland", "formattedAddress": ["Lauterstr. 14/15 (Niedstr.)", "12159 Berlin", "Deutschland"]}, "categories": [{"id": "4bf58dd8d48988d16d941735", "name": "Caf\u00e9", "pluralName": "Caf\u00e9s", "shortName": "Caf\u00e9", "icon": {"prefix": "https://ss3.4sqi.net/img/categories_v2/food/cafe_", "suffix": ".png"}, "primary": true}], "photos": {"count": 0, "groups": []}}, "referralId": "e-0-5af160f606fb60002c7d06ca-14"}, {"reasons": {"count": 0, "items": [{"summary": "This spot is popular", "type": "general", "reasonName": "globalInteractionReason"}]}, "venue": {"id": "4b9d31c3f964a520369836e3", "name": "Huong Giang", "location": {"address": "Schmiljanstra\u00dfe 16", "lat": 52.46918446587782, "lng": 13.332147267769484, "labeledLatLngs": [{"label": "display", "lat": 52.46918446587782, "lng": 13.332147267769484}], "distance": 729, "postalCode": "12161", "cc": "DE", "country": "Deutschland", "formattedAddress": ["Schmiljanstra\u00dfe 16", "12161", "Deutschland"]}, "categories": [{"id": "4bf58dd8d48988d14a941735", "name": "Vietnamese Restaurant", "pluralName": "Vietnamese Restaurants", "shortName": "Vietnamese", "icon": {"prefix": "https://ss3.4sqi.net/img/categories_v2/food/vietnamese_", "suffix": ".png"}, "primary": true}], "photos": {"count": 0, "groups": []}}, "referralId": "e-0-4b9d31c3f964a520369836e3-15"}, {"reasons": {"count": 0, "items": [{"summary": "This spot is popular", "type": "general", "reasonName": "globalInteractionReason"}]}, "venue": {"id": "4da02042c41ca14310f440a3", "name": "Lidl", "location": {"address": "Vorarlberger Damm 24", "lat": 52.46964704990119, "lng": 13.349775195147458, "labeledLatLngs": [{"label": "display", "lat": 52.46964704990119, "lng": 13.349775195147458}], "distance": 478, "postalCode": "12157", "cc": "DE", "city": "Berlin", "state": "Berlin", "country": "Deutschland", "formattedAddress": ["Vorarlberger Damm 24", "12157 Berlin-Tempelhof-Sch\u00f6neberg", "Deutschland"]}, "categories": [{"id": "52f2ab2ebcbc57f1066b8b46", "name": "Supermarket", "pluralName": "Supermarkets", "shortName": "Supermarket", "icon": {"prefix": "https://ss3.4sqi.net/img/categories_v2/shops/food_grocery_", "suffix": ".png"}, "primary": true}], "photos": {"count": 0, "groups": []}, "venuePage": {"id": "574013396"}}, "referralId": "e-0-4da02042c41ca14310f440a3-16"}, {"reasons": {"count": 0, "items": [{"summary": "This spot is popular", "type": "general", "reasonName": "globalInteractionReason"}]}, "venue": {"id": "4c7616d75db9bfb715504813", "name": "Ridders Kaffeer\u00f6sterei", "location": {"address": "Schmiljanstr. 13", "lat": 52.4692, "lng": 13.331717, "labeledLatLngs": [{"label": "display", "lat": 52.4692, "lng": 13.331717}], "distance": 758, "postalCode": "12161", "cc": "DE", "city": "Berlin", "state": "Berlin", "country": "Deutschland", "formattedAddress": ["Schmiljanstr. 13", "12161 Berlin", "Deutschland"]}, "categories": [{"id": "5e18993feee47d000759b256", "name": "Coffee Roaster", "pluralName": "Coffee Roasters", "shortName": "Coffee Roaster", "icon": {"prefix": "https://ss3.4sqi.net/img/categories_v2/shops/food_gourmet_", "suffix": ".png"}, "primary": true}], "photos": {"count": 0, "groups": []}}, "referralId": "e-0-4c7616d75db9bfb715504813-17"}, {"reasons": {"count": 0, "items": [{"summary": "This spot is popular", "type": "general", "reasonName": "globalInteractionReason"}]}, "venue": {"id": "5418125f498e21780ce5f91e", "name": "Schmidt Z&Ko.", "location": {"address": "Rheinstr. 45-46", "lat": 52.466491, "lng": 13.330333, "labeledLatLngs": [{"label": "display", "lat": 52.466491, "lng": 13.330333}], "distance": 939, "postalCode": "12161", "cc": "DE", "city": "Berlin", "state": "Berlin", "country": "Deutschland", "formattedAddress": ["Rheinstr. 45-46", "12161 Berlin", "Deutschland"]}, "categories": [{"id": "4bf58dd8d48988d123941735", "name": "Wine Bar", "pluralName": "Wine Bars", "shortName": "Wine Bar", "icon": {"prefix": "https://ss3.4sqi.net/img/categories_v2/food/winery_", "suffix": ".png"}, "primary": true}], "photos": {"count": 0, "groups": []}}, "referralId": "e-0-5418125f498e21780ce5f91e-18"}, {"reasons": {"count": 0, "items": [{"summary": "This spot is popular", "type": "general", "reasonName": "globalInteractionReason"}]}, "venue": {"id": "4adcda84f964a520d54821e3", "name": "Seoul-Kwan", "location": {"address": "Schmiljanstr. 25", "lat": 52.47046452057505, "lng": 13.330274178297588, "labeledLatLngs": [{"label": "display", "lat": 52.47046452057505, "lng": 13.330274178297588}], "distance": 848, "postalCode": "12161", "cc": "DE", "city": "Berlin", "state": "Berlin", "country": "Deutschland", "formattedAddress": ["Schmiljanstr. 25", "12161 Berlin", "Deutschland"]}, "categories": [{"id": "4bf58dd8d48988d113941735", "name": "Korean Restaurant", "pluralName": "Korean Restaurants", "shortName": "Korean", "icon": {"prefix": "https://ss3.4sqi.net/img/categories_v2/food/korean_", "suffix": ".png"}, "primary": true}], "photos": {"count": 0, "groups": []}}, "referralId": "e-0-4adcda84f964a520d54821e3-19"}, {"reasons": {"count": 0, "items": [{"summary": "This spot is popular", "type": "general", "reasonName": "globalInteractionReason"}]}, "venue": {"id": "4fbc582de4b0fb19b1090a99", "name": "B\u00e4ckerei Johann Mayer", "location": {"address": "Ebersstr. 42", "crossStreet": "Hauptstr.", "lat": 52.47856722942611, "lng": 13.34568397498558, "labeledLatLngs": [{"label": "display", "lat": 52.47856722942611, "lng": 13.34568397498558}], "distance": 952, "postalCode": "10827", "cc": "DE", "city": "Berlin", "state": "Berlin", "country": "Deutschland", "formattedAddress": ["Ebersstr. 42 (Hauptstr.)", "10827 Berlin", "Deutschland"]}, "categories": [{"id": "4bf58dd8d48988d16a941735", "name": "Bakery", "pluralName": "Bakeries", "shortName": "Bakery", "icon": {"prefix": "https://ss3.4sqi.net/img/categories_v2/food/bakery_", "suffix": ".png"}, "primary": true}], "photos": {"count": 0, "groups": []}}, "referralId": "e-0-4fbc582de4b0fb19b1090a99-20"}, {"reasons": {"count": 0, "items": [{"summary": "This spot is popular", "type": "general", "reasonName": "globalInteractionReason"}]}, "venue": {"id": "4da02dc4a77d816ed09c1209", "name": "Getr\u00e4nke Hoffmann", "location": {"address": "Hauptstr. 90/91", "lat": 52.47569068495215, "lng": 13.341066954341386, "labeledLatLngs": [{"label": "display", "lat": 52.47569068495215, "lng": 13.341066954341386}], "distance": 622, "postalCode": "12159", "cc": "DE", "neighborhood": "Cecilieng\u00e4rten", "city": "Berlin", "state": "Berlin", "country": "Deutschland", "formattedAddress": ["Hauptstr. 90/91", "12159 Berlin", "Deutschland"]}, "categories": [{"id": "4bf58dd8d48988d1f9941735", "name": "Food & Drink Shop", "pluralName": "Food & Drink Shops", "shortName": "Food & Drink", "icon": {"prefix": "https://ss3.4sqi.net/img/categories_v2/shops/foodanddrink_", "suffix": ".png"}, "primary": true}], "photos": {"count": 0, "groups": []}}, "referralId": "e-0-4da02dc4a77d816ed09c1209-21"}, {"reasons": {"count": 0, "items": [{"summary": "This spot is popular", "type": "general", "reasonName": "globalInteractionReason"}]}, "venue": {"id": "4d8764df8de9721e238e6c51", "name": "Eis Boutique", "location": {"address": "Lauterstrasse", "lat": 52.47209104505718, "lng": 13.335506423723977, "labeledLatLngs": [{"label": "display", "lat": 52.47209104505718, "lng": 13.335506423723977}], "distance": 536, "cc": "DE", "city": "Berlin", "state": "Berlin", "country": "Deutschland", "formattedAddress": ["Lauterstrasse", "Berlin", "Deutschland"]}, "categories": [{"id": "4bf58dd8d48988d1c9941735", "name": "Ice Cream Shop", "pluralName": "Ice Cream Shops", "shortName": "Ice Cream", "icon": {"prefix": "https://ss3.4sqi.net/img/categories_v2/food/icecream_", "suffix": ".png"}, "primary": true}], "photos": {"count": 0, "groups": []}}, "referralId": "e-0-4d8764df8de9721e238e6c51-22"}, {"reasons": {"count": 0, "items": [{"summary": "This spot is popular", "type": "general", "reasonName": "globalInteractionReason"}]}, "venue": {"id": "4b82f9ddf964a52069f030e3", "name": "s-cafe", "location": {"address": "Bahnhofstr. 4c", "lat": 52.47003928376604, "lng": 13.340238620196084, "labeledLatLngs": [{"label": "display", "lat": 52.47003928376604, "lng": 13.340238620196084}], "distance": 173, "postalCode": "12157", "cc": "DE", "city": "Berlin", "state": "Berlin", "country": "Deutschland", "formattedAddress": ["Bahnhofstr. 4c", "12157 Berlin", "Deutschland"]}, "categories": [{"id": "4bf58dd8d48988d16d941735", "name": "Caf\u00e9", "pluralName": "Caf\u00e9s", "shortName": "Caf\u00e9", "icon": {"prefix": "https://ss3.4sqi.net/img/categories_v2/food/cafe_", "suffix": ".png"}, "primary": true}], "photos": {"count": 0, "groups": []}}, "referralId": "e-0-4b82f9ddf964a52069f030e3-23"}, {"reasons": {"count": 0, "items": [{"summary": "This spot is popular", "type": "general", "reasonName": "globalInteractionReason"}]}, "venue": {"id": "5139e2cee4b03ded38184a51", "name": "Asia Time", "location": {"address": "Rheinstra\u00dfe 49", "lat": 52.46746175454236, "lng": 13.331061788202133, "labeledLatLngs": [{"label": "display", "lat": 52.46746175454236, "lng": 13.331061788202133}], "distance": 851, "cc": "DE", "city": "Berlin", "state": "Berlin", "country": "Deutschland", "formattedAddress": ["Rheinstra\u00dfe 49", "Berlin", "Deutschland"]}, "categories": [{"id": "4bf58dd8d48988d142941735", "name": "Asian Restaurant", "pluralName": "Asian Restaurants", "shortName": "Asian", "icon": {"prefix": "https://ss3.4sqi.net/img/categories_v2/food/asian_", "suffix": ".png"}, "primary": true}], "photos": {"count": 0, "groups": []}}, "referralId": "e-0-5139e2cee4b03ded38184a51-24"}, {"reasons": {"count": 0, "items": [{"summary": "This spot is popular", "type": "general", "reasonName": "globalInteractionReason"}]}, "venue": {"id": "55e56148498e427757530bee", "name": "Anant", "location": {"address": "Baumeister Str. 1", "lat": 52.47056020815066, "lng": 13.34040641784668, "labeledLatLngs": [{"label": "display", "lat": 52.47056020815066, "lng": 13.34040641784668}], "distance": 165, "cc": "DE", "city": "Berlin", "state": "Berlin", "country": "Deutschland", "formattedAddress": ["Baumeister Str. 1", "Berlin", "Deutschland"]}, "categories": [{"id": "4bf58dd8d48988d10f941735", "name": "Indian Restaurant", "pluralName": "Indian Restaurants", "shortName": "Indian", "icon": {"prefix": "https://ss3.4sqi.net/img/categories_v2/food/indian_", "suffix": ".png"}, "primary": true}], "photos": {"count": 0, "groups": []}}, "referralId": "e-0-55e56148498e427757530bee-25"}, {"reasons": {"count": 0, "items": [{"summary": "This spot is popular", "type": "general", "reasonName": "globalInteractionReason"}]}, "venue": {"id": "4c2e1bc43a4d0f4744f8e486", "name": "Medusa", "location": {"address": "Perelsplatz 10", "lat": 52.475445, "lng": 13.332666, "labeledLatLngs": [{"label": "display", "lat": 52.475445, "lng": 13.332666}], "distance": 900, "postalCode": "12159", "cc": "DE", "city": "Berlin", "state": "Berlin", "country": "Deutschland", "formattedAddress": ["Perelsplatz 10", "12159 Berlin", "Deutschland"]}, "categories": [{"id": "4bf58dd8d48988d10e941735", "name": "Greek Restaurant", "pluralName": "Greek Restaurants", "shortName": "Greek", "icon": {"prefix": "https://ss3.4sqi.net/img/categories_v2/food/greek_", "suffix": ".png"}, "primary": true}], "photos": {"count": 0, "groups": []}}, "referralId": "e-0-4c2e1bc43a4d0f4744f8e486-26"}, {"reasons": {"count": 0, "items": [{"summary": "This spot is popular", "type": "general", "reasonName": "globalInteractionReason"}]}, "venue": {"id": "4c9e329b0e9bb1f71ac8e45f", "name": "Trattoria dell'Arte", "location": {"address": "Rheinstr. 65", "lat": 52.470920984535994, "lng": 13.33519252919703, "labeledLatLngs": [{"label": "display", "lat": 52.470920984535994, "lng": 13.33519252919703}], "distance": 520, "postalCode": "12159", "cc": "DE", "city": "Berlin", "state": "Berlin", "country": "Deutschland", "formattedAddress": ["Rheinstr. 65", "12159 Berlin", "Deutschland"]}, "categories": [{"id": "55a5a1ebe4b013909087cb7f", "name": "Trattoria/Osteria", "pluralName": "Trattorias/Osterias", "shortName": "Trattoria/Osteria", "icon": {"prefix": "https://ss3.4sqi.net/img/categories_v2/food/italian_", "suffix": ".png"}, "primary": true}], "photos": {"count": 0, "groups": []}}, "referralId": "e-0-4c9e329b0e9bb1f71ac8e45f-27"}, {"reasons": {"count": 0, "items": [{"summary": "This spot is popular", "type": "general", "reasonName": "globalInteractionReason"}]}, "venue": {"id": "59305027b1538e4bfcba40cd", "name": "Kisso", "location": {"lat": 52.466037, "lng": 13.329776, "labeledLatLngs": [{"label": "display", "lat": 52.466037, "lng": 13.329776}], "distance": 996, "cc": "DE", "city": "Berlin", "state": "Berlin", "country": "Deutschland", "formattedAddress": ["Berlin", "Deutschland"]}, "categories": [{"id": "4bf58dd8d48988d14a941735", "name": "Vietnamese Restaurant", "pluralName": "Vietnamese Restaurants", "shortName": "Vietnamese", "icon": {"prefix": "https://ss3.4sqi.net/img/categories_v2/food/vietnamese_", "suffix": ".png"}, "primary": true}], "photos": {"count": 0, "groups": []}}, "referralId": "e-0-59305027b1538e4bfcba40cd-28"}, {"reasons": {"count": 0, "items": [{"summary": "This spot is popular", "type": "general", "reasonName": "globalInteractionReason"}]}, "venue": {"id": "4ffd7471e4b0dfc3063a27c2", "name": "Golden Brown Caf\u00e9", "location": {"address": "Sch\u00f6nhauser Str. 1", "crossStreet": "K\u00f6rnerstr.", "lat": 52.4638494391545, "lng": 13.334674736808534, "labeledLatLngs": [{"label": "display", "lat": 52.4638494391545, "lng": 13.334674736808534}], "distance": 895, "postalCode": "12157", "cc": "DE", "city": "Berlin", "state": "Berlin", "country": "Deutschland", "formattedAddress": ["Sch\u00f6nhauser Str. 1 (K\u00f6rnerstr.)", "12157 Berlin", "Deutschland"]}, "categories": [{"id": "4bf58dd8d48988d16d941735", "name": "Caf\u00e9", "pluralName": "Caf\u00e9s", "shortName": "Caf\u00e9", "icon": {"prefix": "https://ss3.4sqi.net/img/categories_v2/food/cafe_", "suffix": ".png"}, "primary": true}], "photos": {"count": 0, "groups": []}}, "referralId": "e-0-4ffd7471e4b0dfc3063a27c2-29"}, {"reasons": {"count": 0, "items": [{"summary": "This spot is popular", "type": "general", "reasonName": "globalInteractionReason"}]}, "venue": {"id": "4dac92c2a86e771ea750ebd3", "name": "REWE", "location": {"address": "Rheinstr. 30", "lat": 52.46699853783989, "lng": 13.330111119631397, "labeledLatLngs": [{"label": "display", "lat": 52.46699853783989, "lng": 13.330111119631397}], "distance": 930, "postalCode": "12161", "cc": "DE", "city": "Berlin", "state": "Berlin", "country": "Deutschland", "formattedAddress": ["Rheinstr. 30", "12161 Berlin", "Deutschland"]}, "categories": [{"id": "52f2ab2ebcbc57f1066b8b46", "name": "Supermarket", "pluralName": "Supermarkets", "shortName": "Supermarket", "icon": {"prefix": "https://ss3.4sqi.net/img/categories_v2/shops/food_grocery_", "suffix": ".png"}, "primary": true}], "photos": {"count": 0, "groups": []}, "venuePage": {"id": "562095265"}}, "referralId": "e-0-4dac92c2a86e771ea750ebd3-30"}, {"reasons": {"count": 0, "items": [{"summary": "This spot is popular", "type": "general", "reasonName": "globalInteractionReason"}]}, "venue": {"id": "4f57a35fe4b06eed119c1f67", "name": "Grazer Platz", "location": {"address": "Grazer Platz", "lat": 52.46681883313636, "lng": 13.34844134023461, "labeledLatLngs": [{"label": "display", "lat": 52.46681883313636, "lng": 13.34844134023461}], "distance": 537, "postalCode": "12157", "cc": "DE", "city": "Berlin", "state": "Berlin", "country": "Deutschland", "formattedAddress": ["Grazer Platz", "12157 Berlin", "Deutschland"]}, "categories": [{"id": "4bf58dd8d48988d164941735", "name": "Plaza", "pluralName": "Plazas", "shortName": "Plaza", "icon": {"prefix": "https://ss3.4sqi.net/img/categories_v2/parks_outdoors/plaza_", "suffix": ".png"}, "primary": true}], "photos": {"count": 0, "groups": []}}, "referralId": "e-0-4f57a35fe4b06eed119c1f67-31"}, {"reasons": {"count": 0, "items": [{"summary": "This spot is popular", "type": "general", "reasonName": "globalInteractionReason"}]}, "venue": {"id": "4bc08c262a89ef3bf1a3f088", "name": "EDEKA Scheibner", "location": {"address": "Fregestr. 6", "crossStreet": "Hedwigstra\u00dfe", "lat": 52.4713159, "lng": 13.33708969, "labeledLatLngs": [{"label": "display", "lat": 52.4713159, "lng": 13.33708969}], "distance": 405, "postalCode": "12159", "cc": "DE", "city": "Berlin", "state": "Berlin", "country": "Deutschland", "formattedAddress": ["Fregestr. 6 (Hedwigstra\u00dfe)", "12159 Berlin", "Deutschland"]}, "categories": [{"id": "52f2ab2ebcbc57f1066b8b46", "name": "Supermarket", "pluralName": "Supermarkets", "shortName": "Supermarket", "icon": {"prefix": "https://ss3.4sqi.net/img/categories_v2/shops/food_grocery_", "suffix": ".png"}, "primary": true}], "photos": {"count": 0, "groups": []}, "venuePage": {"id": "556934513"}}, "referralId": "e-0-4bc08c262a89ef3bf1a3f088-32"}, {"reasons": {"count": 0, "items": [{"summary": "This spot is popular", "type": "general", "reasonName": "globalInteractionReason"}]}, "venue": {"id": "4ca8c56376d3a0938f3d196b", "name": "Tapas Espa\u00f1a", "location": {"address": "Rheinstr. 32", "lat": 52.4664966971393, "lng": 13.3298875901926, "labeledLatLngs": [{"label": "display", "lat": 52.4664966971393, "lng": 13.3298875901926}], "distance": 966, "postalCode": "12161", "cc": "DE", "city": "Berlin", "state": "Berlin", "country": "Deutschland", "formattedAddress": ["Rheinstr. 32", "12161 Berlin", "Deutschland"]}, "categories": [{"id": "4bf58dd8d48988d1db931735", "name": "Tapas Restaurant", "pluralName": "Tapas Restaurants", "shortName": "Tapas", "icon": {"prefix": "https://ss3.4sqi.net/img/categories_v2/food/tapas_", "suffix": ".png"}, "primary": true}], "photos": {"count": 0, "groups": []}}, "referralId": "e-0-4ca8c56376d3a0938f3d196b-33"}, {"reasons": {"count": 0, "items": [{"summary": "This spot is popular", "type": "general", "reasonName": "globalInteractionReason"}]}, "venue": {"id": "557d852b498ec492c93b3e03", "name": "Atlantik Fischrestaurant", "location": {"address": "Martin Luther Stra\u00dfe 134", "crossStreet": "Hauptstra\u00dfe", "lat": 52.47902907504363, "lng": 13.34465281633804, "labeledLatLngs": [{"label": "display", "lat": 52.47902907504363, "lng": 13.34465281633804}], "distance": 991, "postalCode": "10825", "cc": "DE", "city": "Berlin", "state": "Berlin", "country": "Deutschland", "formattedAddress": ["Martin Luther Stra\u00dfe 134 (Hauptstra\u00dfe)", "10825 Berlin", "Deutschland"]}, "categories": [{"id": "4bf58dd8d48988d1ce941735", "name": "Seafood Restaurant", "pluralName": "Seafood Restaurants", "shortName": "Seafood", "icon": {"prefix": "https://ss3.4sqi.net/img/categories_v2/food/seafood_", "suffix": ".png"}, "primary": true}], "photos": {"count": 0, "groups": []}}, "referralId": "e-0-557d852b498ec492c93b3e03-34"}, {"reasons": {"count": 0, "items": [{"summary": "This spot is popular", "type": "general", "reasonName": "globalInteractionReason"}]}, "venue": {"id": "4c75633d2db5236a00ddbc79", "name": "Sweet Cocos", "location": {"address": "Hauptstr. 82", "lat": 52.472916728300504, "lng": 13.33712293858329, "labeledLatLngs": [{"label": "display", "lat": 52.472916728300504, "lng": 13.33712293858329}], "distance": 488, "postalCode": "12159", "cc": "DE", "city": "Berlin", "state": "Berlin", "country": "Deutschland", "formattedAddress": ["Hauptstr. 82", "12159 Berlin", "Deutschland"]}, "categories": [{"id": "4bf58dd8d48988d149941735", "name": "Thai Restaurant", "pluralName": "Thai Restaurants", "shortName": "Thai", "icon": {"prefix": "https://ss3.4sqi.net/img/categories_v2/food/thai_", "suffix": ".png"}, "primary": true}], "photos": {"count": 0, "groups": []}}, "referralId": "e-0-4c75633d2db5236a00ddbc79-35"}, {"reasons": {"count": 0, "items": [{"summary": "This spot is popular", "type": "general", "reasonName": "globalInteractionReason"}]}, "venue": {"id": "53d3aad0498ed9172845a162", "name": "Fame Burger", "location": {"address": "Rheinstr 61", "lat": 52.47047155572995, "lng": 13.33427822835686, "labeledLatLngs": [{"label": "display", "lat": 52.47047155572995, "lng": 13.33427822835686}], "distance": 577, "postalCode": "12159", "cc": "DE", "city": "Berlin-Steglitz", "state": "Berlin", "country": "Deutschland", "formattedAddress": ["Rheinstr 61", "12159 Berlin-Steglitz", "Deutschland"]}, "categories": [{"id": "4bf58dd8d48988d16c941735", "name": "Burger Joint", "pluralName": "Burger Joints", "shortName": "Burgers", "icon": {"prefix": "https://ss3.4sqi.net/img/categories_v2/food/burger_", "suffix": ".png"}, "primary": true}], "photos": {"count": 0, "groups": []}}, "referralId": "e-0-53d3aad0498ed9172845a162-36"}, {"reasons": {"count": 0, "items": [{"summary": "This spot is popular", "type": "general", "reasonName": "globalInteractionReason"}]}, "venue": {"id": "4dcf83a4d4c065592f9aa2a4", "name": "Aral", "location": {"address": "Hauptstr. 86", "lat": 52.47409774, "lng": 13.33884941, "labeledLatLngs": [{"label": "display", "lat": 52.47409774, "lng": 13.33884941}], "distance": 509, "postalCode": "12159", "cc": "DE", "city": "Berlin", "state": "Berlin", "country": "Deutschland", "formattedAddress": ["Hauptstr. 86", "12159 Berlin", "Deutschland"]}, "categories": [{"id": "4bf58dd8d48988d113951735", "name": "Gas Station", "pluralName": "Gas Stations", "shortName": "Gas Station", "icon": {"prefix": "https://ss3.4sqi.net/img/categories_v2/shops/gas_", "suffix": ".png"}, "primary": true}], "photos": {"count": 0, "groups": []}, "venuePage": {"id": "585945743"}}, "referralId": "e-0-4dcf83a4d4c065592f9aa2a4-37"}, {"reasons": {"count": 0, "items": [{"summary": "This spot is popular", "type": "general", "reasonName": "globalInteractionReason"}]}, "venue": {"id": "4d5968e5fe7c224b1bcd77b5", "name": "Friedrich-Wilhelm-Platz", "location": {"address": "Friedrich-Wilhelm-Platz", "lat": 52.47193267833883, "lng": 13.328368663787842, "labeledLatLngs": [{"label": "display", "lat": 52.47193267833883, "lng": 13.328368663787842}], "distance": 996, "postalCode": "12161", "cc": "DE", "city": "Berlin", "state": "Berlin", "country": "Deutschland", "formattedAddress": ["Friedrich-Wilhelm-Platz", "12161 Berlin", "Deutschland"]}, "categories": [{"id": "4bf58dd8d48988d164941735", "name": "Plaza", "pluralName": "Plazas", "shortName": "Plaza", "icon": {"prefix": "https://ss3.4sqi.net/img/categories_v2/parks_outdoors/plaza_", "suffix": ".png"}, "primary": true}], "photos": {"count": 0, "groups": []}}, "referralId": "e-0-4d5968e5fe7c224b1bcd77b5-38"}, {"reasons": {"count": 0, "items": [{"summary": "This spot is popular", "type": "general", "reasonName": "globalInteractionReason"}]}, "venue": {"id": "4e46b9b8183849317e7a4c57", "name": "Kaisereiche", "location": {"address": "Rheinstr.", "crossStreet": "Schmiljanstr.", "lat": 52.4687674044684, "lng": 13.332516069039361, "labeledLatLngs": [{"label": "display", "lat": 52.4687674044684, "lng": 13.332516069039361}], "distance": 713, "postalCode": "12159", "cc": "DE", "neighborhood": "Friedenau", "city": "Berlin", "state": "Berlin", "country": "Deutschland", "formattedAddress": ["Rheinstr. (Schmiljanstr.)", "12159 Berlin", "Deutschland"]}, "categories": [{"id": "52e81612bcbc57f1066b7a24", "name": "Tree", "pluralName": "Trees", "shortName": "Tree", "icon": {"prefix": "https://ss3.4sqi.net/img/categories_v2/parks_outdoors/default_", "suffix": ".png"}, "primary": true}], "photos": {"count": 0, "groups": []}}, "referralId": "e-0-4e46b9b8183849317e7a4c57-39"}, {"reasons": {"count": 0, "items": [{"summary": "This spot is popular", "type": "general", "reasonName": "globalInteractionReason"}]}, "venue": {"id": "5363699f498e4a82132e9da2", "name": "REWE", "location": {"address": "Rheinstra\u00dfe 14", "lat": 52.470003, "lng": 13.333077, "labeledLatLngs": [{"label": "display", "lat": 52.470003, "lng": 13.333077}], "distance": 658, "postalCode": "12159", "cc": "DE", "city": "Berlin", "state": "Berlin", "country": "Deutschland", "formattedAddress": ["Rheinstra\u00dfe 14", "12159 Berlin", "Deutschland"]}, "categories": [{"id": "52f2ab2ebcbc57f1066b8b46", "name": "Supermarket", "pluralName": "Supermarkets", "shortName": "Supermarket", "icon": {"prefix": "https://ss3.4sqi.net/img/categories_v2/shops/food_grocery_", "suffix": ".png"}, "primary": true}], "photos": {"count": 0, "groups": []}, "venuePage": {"id": "562856524"}}, "referralId": "e-0-5363699f498e4a82132e9da2-40"}, {"reasons": {"count": 0, "items": [{"summary": "This spot is popular", "type": "general", "reasonName": "globalInteractionReason"}]}, "venue": {"id": "51fd51c7498e5c6a9d69490a", "name": "LINOpizza", "location": {"address": "Rheinstr. 32-33", "lat": 52.466651, "lng": 13.329904, "labeledLatLngs": [{"label": "display", "lat": 52.466651, "lng": 13.329904}], "distance": 958, "postalCode": "12161", "cc": "DE", "city": "Berlin", "state": "Berlin", "country": "Deutschland", "formattedAddress": ["Rheinstr. 32-33", "12161 Berlin", "Deutschland"]}, "categories": [{"id": "4bf58dd8d48988d1ca941735", "name": "Pizza Place", "pluralName": "Pizza Places", "shortName": "Pizza", "icon": {"prefix": "https://ss3.4sqi.net/img/categories_v2/food/pizza_", "suffix": ".png"}, "primary": true}], "photos": {"count": 0, "groups": []}}, "referralId": "e-0-51fd51c7498e5c6a9d69490a-41"}, {"reasons": {"count": 0, "items": [{"summary": "This spot is popular", "type": "general", "reasonName": "globalInteractionReason"}]}, "venue": {"id": "4bba12aa3db7b713fcd9229a", "name": "Caf\u00e9 Breslau Fuego", "location": {"address": "Hauptstr. 80", "lat": 52.47204880772586, "lng": 13.335664280507153, "labeledLatLngs": [{"label": "display", "lat": 52.47204880772586, "lng": 13.335664280507153}], "distance": 524, "postalCode": "12159", "cc": "DE", "city": "Berlin", "state": "Berlin", "country": "Deutschland", "formattedAddress": ["Hauptstr. 80", "12159 Berlin", "Deutschland"]}, "categories": [{"id": "4bf58dd8d48988d116941735", "name": "Bar", "pluralName": "Bars", "shortName": "Bar", "icon": {"prefix": "https://ss3.4sqi.net/img/categories_v2/nightlife/pub_", "suffix": ".png"}, "primary": true}], "photos": {"count": 0, "groups": []}}, "referralId": "e-0-4bba12aa3db7b713fcd9229a-42"}, {"reasons": {"count": 0, "items": [{"summary": "This spot is popular", "type": "general", "reasonName": "globalInteractionReason"}]}, "venue": {"id": "4c5ec446857ca5932469d0cb", "name": "Gl\u00fchwurm - Schw\u00e4bisches Restaurant", "location": {"address": "Handjerystra\u00dfe 77", "lat": 52.471482592735136, "lng": 13.333006521123627, "labeledLatLngs": [{"label": "display", "lat": 52.471482592735136, "lng": 13.333006521123627}], "distance": 677, "postalCode": "12159", "cc": "DE", "city": "Berlin", "state": "Berlin", "country": "Deutschland", "formattedAddress": ["Handjerystra\u00dfe 77", "12159 Berlin", "Deutschland"]}, "categories": [{"id": "4bf58dd8d48988d10d941735", "name": "German Restaurant", "pluralName": "German Restaurants", "shortName": "German", "icon": {"prefix": "https://ss3.4sqi.net/img/categories_v2/food/german_", "suffix": ".png"}, "primary": true}], "photos": {"count": 0, "groups": []}}, "referralId": "e-0-4c5ec446857ca5932469d0cb-43"}, {"reasons": {"count": 0, "items": [{"summary": "This spot is popular", "type": "general", "reasonName": "globalInteractionReason"}]}, "venue": {"id": "524e72d611d2f439878f1514", "name": "Fame Hookah", "location": {"address": "Rheinstr 60", "crossStreet": "12159", "lat": 52.4702962244578, "lng": 13.334105957395538, "labeledLatLngs": [{"label": "display", "lat": 52.4702962244578, "lng": 13.334105957395538}], "distance": 588, "cc": "DE", "city": "Berlin", "state": "Berlin", "country": "Deutschland", "formattedAddress": ["Rheinstr 60 (12159)", "Berlin", "Deutschland"]}, "categories": [{"id": "4bf58dd8d48988d119941735", "name": "Hookah Bar", "pluralName": "Hookah Bars", "shortName": "Hookah Bar", "icon": {"prefix": "https://ss3.4sqi.net/img/categories_v2/nightlife/hookahbar_", "suffix": ".png"}, "primary": true}], "photos": {"count": 0, "groups": []}}, "referralId": "e-0-524e72d611d2f439878f1514-44"}, {"reasons": {"count": 0, "items": [{"summary": "This spot is popular", "type": "general", "reasonName": "globalInteractionReason"}]}, "venue": {"id": "4cdd25894e15a090fe13e92b", "name": "Edo Sushi", "location": {"address": "Rheinstra\u00dfe 32", "lat": 52.46653654638386, "lng": 13.330105256464805, "labeledLatLngs": [{"label": "display", "lat": 52.46653654638386, "lng": 13.330105256464805}], "distance": 951, "postalCode": "12161", "cc": "DE", "city": "Berlin", "state": "Berlin", "country": "Deutschland", "formattedAddress": ["Rheinstra\u00dfe 32", "12161 Berlin", "Deutschland"]}, "categories": [{"id": "4bf58dd8d48988d1d2941735", "name": "Sushi Restaurant", "pluralName": "Sushi Restaurants", "shortName": "Sushi", "icon": {"prefix": "https://ss3.4sqi.net/img/categories_v2/food/sushi_", "suffix": ".png"}, "primary": true}], "photos": {"count": 0, "groups": []}}, "referralId": "e-0-4cdd25894e15a090fe13e92b-45"}, {"reasons": {"count": 0, "items": [{"summary": "This spot is popular", "type": "general", "reasonName": "globalInteractionReason"}]}, "venue": {"id": "4eda13028231efe38ef7e482", "name": "Lac Viet", "location": {"address": "Rheinstra\u00dfe 50", "lat": 52.467693866613644, "lng": 13.331354009107374, "labeledLatLngs": [{"label": "display", "lat": 52.467693866613644, "lng": 13.331354009107374}], "distance": 823, "cc": "DE", "city": "Berlin", "state": "Berlin", "country": "Deutschland", "formattedAddress": ["Rheinstra\u00dfe 50", "Berlin", "Deutschland"]}, "categories": [{"id": "4bf58dd8d48988d14a941735", "name": "Vietnamese Restaurant", "pluralName": "Vietnamese Restaurants", "shortName": "Vietnamese", "icon": {"prefix": "https://ss3.4sqi.net/img/categories_v2/food/vietnamese_", "suffix": ".png"}, "primary": true}], "photos": {"count": 0, "groups": []}}, "referralId": "e-0-4eda13028231efe38ef7e482-46"}, {"reasons": {"count": 0, "items": [{"summary": "This spot is popular", "type": "general", "reasonName": "globalInteractionReason"}]}, "venue": {"id": "4da7f1bb4df0af29b702c9c6", "name": "Breslauer Platz", "location": {"address": "Breslauer Platz", "lat": 52.47199563702395, "lng": 13.335724784700748, "labeledLatLngs": [{"label": "display", "lat": 52.47199563702395, "lng": 13.335724784700748}], "distance": 518, "postalCode": "12159", "cc": "DE", "city": "Berlin", "state": "Berlin", "country": "Deutschland", "formattedAddress": ["Breslauer Platz", "12159 Berlin", "Deutschland"]}, "categories": [{"id": "4bf58dd8d48988d164941735", "name": "Plaza", "pluralName": "Plazas", "shortName": "Plaza", "icon": {"prefix": "https://ss3.4sqi.net/img/categories_v2/parks_outdoors/plaza_", "suffix": ".png"}, "primary": true}], "photos": {"count": 0, "groups": []}}, "referralId": "e-0-4da7f1bb4df0af29b702c9c6-47"}, {"reasons": {"count": 0, "items": [{"summary": "This spot is popular", "type": "general", "reasonName": "globalInteractionReason"}]}, "venue": {"id": "4cbc7e6cf50e224bde89fffb", "name": "SUBWAY", "location": {"address": "Rheinstr. 66", "lat": 52.47166733705798, "lng": 13.33583937074252, "labeledLatLngs": [{"label": "display", "lat": 52.47166733705798, "lng": 13.33583937074252}], "distance": 498, "postalCode": "12159", "cc": "DE", "city": "Berlin", "state": "Berlin", "country": "Deutschland", "formattedAddress": ["Rheinstr. 66", "12159 Berlin", "Deutschland"]}, "categories": [{"id": "4bf58dd8d48988d1c5941735", "name": "Sandwich Place", "pluralName": "Sandwich Places", "shortName": "Sandwiches", "icon": {"prefix": "https://ss3.4sqi.net/img/categories_v2/food/deli_", "suffix": ".png"}, "primary": true}], "photos": {"count": 0, "groups": []}, "venuePage": {"id": "576511737"}}, "referralId": "e-0-4cbc7e6cf50e224bde89fffb-48"}, {"reasons": {"count": 0, "items": [{"summary": "This spot is popular", "type": "general", "reasonName": "globalInteractionReason"}]}, "venue": {"id": "4c417596af052d7f7f6b7d79", "name": "Wochenmarkt Breslauer Platz", "location": {"address": "Breslauer Platz 1", "lat": 52.47212220657284, "lng": 13.335484564304352, "labeledLatLngs": [{"label": "display", "lat": 52.47212220657284, "lng": 13.335484564304352}], "distance": 539, "postalCode": "12159", "cc": "DE", "city": "Berlin", "state": "Berlin", "country": "Deutschland", "formattedAddress": ["Breslauer Platz 1", "12159 Berlin", "Deutschland"]}, "categories": [{"id": "4bf58dd8d48988d1fa941735", "name": "Farmers Market", "pluralName": "Farmers Markets", "shortName": "Farmer's Market", "icon": {"prefix": "https://ss3.4sqi.net/img/categories_v2/shops/food_farmersmarket_", "suffix": ".png"}, "primary": true}], "photos": {"count": 0, "groups": []}}, "referralId": "e-0-4c417596af052d7f7f6b7d79-49"}, {"reasons": {"count": 0, "items": [{"summary": "This spot is popular", "type": "general", "reasonName": "globalInteractionReason"}]}, "venue": {"id": "4d873a6481fdb1f7aafb33c0", "name": "Deutsche Bank", "location": {"address": "Rheinstr. 44", "lat": 52.46639079848141, "lng": 13.329834756295856, "labeledLatLngs": [{"label": "display", "lat": 52.46639079848141, "lng": 13.329834756295856}], "distance": 974, "postalCode": "12161", "cc": "DE", "city": "Berlin", "state": "Berlin", "country": "Deutschland", "formattedAddress": ["Rheinstr. 44", "12161 Berlin", "Deutschland"]}, "categories": [{"id": "4bf58dd8d48988d10a951735", "name": "Bank", "pluralName": "Banks", "shortName": "Bank", "icon": {"prefix": "https://ss3.4sqi.net/img/categories_v2/shops/financial_", "suffix": ".png"}, "primary": true}], "photos": {"count": 0, "groups": []}}, "referralId": "e-0-4d873a6481fdb1f7aafb33c0-50"}, {"reasons": {"count": 0, "items": [{"summary": "This spot is popular", "type": "general", "reasonName": "globalInteractionReason"}]}, "venue": {"id": "4db2cf086a23c31a02f2f970", "name": "Nah und Gut Acar", "location": {"address": "Cranachstra\u00dfe 13", "lat": 52.46686366, "lng": 13.34188198, "labeledLatLngs": [{"label": "display", "lat": 52.46686366, "lng": 13.34188198}], "distance": 376, "postalCode": "12157", "cc": "DE", "city": "Berlin", "state": "Berlin", "country": "Deutschland", "formattedAddress": ["Cranachstra\u00dfe 13", "12157 Berlin", "Deutschland"]}, "categories": [{"id": "52f2ab2ebcbc57f1066b8b46", "name": "Supermarket", "pluralName": "Supermarkets", "shortName": "Supermarket", "icon": {"prefix": "https://ss3.4sqi.net/img/categories_v2/shops/food_grocery_", "suffix": ".png"}, "primary": true}], "photos": {"count": 0, "groups": []}, "venuePage": {"id": "555704378"}}, "referralId": "e-0-4db2cf086a23c31a02f2f970-51"}, {"reasons": {"count": 0, "items": [{"summary": "This spot is popular", "type": "general", "reasonName": "globalInteractionReason"}]}, "venue": {"id": "557dc22f498e8dd045e4ee38", "name": "Balli Burger", "location": {"address": "Rheinstr. 18", "crossStreet": "Schmiljanstr.", "lat": 52.469195, "lng": 13.33243, "labeledLatLngs": [{"label": "display", "lat": 52.469195, "lng": 13.33243}], "distance": 710, "postalCode": "12159", "cc": "DE", "city": "Berlin", "state": "Berlin", "country": "Deutschland", "formattedAddress": ["Rheinstr. 18 (Schmiljanstr.)", "12159 Berlin", "Deutschland"]}, "categories": [{"id": "4bf58dd8d48988d16c941735", "name": "Burger Joint", "pluralName": "Burger Joints", "shortName": "Burgers", "icon": {"prefix": "https://ss3.4sqi.net/img/categories_v2/food/burger_", "suffix": ".png"}, "primary": true}], "photos": {"count": 0, "groups": []}}, "referralId": "e-0-557dc22f498e8dd045e4ee38-52"}, {"reasons": {"count": 0, "items": [{"summary": "This spot is popular", "type": "general", "reasonName": "globalInteractionReason"}]}, "venue": {"id": "4f57a3f7e4b05abee0063ab0", "name": "Balli D\u00f6ner", "location": {"address": "Rheinstr. 19", "lat": 52.46888726655526, "lng": 13.33255935756586, "labeledLatLngs": [{"label": "display", "lat": 52.46888726655526, "lng": 13.33255935756586}], "distance": 708, "postalCode": "12161", "cc": "DE", "city": "Berlin", "state": "Berlin", "country": "Deutschland", "formattedAddress": ["Rheinstr. 19", "12161 Berlin", "Deutschland"]}, "categories": [{"id": "5283c7b4e4b094cb91ec88d8", "name": "Doner Restaurant", "pluralName": "Doner Restaurants", "shortName": "Doner", "icon": {"prefix": "https://ss3.4sqi.net/img/categories_v2/food/turkish_", "suffix": ".png"}, "primary": true}], "photos": {"count": 0, "groups": []}}, "referralId": "e-0-4f57a3f7e4b05abee0063ab0-53"}, {"reasons": {"count": 0, "items": [{"summary": "This spot is popular", "type": "general", "reasonName": "globalInteractionReason"}]}, "venue": {"id": "526bc9e0498e47338a825433", "name": "Th\u00fcrmann", "location": {"address": "Lauterstr. 14/15", "lat": 52.47223224733584, "lng": 13.335294737824356, "labeledLatLngs": [{"label": "display", "lat": 52.47223224733584, "lng": 13.335294737824356}], "distance": 555, "postalCode": "12159", "cc": "DE", "city": "Berlin", "state": "Berlin", "country": "Deutschland", "formattedAddress": ["Lauterstr. 14/15", "12159 Berlin", "Deutschland"]}, "categories": [{"id": "4bf58dd8d48988d16a941735", "name": "Bakery", "pluralName": "Bakeries", "shortName": "Bakery", "icon": {"prefix": "https://ss3.4sqi.net/img/categories_v2/food/bakery_", "suffix": ".png"}, "primary": true}], "photos": {"count": 0, "groups": []}}, "referralId": "e-0-526bc9e0498e47338a825433-54"}, {"reasons": {"count": 0, "items": [{"summary": "This spot is popular", "type": "general", "reasonName": "globalInteractionReason"}]}, "venue": {"id": "5283daf911d281aaedb4bbaf", "name": "Knausplatz", "location": {"lat": 52.46527229080631, "lng": 13.338755393432603, "labeledLatLngs": [{"label": "display", "lat": 52.46527229080631, "lng": 13.338755393432603}], "distance": 612, "cc": "DE", "city": "Berlin", "state": "Berlin", "country": "Deutschland", "formattedAddress": ["Berlin", "Deutschland"]}, "categories": [{"id": "4bf58dd8d48988d163941735", "name": "Park", "pluralName": "Parks", "shortName": "Park", "icon": {"prefix": "https://ss3.4sqi.net/img/categories_v2/parks_outdoors/park_", "suffix": ".png"}, "primary": true}], "photos": {"count": 0, "groups": []}}, "referralId": "e-0-5283daf911d281aaedb4bbaf-55"}, {"reasons": {"count": 0, "items": [{"summary": "This spot is popular", "type": "general", "reasonName": "globalInteractionReason"}]}, "venue": {"id": "4e1cc0818877a470239d6de4", "name": "Sponholz Bar Pub", "location": {"address": "Hauptstr. 89", "lat": 52.4754662075575, "lng": 13.34011275000696, "labeledLatLngs": [{"label": "display", "lat": 52.4754662075575, "lng": 13.34011275000696}], "distance": 613, "postalCode": "12159", "cc": "DE", "city": "Berlin", "state": "Berlin", "country": "Deutschland", "formattedAddress": ["Hauptstr. 89", "12159 Berlin", "Deutschland"]}, "categories": [{"id": "4bf58dd8d48988d116941735", "name": "Bar", "pluralName": "Bars", "shortName": "Bar", "icon": {"prefix": "https://ss3.4sqi.net/img/categories_v2/nightlife/pub_", "suffix": ".png"}, "primary": true}], "photos": {"count": 0, "groups": []}, "venuePage": {"id": "469836147"}}, "referralId": "e-0-4e1cc0818877a470239d6de4-56"}, {"reasons": {"count": 0, "items": [{"summary": "This spot is popular", "type": "general", "reasonName": "globalInteractionReason"}]}, "venue": {"id": "4b479ec5f964a520b93726e3", "name": "Dos Pescados", "location": {"address": "Friedrich-Wilhelm-Platz 14", "lat": 52.472723, "lng": 13.3286862, "labeledLatLngs": [{"label": "display", "lat": 52.472723, "lng": 13.3286862}], "distance": 996, "postalCode": "12161", "cc": "DE", "neighborhood": "Friedenau", "city": "Berlin", "state": "Berlin", "country": "Deutschland", "formattedAddress": ["Friedrich-Wilhelm-Platz 14", "12161 Berlin", "Deutschland"]}, "categories": [{"id": "4bf58dd8d48988d1c1941735", "name": "Mexican Restaurant", "pluralName": "Mexican Restaurants", "shortName": "Mexican", "icon": {"prefix": "https://ss3.4sqi.net/img/categories_v2/food/mexican_", "suffix": ".png"}, "primary": true}], "photos": {"count": 0, "groups": []}}, "referralId": "e-0-4b479ec5f964a520b93726e3-57"}, {"reasons": {"count": 0, "items": [{"summary": "This spot is popular", "type": "general", "reasonName": "globalInteractionReason"}]}, "venue": {"id": "4e40d735b0fb1399f6e63460", "name": "Kreuz Sch\u00f6neberg (18)(2)", "location": {"address": "A 100", "crossStreet": "A 103", "lat": 52.47416775246354, "lng": 13.351285457611084, "labeledLatLngs": [{"label": "display", "lat": 52.47416775246354, "lng": 13.351285457611084}], "distance": 726, "cc": "DE", "city": "Berlin", "state": "Berlin", "country": "Deutschland", "formattedAddress": ["A 100 (A 103)", "Berlin", "Deutschland"]}, "categories": [{"id": "52f2ab2ebcbc57f1066b8b4c", "name": "Intersection", "pluralName": "Intersections", "shortName": "Intersection", "icon": {"prefix": "https://ss3.4sqi.net/img/categories_v2/travel/default_", "suffix": ".png"}, "primary": true}], "photos": {"count": 0, "groups": []}}, "referralId": "e-0-4e40d735b0fb1399f6e63460-58"}, {"reasons": {"count": 0, "items": [{"summary": "This spot is popular", "type": "general", "reasonName": "globalInteractionReason"}]}, "venue": {"id": "4c6c158df2846dcb77e761e9", "name": "1.FC Sch\u00f6neberg", "location": {"address": "Vorarlberger Damm 33", "lat": 52.471179188350966, "lng": 13.35401466234343, "labeledLatLngs": [{"label": "display", "lat": 52.471179188350966, "lng": 13.35401466234343}], "distance": 769, "postalCode": "12157", "cc": "DE", "city": "Berlin", "state": "Berlin", "country": "Deutschland", "formattedAddress": ["Vorarlberger Damm 33", "12157 Berlin", "Deutschland"]}, "categories": [{"id": "4bf58dd8d48988d106941735", "name": "Track", "pluralName": "Tracks", "shortName": "Track", "icon": {"prefix": "https://ss3.4sqi.net/img/categories_v2/arts_entertainment/stadium_track_", "suffix": ".png"}, "primary": true}], "photos": {"count": 0, "groups": []}}, "referralId": "e-0-4c6c158df2846dcb77e761e9-59"}, {"reasons": {"count": 0, "items": [{"summary": "This spot is popular", "type": "general", "reasonName": "globalInteractionReason"}]}, "venue": {"id": "53a55d0f498ef405d8a15382", "name": "Sportplatz 1. FC Sch\u00f6neberg", "location": {"address": "Vorarlberger Damm 38", "lat": 52.4714113532734, "lng": 13.35408170393091, "labeledLatLngs": [{"label": "display", "lat": 52.4714113532734, "lng": 13.35408170393091}], "distance": 778, "cc": "DE", "city": "Berlin", "state": "Berlin", "country": "Deutschland", "formattedAddress": ["Vorarlberger Damm 38", "Berlin", "Deutschland"]}, "categories": [{"id": "4cce455aebf7b749d5e191f5", "name": "Soccer Field", "pluralName": "Soccer Fields", "shortName": "Soccer Field", "icon": {"prefix": "https://ss3.4sqi.net/img/categories_v2/arts_entertainment/stadium_soccer_", "suffix": ".png"}, "primary": true}], "photos": {"count": 0, "groups": []}}, "referralId": "e-0-53a55d0f498ef405d8a15382-60"}, {"reasons": {"count": 0, "items": [{"summary": "This spot is popular", "type": "general", "reasonName": "globalInteractionReason"}]}, "venue": {"id": "4c960f6a72dd224bf1eba891", "name": "Eiscafe Lido", "location": {"address": "Sachsenwaldstr. 9", "lat": 52.4635546112553, "lng": 13.338637029440651, "labeledLatLngs": [{"label": "display", "lat": 52.4635546112553, "lng": 13.338637029440651}], "distance": 791, "cc": "DE", "city": "Berlin", "state": "Berlin", "country": "Deutschland", "formattedAddress": ["Sachsenwaldstr. 9", "Berlin", "Deutschland"]}, "categories": [{"id": "4bf58dd8d48988d1c9941735", "name": "Ice Cream Shop", "pluralName": "Ice Cream Shops", "shortName": "Ice Cream", "icon": {"prefix": "https://ss3.4sqi.net/img/categories_v2/food/icecream_", "suffix": ".png"}, "primary": true}], "photos": {"count": 0, "groups": []}}, "referralId": "e-0-4c960f6a72dd224bf1eba891-61"}, {"reasons": {"count": 0, "items": [{"summary": "This spot is popular", "type": "general", "reasonName": "globalInteractionReason"}]}, "venue": {"id": "4c6ccec31fb2a143ff99fce6", "name": "Steineckes Heidebrot Backstube", "location": {"address": "Bismarckstra\u00dfe 3-4", "crossStreet": "Sachsenwaldstr.", "lat": 52.46281224639772, "lng": 13.3387888648411, "labeledLatLngs": [{"label": "display", "lat": 52.46281224639772, "lng": 13.3387888648411}], "distance": 865, "postalCode": "12157", "cc": "DE", "city": "Berlin", "state": "Berlin", "country": "Deutschland", "formattedAddress": ["Bismarckstra\u00dfe 3-4 (Sachsenwaldstr.)", "12157 Berlin", "Deutschland"]}, "categories": [{"id": "4bf58dd8d48988d16a941735", "name": "Bakery", "pluralName": "Bakeries", "shortName": "Bakery", "icon": {"prefix": "https://ss3.4sqi.net/img/categories_v2/food/bakery_", "suffix": ".png"}, "primary": true}], "photos": {"count": 0, "groups": []}}, "referralId": "e-0-4c6ccec31fb2a143ff99fce6-62"}, {"reasons": {"count": 0, "items": [{"summary": "This spot is popular", "type": "general", "reasonName": "globalInteractionReason"}]}, "venue": {"id": "4f7876d5e4b015b23e01d909", "name": "Cosimaplatz", "location": {"address": "Cosimaplatz", "lat": 52.47552300488847, "lng": 13.33337779374217, "labeledLatLngs": [{"label": "display", "lat": 52.47552300488847, "lng": 13.33337779374217}], "distance": 870, "postalCode": "12159", "cc": "DE", "city": "Berlin", "state": "Berlin", "country": "Deutschland", "formattedAddress": ["Cosimaplatz", "12159 Berlin", "Deutschland"]}, "categories": [{"id": "4bf58dd8d48988d163941735", "name": "Park", "pluralName": "Parks", "shortName": "Park", "icon": {"prefix": "https://ss3.4sqi.net/img/categories_v2/parks_outdoors/park_", "suffix": ".png"}, "primary": true}], "photos": {"count": 0, "groups": []}}, "referralId": "e-0-4f7876d5e4b015b23e01d909-63"}, {"reasons": {"count": 0, "items": [{"summary": "This spot is popular", "type": "general", "reasonName": "globalInteractionReason"}]}, "venue": {"id": "4de25d9ad22d2a4ecdc3674e", "name": "Perelsplatz", "location": {"lat": 52.47551302269675, "lng": 13.333230785994855, "labeledLatLngs": [{"label": "display", "lat": 52.47551302269675, "lng": 13.333230785994855}], "distance": 877, "postalCode": "10715", "cc": "DE", "city": "Berlin", "state": "Berlin", "country": "Deutschland", "formattedAddress": ["10715 Berlin", "Deutschland"]}, "categories": [{"id": "4bf58dd8d48988d164941735", "name": "Plaza", "pluralName": "Plazas", "shortName": "Plaza", "icon": {"prefix": "https://ss3.4sqi.net/img/categories_v2/parks_outdoors/plaza_", "suffix": ".png"}, "primary": true}], "photos": {"count": 0, "groups": []}}, "referralId": "e-0-4de25d9ad22d2a4ecdc3674e-64"}, {"reasons": {"count": 0, "items": [{"summary": "This spot is popular", "type": "general", "reasonName": "globalInteractionReason"}]}, "venue": {"id": "4ecf6fc302d5feaa1b14e332", "name": "Blumen Osterberg", "location": {"lat": 52.47846345152474, "lng": 13.34242465367568, "labeledLatLngs": [{"label": "display", "lat": 52.47846345152474, "lng": 13.34242465367568}], "distance": 920, "cc": "DE", "city": "Berlin", "state": "Berlin", "country": "Deutschland", "formattedAddress": ["Berlin", "Deutschland"]}, "categories": [{"id": "4bf58dd8d48988d11b951735", "name": "Flower Shop", "pluralName": "Flower Shops", "shortName": "Flower Shop", "icon": {"prefix": "https://ss3.4sqi.net/img/categories_v2/shops/flowershop_", "suffix": ".png"}, "primary": true}], "photos": {"count": 0, "groups": []}}, "referralId": "e-0-4ecf6fc302d5feaa1b14e332-65"}, {"reasons": {"count": 0, "items": [{"summary": "This spot is popular", "type": "general", "reasonName": "globalInteractionReason"}]}, "venue": {"id": "4e1f157914959804e9e7c2f9", "name": "REWE CITY", "location": {"address": "Bismarckstra\u00dfe 68-69", "lat": 52.46192925490351, "lng": 13.339625002776529, "labeledLatLngs": [{"label": "display", "lat": 52.46192925490351, "lng": 13.339625002776529}], "distance": 945, "postalCode": "12157", "cc": "DE", "city": "Berlin", "state": "Berlin", "country": "Deutschland", "formattedAddress": ["Bismarckstra\u00dfe 68-69", "12157 Berlin", "Deutschland"]}, "categories": [{"id": "52f2ab2ebcbc57f1066b8b46", "name": "Supermarket", "pluralName": "Supermarkets", "shortName": "Supermarket", "icon": {"prefix": "https://ss3.4sqi.net/img/categories_v2/shops/food_grocery_", "suffix": ".png"}, "primary": true}], "photos": {"count": 0, "groups": []}, "venuePage": {"id": "560093318"}}, "referralId": "e-0-4e1f157914959804e9e7c2f9-66"}, {"reasons": {"count": 0, "items": [{"summary": "This spot is popular", "type": "general", "reasonName": "globalInteractionReason"}]}, "venue": {"id": "4ece4d9702d5feaa19dbf077", "name": "Imbiss am Lauenburger Platz", "location": {"lat": 52.46192829661709, "lng": 13.339076460516594, "labeledLatLngs": [{"label": "display", "lat": 52.46192829661709, "lng": 13.339076460516594}], "distance": 954, "cc": "DE", "city": "Berlin", "state": "Berlin", "country": "Deutschland", "formattedAddress": ["Berlin", "Deutschland"]}, "categories": [{"id": "4bf58dd8d48988d147941735", "name": "Diner", "pluralName": "Diners", "shortName": "Diner", "icon": {"prefix": "https://ss3.4sqi.net/img/categories_v2/food/diner_", "suffix": ".png"}, "primary": true}], "photos": {"count": 0, "groups": []}}, "referralId": "e-0-4ece4d9702d5feaa19dbf077-67"}, {"reasons": {"count": 0, "items": [{"summary": "This spot is popular", "type": "general", "reasonName": "globalInteractionReason"}]}, "venue": {"id": "510becc7e4b0ce64f6bad2a5", "name": "INTER-Arena", "location": {"lat": 52.47246358188097, "lng": 13.356392154200556, "labeledLatLngs": [{"label": "display", "lat": 52.47246358188097, "lng": 13.356392154200556}], "distance": 956, "cc": "DE", "city": "Berlin", "state": "Berlin", "country": "Deutschland", "formattedAddress": ["Berlin", "Deutschland"]}, "categories": [{"id": "4cce455aebf7b749d5e191f5", "name": "Soccer Field", "pluralName": "Soccer Fields", "shortName": "Soccer Field", "icon": {"prefix": "https://ss3.4sqi.net/img/categories_v2/arts_entertainment/stadium_soccer_", "suffix": ".png"}, "primary": true}], "photos": {"count": 0, "groups": []}}, "referralId": "e-0-510becc7e4b0ce64f6bad2a5-68"}, {"reasons": {"count": 0, "items": [{"summary": "This spot is popular", "type": "general", "reasonName": "globalInteractionReason"}]}, "venue": {"id": "4d505064253d6a31e0876029", "name": "Tanzschule Dieter Keller", "location": {"address": "Rheinstr. 44", "crossStreet": "Schlo\u00dfstr.", "lat": 52.466340260084436, "lng": 13.330028060443244, "labeledLatLngs": [{"label": "display", "lat": 52.466340260084436, "lng": 13.330028060443244}], "distance": 965, "postalCode": "12161", "cc": "DE", "city": "Berlin", "state": "Berlin", "country": "Deutschland", "formattedAddress": ["Rheinstr. 44 (Schlo\u00dfstr.)", "12161 Berlin", "Deutschland"]}, "categories": [{"id": "4bf58dd8d48988d134941735", "name": "Dance Studio", "pluralName": "Dance Studios", "shortName": "Dance Studio", "icon": {"prefix": "https://ss3.4sqi.net/img/categories_v2/arts_entertainment/performingarts_dancestudio_", "suffix": ".png"}, "primary": true}], "photos": {"count": 0, "groups": []}}, "referralId": "e-0-4d505064253d6a31e0876029-69"}, {"reasons": {"count": 0, "items": [{"summary": "This spot is popular", "type": "general", "reasonName": "globalInteractionReason"}]}, "venue": {"id": "5076eacb498e7be11ed28ee4", "name": "H Lauenburger Platz", "location": {"address": "Bismarckstr.", "crossStreet": "Lauenburger Platz", "lat": 52.46177354174777, "lng": 13.33932551050057, "labeledLatLngs": [{"label": "display", "lat": 52.46177354174777, "lng": 13.33932551050057}], "distance": 966, "postalCode": "12157", "cc": "DE", "city": "Berlin", "state": "Berlin", "country": "Deutschland", "formattedAddress": ["Bismarckstr. (Lauenburger Platz)", "12157 Berlin", "Deutschland"]}, "categories": [{"id": "52f2ab2ebcbc57f1066b8b4f", "name": "Bus Stop", "pluralName": "Bus Stops", "shortName": "Bus Stop", "icon": {"prefix": "https://ss3.4sqi.net/img/categories_v2/travel/busstation_", "suffix": ".png"}, "primary": true}], "photos": {"count": 0, "groups": []}}, "referralId": "e-0-5076eacb498e7be11ed28ee4-70"}, {"reasons": {"count": 0, "items": [{"summary": "This spot is popular", "type": "general", "reasonName": "globalInteractionReason"}]}, "venue": {"id": "4d9cbebd5c33a35dcfc0f1a0", "name": "Turnzentrum des BTB", "location": {"address": "Vorarlberger Damm 39", "lat": 52.47292575636753, "lng": 13.356380261100512, "labeledLatLngs": [{"label": "display", "lat": 52.47292575636753, "lng": 13.356380261100512}], "distance": 970, "postalCode": "10829", "cc": "DE", "city": "Berlin", "state": "Berlin", "country": "Deutschland", "formattedAddress": ["Vorarlberger Damm 39", "10829 Berlin", "Deutschland"]}, "categories": [{"id": "4bf58dd8d48988d176941735", "name": "Gym", "pluralName": "Gyms", "shortName": "Gym", "icon": {"prefix": "https://ss3.4sqi.net/img/categories_v2/building/gym_", "suffix": ".png"}, "primary": true}], "photos": {"count": 0, "groups": []}}, "referralId": "e-0-4d9cbebd5c33a35dcfc0f1a0-71"}, {"reasons": {"count": 0, "items": [{"summary": "This spot is popular", "type": "general", "reasonName": "globalInteractionReason"}]}, "venue": {"id": "4b27d9f7f964a520298b24e3", "name": "S Feuerbachstra\u00dfe", "location": {"address": "Feuerbachstr. 31", "lat": 52.46374419869237, "lng": 13.332809944589336, "labeledLatLngs": [{"label": "display", "lat": 52.46374419869237, "lng": 13.332809944589336}], "distance": 986, "postalCode": "12163", "cc": "DE", "city": "Berlin", "state": "Berlin", "country": "Deutschland", "formattedAddress": ["Feuerbachstr. 31", "12163 Berlin", "Deutschland"]}, "categories": [{"id": "4bf58dd8d48988d1fc931735", "name": "Light Rail Station", "pluralName": "Light Rail Stations", "shortName": "Light Rail", "icon": {"prefix": "https://ss3.4sqi.net/img/categories_v2/travel/lightrail_", "suffix": ".png"}, "primary": true}], "photos": {"count": 0, "groups": []}}, "referralId": "e-0-4b27d9f7f964a520298b24e3-72"}, {"reasons": {"count": 0, "items": [{"summary": "This spot is popular", "type": "general", "reasonName": "globalInteractionReason"}]}, "venue": {"id": "4c72ed6f7121a1cdd9dc63d1", "name": "B\u00e4ckerei Johann Mayer", "location": {"address": "Feuerbachstr. 34", "crossStreet": "vor S Feuerbachstra\u00dfe", "lat": 52.46385595855987, "lng": 13.332364142607691, "labeledLatLngs": [{"label": "display", "lat": 52.46385595855987, "lng": 13.332364142607691}], "distance": 998, "postalCode": "12163", "cc": "DE", "city": "Berlin", "state": "Berlin", "country": "Deutschland", "formattedAddress": ["Feuerbachstr. 34 (vor S Feuerbachstra\u00dfe)", "12163 Berlin", "Deutschland"]}, "categories": [{"id": "4bf58dd8d48988d16a941735", "name": "Bakery", "pluralName": "Bakeries", "shortName": "Bakery", "icon": {"prefix": "https://ss3.4sqi.net/img/categories_v2/food/bakery_", "suffix": ".png"}, "primary": true}], "photos": {"count": 0, "groups": []}}, "referralId": "e-0-4c72ed6f7121a1cdd9dc63d1-73"}]