[{"reasons": {"count": 0, "items": [{"summary": "This spot is popular", "type": "general", "reasonName": "globalInteractionReason"}]}, "venue": {"id": "4adcda7ef964a520c94721e3", "name": "Schloss Friedrichsfelde", "location": {"address": "Am Tierpark 125", "lat": 52.50467953265919, "lng": 13.523569107055664, "labeledLatLngs": [{"label": "display", "lat": 52.50467953265919, "lng": 13.523569107055664}], "distance": 231, "postalCode": "10319", "cc": "DE", "city": "Berlin", "state": "Berlin", "country": "Deutschland", "formattedAddress": ["Am Tierpark 125", "10319 Berlin", "Deutschland"]}, "categories": [{"id": "52e81612bcbc57f1066b7a14", "name": "Palace", "pluralName": "Palaces", "shortName": "Palace", "icon": {"prefix": "https://ss3.4sqi.net/img/categories_v2/parks_outdoors/default_", "suffix": ".png"}, "primary": true}], "photos": {"count": 0, "groups": []}}, "referralId": "e-0-4adcda7ef964a520c94721e3-0"}, {"reasons": {"count": 0, "items": [{"summary": "This spot is popular", "type": "general", "reasonName": "globalInteractionReason"}]}, "venue": {"id": "4dee0fc718385379de5255ca", "name": "Affenhaus", "location": {"address": "Am Tierpark 125", "lat": 52.50753805016203, "lng": 13.532530216353717, "labeledLatLngs": [{"label": "display", "lat": 52.50753805016203, "lng": 13.532530216353717}], "distance": 509, "postalCode": "10319", "cc": "DE", "city": "Berlin", "state": "Berlin", "country": "Deutschland", "formattedAddress": ["Am Tierpark 125", "10319 Berlin", "Deutschland"]}, "categories": [{"id": "58daa1558bbb0b01f18ec1fd", "name": "Zoo Exhibit", "pluralName": "Zoo Exhibits", "shortName": "Zoo Exhibit", "icon": {"prefix": "https://ss3.4sqi.net/img/categories_v2/arts_entertainment/zoo_", "suffix": ".png"}, "primary": true}], "photos": {"count": 0, "groups": []}}, "referralId": "e-0-4dee0fc718385379de5255ca-1"}, {"reasons": {"count": 0, "items": [{"summary": "This spot is popular", "type": "general", "reasonName": "globalInteractionReason"}]}, "venue": {"id": "4bd048d0caff9521a37bcef0", "name": "Tierpark Berlin", "location": {"address": "Am Tierpark 125", "lat": 52.50167208555223, "lng": 13.53142261505127, "labeledLatLngs": [{"label": "display", "lat": 52.50167208555223, "lng": 13.53142261505127}], "distance": 683, "postalCode": "10319", "cc": "DE", "city": "Berlin", "state": "Berlin", "country": "Deutschland", "formattedAddress": ["Am Tierpark 125", "10319 Berlin", "Deutschland"]}, "categories": [{"id": "4bf58dd8d48988d17b941735", "name": "Zoo", "pluralName": "Zoos", "shortName": "Zoo", "icon": {"prefix": "https://ss3.4sqi.net/img/categories_v2/arts_entertainment/zoo_", "suffix": ".png"}, "primary": true}], "photos": {"count": 0, "groups": []}, "venuePage": {"id": "92132021"}}, "referralId": "e-0-4bd048d0caff9521a37bcef0-2"}, {"reasons": {"count": 0, "items": [{"summary": "This spot is popular", "type": "general", "reasonName": "globalInteractionReason"}]}, "venue": {"id": "504deed6e4b0273938535dfc", "name": "Kakadu Terrassencaf\u00e9", "location": {"address": "Am Tierpark 125", "lat": 52.5046129, "lng": 13.5237485, "labeledLatLngs": [{"label": "display", "lat": 52.5046129, "lng": 13.5237485}], "distance": 232, "postalCode": "10319", "cc": "DE", "city": "Berlin", "state": "Berlin", "country": "Deutschland", "formattedAddress": ["Am Tierpark 125", "10319 Berlin", "Deutschland"]}, "categories": [{"id": "4bf58dd8d48988d16d941735", "name": "Caf\u00e9", "pluralName": "Caf\u00e9s", "shortName": "Caf\u00e9", "icon": {"prefix": "https://ss3.4sqi.net/img/categories_v2/food/cafe_", "suffix": ".png"}, "primary": true}], "photos": {"count": 0, "groups": []}, "venuePage": {"id": "532083699"}}, "referralId": "e-0-504deed6e4b0273938535dfc-3"}, {"reasons": {"count": 0, "items": [{"summary": "This spot is popular", "type": "general", "reasonName": "globalInteractionReason"}]}, "venue": {"id": "50267b4ee4b0e4d95ff51450", "name": "Giraffenhaus", "location": {"address": "Am Tierpark 125", "lat": 52.50354178838849, "lng": 13.533767179776858, "labeledLatLngs": [{"label": "display", "lat": 52.50354178838849, "lng": 13.533767179776858}], "distance": 667, "postalCode": "10319", "cc": "DE", "city": "Berlin", "state": "Berlin", "country": "Deutschland", "formattedAddress": ["Am Tierpark 125", "10319 Berlin", "Deutschland"]}, "categories": [{"id": "58daa1558bbb0b01f18ec1fd", "name": "Zoo Exhibit", "pluralName": "Zoo Exhibits", "shortName": "Zoo Exhibit", "icon": {"prefix": "https://ss3.4sqi.net/img/categories_v2/arts_entertainment/zoo_", "suffix": ".png"}, "primary": true}], "photos": {"count": 0, "groups": []}}, "referralId": "e-0-50267b4ee4b0e4d95ff51450-4"}, {"reasons": {"count": 0, "items": [{"summary": "This spot is popular", "type": "general", "reasonName": "globalInteractionReason"}]}, "venue": {"id": "4daad5a91e72c1ab9bfcafbf", "name": "Krokodilhaus", "location": {"address": "Am Tierpark 125", "lat": 52.50505198558496, "lng": 13.522189248901753, "labeledLatLngs": [{"label": "display", "lat": 52.50505198558496, "lng": 13.522189248901753}], "distance": 260, "postalCode": "10319", "cc": "DE", "city": "Berlin", "state": "Berlin", "country": "Deutschland", "formattedAddress": ["Am Tierpark 125", "10319 Berlin", "Deutschland"]}, "categories": [{"id": "58daa1558bbb0b01f18ec1fd", "name": "Zoo Exhibit", "pluralName": "Zoo Exhibits", "shortName": "Zoo Exhibit", "icon": {"prefix": "https://ss3.4sqi.net/img/categories_v2/arts_entertainment/zoo_", "suffix": ".png"}, "primary": true}], "photos": {"count": 0, "groups": []}}, "referralId": "e-0-4daad5a91e72c1ab9bfcafbf-5"}, {"reasons": {"count": 0, "items": [{"summary": "This spot is popular", "type": "general", "reasonName": "globalInteractionReason"}]}, "venue": {"id": "4bcaf248511f95216d8fb0c7", "name": "Spielplatz im Tierpark", "location": {"address": "Am Tierpark 125", "lat": 52.4994318772405, "lng": 13.530220985412598, "labeledLatLngs": [{"label": "display", "lat": 52.4994318772405, "lng": 13.530220985412598}], "distance": 857, "postalCode": "10319", "cc": "DE", "city": "Berlin", "state": "Berlin", "country": "Deutschland", "formattedAddress": ["Am Tierpark 125", "10319 Berlin", "Deutschland"]}, "categories": [{"id": "4bf58dd8d48988d1e7941735", "name": "Playground", "pluralName": "Playgrounds", "shortName": "Playground", "icon": {"prefix": "https://ss3.4sqi.net/img/categories_v2/parks_outdoors/playground_", "suffix": ".png"}, "primary": true}], "photos": {"count": 0, "groups": []}}, "referralId": "e-0-4bcaf248511f95216d8fb0c7-6"}, {"reasons": {"count": 0, "items": [{"summary": "This spot is popular", "type": "general", "reasonName": "globalInteractionReason"}]}, "venue": {"id": "4deca14fb3ad083a33d71545", "name": "dm-drogerie markt", "location": {"address": "Massower Stra\u00dfe 5", "lat": 52.5077721, "lng": 13.512774, "labeledLatLngs": [{"label": "display", "lat": 52.5077721, "lng": 13.512774}], "distance": 854, "postalCode": "10315", "cc": "DE", "city": "Berlin", "state": "Berlin", "country": "Deutschland", "formattedAddress": ["Massower Stra\u00dfe 5", "10315 Berlin", "Deutschland"]}, "categories": [{"id": "5745c2e4498e11e7bccabdbd", "name": "Drugstore", "pluralName": "Drugstores", "shortName": "Drugstore", "icon": {"prefix": "https://ss3.4sqi.net/img/categories_v2/shops/pharmacy_", "suffix": ".png"}, "primary": true}], "photos": {"count": 0, "groups": []}, "venuePage": {"id": "453282622"}}, "referralId": "e-0-4deca14fb3ad083a33d71545-7"}, {"reasons": {"count": 0, "items": [{"summary": "This spot is popular", "type": "general", "reasonName": "globalInteractionReason"}]}, "venue": {"id": "4bcae652511f9521f884b0c7", "name": "Dickh\u00e4uterhaus", "location": {"address": "Am Tierpark 125", "lat": 52.501985574986456, "lng": 13.53314995765686, "labeledLatLngs": [{"label": "display", "lat": 52.501985574986456, "lng": 13.53314995765686}], "distance": 736, "postalCode": "10319", "cc": "DE", "city": "Berlin", "state": "Berlin", "country": "Deutschland", "formattedAddress": ["Am Tierpark 125", "10319 Berlin", "Deutschland"]}, "categories": [{"id": "58daa1558bbb0b01f18ec1fd", "name": "Zoo Exhibit", "pluralName": "Zoo Exhibits", "shortName": "Zoo Exhibit", "icon": {"prefix": "https://ss3.4sqi.net/img/categories_v2/arts_entertainment/zoo_", "suffix": ".png"}, "primary": true}], "photos": {"count": 0, "groups": []}}, "referralId": "e-0-4bcae652511f9521f884b0c7-8"}, {"reasons": {"count": 0, "items": [{"summary": "This spot is popular", "type": "general", "reasonName": "globalInteractionReason"}]}, "venue": {"id": "4c5fffa1048b9521dec63078", "name": "REWE", "location": {"address": "Alfred-Kowalke-Str. 2", "lat": 52.504821, "lng": 13.515084, "labeledLatLngs": [{"label": "display", "lat": 52.504821, "lng": 13.515084}], "distance": 710, "postalCode": "10315", "cc": "DE", "city": "Berlin", "state": "Berlin", "country": "Deutschland", "formattedAddress": ["Alfred-Kowalke-Str. 2", "10315 Berlin", "Deutschland"]}, "categories": [{"id": "52f2ab2ebcbc57f1066b8b46", "name": "Supermarket", "pluralName": "Supermarkets", "shortName": "Supermarket", "icon": {"prefix": "https://ss3.4sqi.net/img/categories_v2/shops/food_grocery_", "suffix": ".png"}, "primary": true}], "photos": {"count": 0, "groups": []}, "venuePage": {"id": "572264381"}}, "referralId": "e-0-4c5fffa1048b9521dec63078-9"}, {"reasons": {"count": 0, "items": [{"summary": "This spot is popular", "type": "general", "reasonName": "globalInteractionReason"}]}, "venue": {"id": "4f70a971e4b0e42845316423", "name": "PENNY", "location": {"address": "Seddiner Stra\u00dfe 8", "lat": 52.513448551511274, "lng": 13.522261763806341, "labeledLatLngs": [{"label": "display", "lat": 52.513448551511274, "lng": 13.522261763806341}], "distance": 798, "postalCode": "10315", "cc": "DE", "city": "Berlin", "state": "Berlin", "country": "Deutschland", "formattedAddress": ["Seddiner Stra\u00dfe 8", "10315 Berlin", "Deutschland"]}, "categories": [{"id": "52f2ab2ebcbc57f1066b8b46", "name": "Supermarket", "pluralName": "Supermarkets", "shortName": "Supermarket", "icon": {"prefix": "https://ss3.4sqi.net/img/categories_v2/shops/food_grocery_", "suffix": ".png"}, "primary": true}], "photos": {"count": 0, "groups": []}, "venuePage": {"id": "475214019"}}, "referralId": "e-0-4f70a971e4b0e42845316423-10"}, {"reasons": {"count": 0, "items": [{"summary": "This spot is popular", "type": "general", "reasonName": "globalInteractionReason"}]}, "venue": {"id": "4ca76300931bb60c79b99ce2", "name": "B\u00e4renschaufenster", "location": {"address": "Am Tierpark 125", "lat": 52.497910037971444, "lng": 13.523890972137451, "labeledLatLngs": [{"label": "display", "lat": 52.497910037971444, "lng": 13.523890972137451}], "distance": 960, "postalCode": "10319", "cc": "DE", "city": "Berlin", "state": "Berlin", "country": "Deutschland", "formattedAddress": ["Am Tierpark 125", "10319 Berlin", "Deutschland"]}, "categories": [{"id": "58daa1558bbb0b01f18ec1fd", "name": "Zoo Exhibit", "pluralName": "Zoo Exhibits", "shortName": "Zoo Exhibit", "icon": {"prefix": "https://ss3.4sqi.net/img/categories_v2/arts_entertainment/zoo_", "suffix": ".png"}, "primary": true}], "photos": {"count": 0, "groups": []}}, "referralId": "e-0-4ca76300931bb60c79b99ce2-11"}, {"reasons": {"count": 0, "items": [{"summary": "This spot is popular", "type": "general", "reasonName": "globalInteractionReason"}]}, "venue": {"id": "503fbd0c7e2752ec471b57c8", "name": "Rossmann", "location": {"address": "Alfred-Kowalke-Stra\u00dfe 2-4", "lat": 52.5047165637255, "lng": 13.5155213140671, "labeledLatLngs": [{"label": "display", "lat": 52.5047165637255, "lng": 13.5155213140671}], "distance": 685, "postalCode": "10315", "cc": "DE", "city": "Berlin", "state": "Berlin", "country": "Deutschland", "formattedAddress": ["Alfred-Kowalke-Stra\u00dfe 2-4", "10315 Berlin", "Deutschland"]}, "categories": [{"id": "5745c2e4498e11e7bccabdbd", "name": "Drugstore", "pluralName": "Drugstores", "shortName": "Drugstore", "icon": {"prefix": "https://ss3.4sqi.net/img/categories_v2/shops/pharmacy_", "suffix": ".png"}, "primary": true}], "photos": {"count": 0, "groups": []}}, "referralId": "e-0-503fbd0c7e2752ec471b57c8-12"}, {"reasons": {"count": 0, "items": [{"summary": "This spot is popular", "type": "general", "reasonName": "globalInteractionReason"}]}, "venue": {"id": "55574e98498e52b9d9dea9ae", "name": "dm-drogerie markt", "location": {"address": "Heinrich-Dathe-Platz 1", "lat": 52.4981597, "lng": 13.521819, "labeledLatLngs": [{"label": "display", "lat": 52.4981597, "lng": 13.521819}], "distance": 956, "postalCode": "10319", "cc": "DE", "city": "Berlin", "state": "Berlin", "country": "Deutschland", "formattedAddress": ["Heinrich-Dathe-Platz 1", "10319 Berlin", "Deutschland"]}, "categories": [{"id": "5745c2e4498e11e7bccabdbd", "name": "Drugstore", "pluralName": "Drugstores", "shortName": "Drugstore", "icon": {"prefix": "https://ss3.4sqi.net/img/categories_v2/shops/pharmacy_", "suffix": ".png"}, "primary": true}], "photos": {"count": 0, "groups": []}, "venuePage": {"id": "450281413"}}, "referralId": "e-0-55574e98498e52b9d9dea9ae-13"}, {"reasons": {"count": 0, "items": [{"summary": "This spot is popular", "type": "general", "reasonName": "globalInteractionReason"}]}, "venue": {"id": "4d79bd5b7418a14366cfc05b", "name": "EDEKA Rhinstra\u00dfe", "location": {"address": "Rhinstr. 17", "lat": 52.51351242109683, "lng": 13.518215151830098, "labeledLatLngs": [{"label": "display", "lat": 52.51351242109683, "lng": 13.518215151830098}], "distance": 912, "postalCode": "10315", "cc": "DE", "city": "Berlin", "state": "Berlin", "country": "Deutschland", "formattedAddress": ["Rhinstr. 17", "10315 Berlin", "Deutschland"]}, "categories": [{"id": "52f2ab2ebcbc57f1066b8b46", "name": "Supermarket", "pluralName": "Supermarkets", "shortName": "Supermarket", "icon": {"prefix": "https://ss3.4sqi.net/img/categories_v2/shops/food_grocery_", "suffix": ".png"}, "primary": true}], "photos": {"count": 0, "groups": []}, "venuePage": {"id": "555455294"}}, "referralId": "e-0-4d79bd5b7418a14366cfc05b-14"}, {"reasons": {"count": 0, "items": [{"summary": "This spot is popular", "type": "general", "reasonName": "globalInteractionReason"}]}, "venue": {"id": "54a2eb9a498e9cfaa4184321", "name": "REWE", "location": {"address": "Am Tierpark 68", "lat": 52.498280872186726, "lng": 13.521579037563242, "labeledLatLngs": [{"label": "display", "lat": 52.498280872186726, "lng": 13.521579037563242}], "distance": 947, "postalCode": "10319", "cc": "DE", "city": "Berlin", "state": "Berlin", "country": "Deutschland", "formattedAddress": ["Am Tierpark 68", "10319 Berlin", "Deutschland"]}, "categories": [{"id": "52f2ab2ebcbc57f1066b8b46", "name": "Supermarket", "pluralName": "Supermarkets", "shortName": "Supermarket", "icon": {"prefix": "https://ss3.4sqi.net/img/categories_v2/shops/food_grocery_", "suffix": ".png"}, "primary": true}], "photos": {"count": 0, "groups": []}, "venuePage": {"id": "577518680"}}, "referralId": "e-0-54a2eb9a498e9cfaa4184321-15"}, {"reasons": {"count": 0, "items": [{"summary": "This spot is popular", "type": "general", "reasonName": "globalInteractionReason"}]}, "venue": {"id": "4bcaeb74b6c49c749c439191", "name": "Alfred-Brehm-Haus", "location": {"address": "Am Tierpark 125", "lat": 52.49976417848157, "lng": 13.534128457746025, "labeledLatLngs": [{"label": "display", "lat": 52.49976417848157, "lng": 13.534128457746025}], "distance": 963, "postalCode": "10315", "cc": "DE", "city": "Berlin", "state": "Berlin", "country": "Deutschland", "formattedAddress": ["Am Tierpark 125", "10315 Berlin", "Deutschland"]}, "categories": [{"id": "58daa1558bbb0b01f18ec1fd", "name": "Zoo Exhibit", "pluralName": "Zoo Exhibits", "shortName": "Zoo Exhibit", "icon": {"prefix": "https://ss3.4sqi.net/img/categories_v2/arts_entertainment/zoo_", "suffix": ".png"}, "primary": true}], "photos": {"count": 0, "groups": []}}, "referralId": "e-0-4bcaeb74b6c49c749c439191-16"}, {"reasons": {"count": 0, "items": [{"summary": "This spot is popular", "type": "general", "reasonName": "globalInteractionReason"}]}, "venue": {"id": "4e6f5c08d4c06eaf9c244fe9", "name": "B\u00e4ckerei Schnell", "location": {"address": "Seddinerstr. 22", "lat": 52.51377985924374, "lng": 13.519785455441593, "labeledLatLngs": [{"label": "display", "lat": 52.51377985924374, "lng": 13.519785455441593}], "distance": 889, "postalCode": "10315", "cc": "DE", "city": "Berlin", "state": "Berlin", "country": "Deutschland", "formattedAddress": ["Seddinerstr. 22", "10315 Berlin", "Deutschland"]}, "categories": [{"id": "4bf58dd8d48988d16a941735", "name": "Bakery", "pluralName": "Bakeries", "shortName": "Bakery", "icon": {"prefix": "https://ss3.4sqi.net/img/categories_v2/food/bakery_", "suffix": ".png"}, "primary": true}], "photos": {"count": 0, "groups": []}}, "referralId": "e-0-4e6f5c08d4c06eaf9c244fe9-17"}, {"reasons": {"count": 0, "items": [{"summary": "This spot is popular", "type": "general", "reasonName": "globalInteractionReason"}]}, "venue": {"id": "51408ad7e4b0f02c78c7a049", "name": "Bamboo Bistro", "location": {"address": "Rhinstr 17", "lat": 52.513882, "lng": 13.518096, "labeledLatLngs": [{"label": "display", "lat": 52.513882, "lng": 13.518096}], "distance": 952, "cc": "DE", "city": "Berlin", "state": "Berlin", "country": "Deutschland", "formattedAddress": ["Rhinstr 17", "Berlin", "Deutschland"]}, "categories": [{"id": "4bf58dd8d48988d142941735", "name": "Asian Restaurant", "pluralName": "Asian Restaurants", "shortName": "Asian", "icon": {"prefix": "https://ss3.4sqi.net/img/categories_v2/food/asian_", "suffix": ".png"}, "primary": true}], "photos": {"count": 0, "groups": []}}, "referralId": "e-0-51408ad7e4b0f02c78c7a049-18"}, {"reasons": {"count": 0, "items": [{"summary": "This spot is popular", "type": "general", "reasonName": "globalInteractionReason"}]}, "venue": {"id": "4d960358a2c654818b34b553", "name": "Eye of Harmony", "location": {"lat": 52.508654010519855, "lng": 13.52122032087334, "labeledLatLngs": [{"label": "display", "lat": 52.508654010519855, "lng": 13.52122032087334}], "distance": 360, "cc": "DE", "city": "Berlin", "state": "Berlin", "country": "Deutschland", "formattedAddress": ["Berlin", "Deutschland"]}, "categories": [{"id": "4bf58dd8d48988d1ca941735", "name": "Pizza Place", "pluralName": "Pizza Places", "shortName": "Pizza", "icon": {"prefix": "https://ss3.4sqi.net/img/categories_v2/food/pizza_", "suffix": ".png"}, "primary": true}], "photos": {"count": 0, "groups": []}}, "referralId": "e-0-4d960358a2c654818b34b553-19"}, {"reasons": {"count": 0, "items": [{"summary": "This spot is popular", "type": "general", "reasonName": "globalInteractionReason"}]}, "venue": {"id": "4dc91e5a887721632c70a83c", "name": "Cafeteria HWR Berlin", "location": {"address": "Alt-Friedrichsfelde 60", "lat": 52.50997495409213, "lng": 13.526589464006673, "labeledLatLngs": [{"label": "display", "lat": 52.50997495409213, "lng": 13.526589464006673}], "distance": 397, "postalCode": "10315", "cc": "DE", "neighborhood": "Tierpark", "city": "Berlin", "state": "Berlin", "country": "Deutschland", "formattedAddress": ["Alt-Friedrichsfelde 60", "10315 Berlin", "Deutschland"]}, "categories": [{"id": "4bf58dd8d48988d128941735", "name": "Cafeteria", "pluralName": "Cafeterias", "shortName": "Cafeteria", "icon": {"prefix": "https://ss3.4sqi.net/img/categories_v2/education/cafeteria_", "suffix": ".png"}, "primary": true}], "photos": {"count": 0, "groups": []}}, "referralId": "e-0-4dc91e5a887721632c70a83c-20"}, {"reasons": {"count": 0, "items": [{"summary": "This spot is popular", "type": "general", "reasonName": "globalInteractionReason"}]}, "venue": {"id": "4adcda6ff964a520d64421e3", "name": "ABACUS Tierpark Hotel", "location": {"address": "Franz-Mett-Stra\u00dfe 3 -9", "lat": 52.502148, "lng": 13.518727, "labeledLatLngs": [{"label": "display", "lat": 52.502148, "lng": 13.518727}], "distance": 654, "postalCode": "10319", "cc": "DE", "neighborhood": "Alt-Friedrichsfelde", "city": "Berlin", "state": "Berlin", "country": "Deutschland", "formattedAddress": ["Franz-Mett-Stra\u00dfe 3 -9", "10319 Berlin", "Deutschland"]}, "categories": [{"id": "4bf58dd8d48988d1fa931735", "name": "Hotel", "pluralName": "Hotels", "shortName": "Hotel", "icon": {"prefix": "https://ss3.4sqi.net/img/categories_v2/travel/hotel_", "suffix": ".png"}, "primary": true}], "photos": {"count": 0, "groups": []}}, "referralId": "e-0-4adcda6ff964a520d64421e3-21"}, {"reasons": {"count": 0, "items": [{"summary": "This spot is popular", "type": "general", "reasonName": "globalInteractionReason"}]}, "venue": {"id": "4f8c9cdcc2eefc63bedda785", "name": "Tunnel Alt-Friedrichsfelde", "location": {"address": "Alt-Friedrichsfelde", "crossStreet": "Rhinstra\u00dfe", "lat": 52.50958700937634, "lng": 13.518955707550049, "labeledLatLngs": [{"label": "display", "lat": 52.50958700937634, "lng": 13.518955707550049}], "distance": 545, "cc": "DE", "city": "Berlin", "state": "Berlin", "country": "Deutschland", "formattedAddress": ["Alt-Friedrichsfelde (Rhinstra\u00dfe)", "Berlin", "Deutschland"]}, "categories": [{"id": "52f2ab2ebcbc57f1066b8b4a", "name": "Tunnel", "pluralName": "Tunnels", "shortName": "Tunnel", "icon": {"prefix": "https://ss3.4sqi.net/img/categories_v2/travel/default_", "suffix": ".png"}, "primary": true}], "photos": {"count": 0, "groups": []}}, "referralId": "e-0-4f8c9cdcc2eefc63bedda785-22"}, {"reasons": {"count": 0, "items": [{"summary": "This spot is popular", "type": "general", "reasonName": "globalInteractionReason"}]}, "venue": {"id": "4f128064e4b0d3f8a6943054", "name": "H Criegernweg", "location": {"address": "Am Tierpark", "crossStreet": "Criegernweg", "lat": 52.501231835847264, "lng": 13.522350775228796, "labeledLatLngs": [{"label": "display", "lat": 52.501231835847264, "lng": 13.522350775228796}], "distance": 618, "postalCode": "10319", "cc": "DE", "city": "Berlin", "state": "Berlin", "country": "Deutschland", "formattedAddress": ["Am Tierpark (Criegernweg)", "10319 Berlin", "Deutschland"]}, "categories": [{"id": "52f2ab2ebcbc57f1066b8b51", "name": "Tram Station", "pluralName": "Tram Stations", "shortName": "Tram", "icon": {"prefix": "https://ss3.4sqi.net/img/categories_v2/travel/trainstation_", "suffix": ".png"}, "primary": true}], "photos": {"count": 0, "groups": []}}, "referralId": "e-0-4f128064e4b0d3f8a6943054-23"}, {"reasons": {"count": 0, "items": [{"summary": "This spot is popular", "type": "general", "reasonName": "globalInteractionReason"}]}, "venue": {"id": "4d984c2d647d8cfab78aeb3d", "name": "Silvias Bar", "location": {"address": "Alfred-Kowalke-Stra\u00dfe 2-4", "lat": 52.50548302185948, "lng": 13.514945888645444, "labeledLatLngs": [{"label": "display", "lat": 52.50548302185948, "lng": 13.514945888645444}], "distance": 704, "postalCode": "10315", "cc": "DE", "city": "Berlin", "state": "Berlin", "country": "Deutschland", "formattedAddress": ["Alfred-Kowalke-Stra\u00dfe 2-4", "10315 Berlin", "Deutschland"]}, "categories": [{"id": "4bf58dd8d48988d155941735", "name": "Gastropub", "pluralName": "Gastropubs", "shortName": "Gastropub", "icon": {"prefix": "https://ss3.4sqi.net/img/categories_v2/food/gastropub_", "suffix": ".png"}, "primary": true}], "photos": {"count": 0, "groups": []}}, "referralId": "e-0-4d984c2d647d8cfab78aeb3d-24"}, {"reasons": {"count": 0, "items": [{"summary": "This spot is popular", "type": "general", "reasonName": "globalInteractionReason"}]}, "venue": {"id": "4d36d9c5d8caa1cd072071d6", "name": "Netto Marken-Discount", "location": {"address": "Alt-Friedrichsfelde 25", "lat": 52.50936667, "lng": 13.51393302, "labeledLatLngs": [{"label": "display", "lat": 52.50936667, "lng": 13.51393302}], "distance": 827, "postalCode": "10315", "cc": "DE", "city": "Berlin", "state": "Berlin", "country": "Deutschland", "formattedAddress": ["Alt-Friedrichsfelde 25", "10315 Berlin-Lichtenberg", "Deutschland"]}, "categories": [{"id": "52f2ab2ebcbc57f1066b8b46", "name": "Supermarket", "pluralName": "Supermarkets", "shortName": "Supermarket", "icon": {"prefix": "https://ss3.4sqi.net/img/categories_v2/shops/food_grocery_", "suffix": ".png"}, "primary": true}], "photos": {"count": 0, "groups": []}, "venuePage": {"id": "541527254"}}, "referralId": "e-0-4d36d9c5d8caa1cd072071d6-25"}, {"reasons": {"count": 0, "items": [{"summary": "This spot is popular", "type": "general", "reasonName": "globalInteractionReason"}]}, "venue": {"id": "4c7a73b420bb199c58ed1529", "name": "Packstation 165", "location": {"address": "Massower Str. 5", "crossStreet": "Robert-Uhrig-Str.", "lat": 52.50778008632582, "lng": 13.512459834823172, "labeledLatLngs": [{"label": "display", "lat": 52.50778008632582, "lng": 13.512459834823172}], "distance": 875, "postalCode": "10315", "cc": "DE", "city": "Berlin", "state": "Berlin", "country": "Deutschland", "formattedAddress": ["Massower Str. 5 (Robert-Uhrig-Str.)", "10315 Berlin", "Deutschland"]}, "categories": [{"id": "52f2ab2ebcbc57f1066b8b1f", "name": "Shipping Store", "pluralName": "Shipping Stores", "shortName": "Shipping Store", "icon": {"prefix": "https://ss3.4sqi.net/img/categories_v2/shops/default_", "suffix": ".png"}, "primary": true}], "photos": {"count": 0, "groups": []}}, "referralId": "e-0-4c7a73b420bb199c58ed1529-26"}, {"reasons": {"count": 0, "items": [{"summary": "This spot is popular", "type": "general", "reasonName": "globalInteractionReason"}]}, "venue": {"id": "511648c229a60e89a719d959", "name": "B\u00e4ckerei M\u00fcller", "location": {"address": "Alfred-Kowalke-Str.42", "lat": 52.50697365650757, "lng": 13.512253936566623, "labeledLatLngs": [{"label": "display", "lat": 52.50697365650757, "lng": 13.512253936566623}], "distance": 879, "cc": "DE", "city": "Berlin", "state": "Berlin", "country": "Deutschland", "formattedAddress": ["Alfred-Kowalke-Str.42", "Berlin", "Deutschland"]}, "categories": [{"id": "4bf58dd8d48988d16a941735", "name": "Bakery", "pluralName": "Bakeries", "shortName": "Bakery", "icon": {"prefix": "https://ss3.4sqi.net/img/categories_v2/food/bakery_", "suffix": ".png"}, "primary": true}], "photos": {"count": 0, "groups": []}}, "referralId": "e-0-511648c229a60e89a719d959-27"}, {"reasons": {"count": 0, "items": [{"summary": "This spot is popular", "type": "general", "reasonName": "globalInteractionReason"}]}, "venue": {"id": "4b99f667f964a520e19835e3", "name": "S Friedrichsfelde Ost", "location": {"address": "Seddiner Str. 23", "lat": 52.513915185371864, "lng": 13.519672628760835, "labeledLatLngs": [{"label": "display", "lat": 52.513915185371864, "lng": 13.519672628760835}], "distance": 906, "postalCode": "10315", "cc": "DE", "city": "Berlin", "state": "Berlin", "country": "Deutschland", "formattedAddress": ["Seddiner Str. 23", "10315 Berlin", "Deutschland"]}, "categories": [{"id": "4bf58dd8d48988d1fc931735", "name": "Light Rail Station", "pluralName": "Light Rail Stations", "shortName": "Light Rail", "icon": {"prefix": "https://ss3.4sqi.net/img/categories_v2/travel/lightrail_", "suffix": ".png"}, "primary": true}], "photos": {"count": 0, "groups": []}}, "referralId": "e-0-4b99f667f964a520e19835e3-28"}, {"reasons": {"count": 0, "items": [{"summary": "This spot is popular", "type": "general", "reasonName": "globalInteractionReason"}]}, "venue": {"id": "4fcd1baee4b096bc2c88dcd0", "name": "Gastst\u00e4tte Zum B\u00e4ren", "location": {"address": "Am Tierpark 66", "lat": 52.49861575496647, "lng": 13.52141256493563, "labeledLatLngs": [{"label": "display", "lat": 52.49861575496647, "lng": 13.52141256493563}], "distance": 915, "cc": "DE", "city": "Berlin", "state": "Berlin", "country": "Deutschland", "formattedAddress": ["Am Tierpark 66", "Berlin", "Deutschland"]}, "categories": [{"id": "4bf58dd8d48988d155941735", "name": "Gastropub", "pluralName": "Gastropubs", "shortName": "Gastropub", "icon": {"prefix": "https://ss3.4sqi.net/img/categories_v2/food/gastropub_", "suffix": ".png"}, "primary": true}], "photos": {"count": 0, "groups": []}}, "referralId": "e-0-4fcd1baee4b096bc2c88dcd0-29"}, {"reasons": {"count": 0, "items": [{"summary": "This spot is popular", "type": "general", "reasonName": "globalInteractionReason"}]}, "venue": {"id": "50829a16498eac55fcbb63c8", "name": "Streichelzoo", "location": {"address": "Am Tierpark 125", "lat": 52.499033460891084, "lng": 13.531132936477661, "labeledLatLngs": [{"label": "display", "lat": 52.499033460891084, "lng": 13.531132936477661}], "distance": 923, "postalCode": "10319", "cc": "DE", "city": "Berlin", "state": "Berlin", "country": "Deutschland", "formattedAddress": ["Am Tierpark 125", "10319 Berlin", "Deutschland"]}, "categories": [{"id": "58daa1558bbb0b01f18ec1fd", "name": "Zoo Exhibit", "pluralName": "Zoo Exhibits", "shortName": "Zoo Exhibit", "icon": {"prefix": "https://ss3.4sqi.net/img/categories_v2/arts_entertainment/zoo_", "suffix": ".png"}, "primary": true}], "photos": {"count": 0, "groups": []}}, "referralId": "e-0-50829a16498eac55fcbb63c8-30"}, {"reasons": {"count": 0, "items": [{"summary": "This spot is popular", "type": "general", "reasonName": "globalInteractionReason"}]}, "venue": {"id": "4c31e78eed37a5934af36a03", "name": "A.T.U Berlin - Lichtenberg", "location": {"address": "Alt-Friedrichsfelde 107", "lat": 52.510873, "lng": 13.512729, "labeledLatLngs": [{"label": "display", "lat": 52.510873, "lng": 13.512729}], "distance": 975, "postalCode": "10315", "cc": "DE", "city": "Berlin", "state": "Berlin", "country": "Deutschland", "formattedAddress": ["Alt-Friedrichsfelde 107", "10315 Berlin", "Deutschland"]}, "categories": [{"id": "4bf58dd8d48988d124951735", "name": "Automotive Shop", "pluralName": "Automotive Shops", "shortName": "Automotive", "icon": {"prefix": "https://ss3.4sqi.net/img/categories_v2/shops/automotive_", "suffix": ".png"}, "primary": true}], "photos": {"count": 0, "groups": []}}, "referralId": "e-0-4c31e78eed37a5934af36a03-31"}]