[{"reasons": {"count": 0, "items": [{"summary": "This spot is popular", "type": "general", "reasonName": "globalInteractionReason"}]}, "venue": {"id": "4b9fd362f964a5201e4237e3", "name": "Hundeplatz Rummelsburg", "location": {"address": "Dolgenseestr.", "crossStreet": "H\u00f6nower Weg", "lat": 52.49318089654172, "lng": 13.5042142868042, "labeledLatLngs": [{"label": "display", "lat": 52.49318089654172, "lng": 13.5042142868042}], "distance": 698, "cc": "DE", "city": "Berlin", "state": "Berlin", "country": "Deutschland", "formattedAddress": ["Dolgenseestr. (H\u00f6nower Weg)", "Berlin", "Deutschland"]}, "categories": [{"id": "4bf58dd8d48988d1e5941735", "name": "Dog Run", "pluralName": "Dog Runs", "shortName": "Dog Run", "icon": {"prefix": "https://ss3.4sqi.net/img/categories_v2/parks_outdoors/dogrun_", "suffix": ".png"}, "primary": true}], "photos": {"count": 0, "groups": []}}, "referralId": "e-0-4b9fd362f964a5201e4237e3-0"}, {"reasons": {"count": 0, "items": [{"summary": "This spot is popular", "type": "general", "reasonName": "globalInteractionReason"}]}, "venue": {"id": "4c2b09cfb34ad13a3524e9ce", "name": "Stadion Friedrichsfelde", "location": {"address": "Zachertstr. 30-50", "lat": 52.504903, "lng": 13.506476, "labeledLatLngs": [{"label": "display", "lat": 52.504903, "lng": 13.506476}], "distance": 855, "postalCode": "10315", "cc": "DE", "city": "Berlin", "state": "Berlin", "country": "Deutschland", "formattedAddress": ["Zachertstr. 30-50", "10315 Berlin", "Deutschland"]}, "categories": [{"id": "4bf58dd8d48988d184941735", "name": "Stadium", "pluralName": "Stadiums", "shortName": "Stadium", "icon": {"prefix": "https://ss3.4sqi.net/img/categories_v2/arts_entertainment/stadium_", "suffix": ".png"}, "primary": true}], "photos": {"count": 0, "groups": []}}, "referralId": "e-0-4c2b09cfb34ad13a3524e9ce-1"}, {"reasons": {"count": 0, "items": [{"summary": "This spot is popular", "type": "general", "reasonName": "globalInteractionReason"}]}, "venue": {"id": "4d7fc0d1cd09224b8a426230", "name": "Restaurant Marco Polo", "location": {"address": "Dolgenseestra\u00dfe 11a", "lat": 52.493168332041094, "lng": 13.506272492163188, "labeledLatLngs": [{"label": "display", "lat": 52.493168332041094, "lng": 13.506272492163188}], "distance": 613, "postalCode": "10319", "cc": "DE", "city": "Berlin", "state": "Berlin", "country": "Deutschland", "formattedAddress": ["Dolgenseestra\u00dfe 11a", "10319 Berlin", "Deutschland"]}, "categories": [{"id": "4bf58dd8d48988d110941735", "name": "Italian Restaurant", "pluralName": "Italian Restaurants", "shortName": "Italian", "icon": {"prefix": "https://ss3.4sqi.net/img/categories_v2/food/italian_", "suffix": ".png"}, "primary": true}], "photos": {"count": 0, "groups": []}}, "referralId": "e-0-4d7fc0d1cd09224b8a426230-2"}, {"reasons": {"count": 0, "items": [{"summary": "This spot is popular", "type": "general", "reasonName": "globalInteractionReason"}]}, "venue": {"id": "4c5fffa1048b9521dec63078", "name": "REWE", "location": {"address": "Alfred-Kowalke-Str. 2", "lat": 52.504821, "lng": 13.515084, "labeledLatLngs": [{"label": "display", "lat": 52.504821, "lng": 13.515084}], "distance": 826, "postalCode": "10315", "cc": "DE", "city": "Berlin", "state": "Berlin", "country": "Deutschland", "formattedAddress": ["Alfred-Kowalke-Str. 2", "10315 Berlin", "Deutschland"]}, "categories": [{"id": "52f2ab2ebcbc57f1066b8b46", "name": "Supermarket", "pluralName": "Supermarkets", "shortName": "Supermarket", "icon": {"prefix": "https://ss3.4sqi.net/img/categories_v2/shops/food_grocery_", "suffix": ".png"}, "primary": true}], "photos": {"count": 0, "groups": []}, "venuePage": {"id": "572264381"}}, "referralId": "e-0-4c5fffa1048b9521dec63078-3"}, {"reasons": {"count": 0, "items": [{"summary": "This spot is popular", "type": "general", "reasonName": "globalInteractionReason"}]}, "venue": {"id": "55574e98498e52b9d9dea9ae", "name": "dm-drogerie markt", "location": {"address": "Heinrich-Dathe-Platz 1", "lat": 52.4981597, "lng": 13.521819, "labeledLatLngs": [{"label": "display", "lat": 52.4981597, "lng": 13.521819}], "distance": 719, "postalCode": "10319", "cc": "DE", "city": "Berlin", "state": "Berlin", "country": "Deutschland", "formattedAddress": ["Heinrich-Dathe-Platz 1", "10319 Berlin", "Deutschland"]}, "categories": [{"id": "5745c2e4498e11e7bccabdbd", "name": "Drugstore", "pluralName": "Drugstores", "shortName": "Drugstore", "icon": {"prefix": "https://ss3.4sqi.net/img/categories_v2/shops/pharmacy_", "suffix": ".png"}, "primary": true}], "photos": {"count": 0, "groups": []}, "venuePage": {"id": "450281413"}}, "referralId": "e-0-55574e98498e52b9d9dea9ae-4"}, {"reasons": {"count": 0, "items": [{"summary": "This spot is popular", "type": "general", "reasonName": "globalInteractionReason"}]}, "venue": {"id": "4ca76300931bb60c79b99ce2", "name": "B\u00e4renschaufenster", "location": {"address": "Am Tierpark 125", "lat": 52.497910037971444, "lng": 13.523890972137451, "labeledLatLngs": [{"label": "display", "lat": 52.497910037971444, "lng": 13.523890972137451}], "distance": 858, "postalCode": "10319", "cc": "DE", "city": "Berlin", "state": "Berlin", "country": "Deutschland", "formattedAddress": ["Am Tierpark 125", "10319 Berlin", "Deutschland"]}, "categories": [{"id": "58daa1558bbb0b01f18ec1fd", "name": "Zoo Exhibit", "pluralName": "Zoo Exhibits", "shortName": "Zoo Exhibit", "icon": {"prefix": "https://ss3.4sqi.net/img/categories_v2/arts_entertainment/zoo_", "suffix": ".png"}, "primary": true}], "photos": {"count": 0, "groups": []}}, "referralId": "e-0-4ca76300931bb60c79b99ce2-5"}, {"reasons": {"count": 0, "items": [{"summary": "This spot is popular", "type": "general", "reasonName": "globalInteractionReason"}]}, "venue": {"id": "4bbdfc1a078095216639db91", "name": "Lidl", "location": {"address": "Ontarioseestra\u00dfe 17", "lat": 52.49520011222413, "lng": 13.522696425125105, "labeledLatLngs": [{"label": "display", "lat": 52.49520011222413, "lng": 13.522696425125105}], "distance": 828, "postalCode": "10319", "cc": "DE", "city": "Berlin", "state": "Berlin", "country": "Deutschland", "formattedAddress": ["Ontarioseestra\u00dfe 17", "10319 Berlin", "Deutschland"]}, "categories": [{"id": "52f2ab2ebcbc57f1066b8b46", "name": "Supermarket", "pluralName": "Supermarkets", "shortName": "Supermarket", "icon": {"prefix": "https://ss3.4sqi.net/img/categories_v2/shops/food_grocery_", "suffix": ".png"}, "primary": true}], "photos": {"count": 0, "groups": []}, "venuePage": {"id": "573770096"}}, "referralId": "e-0-4bbdfc1a078095216639db91-6"}, {"reasons": {"count": 0, "items": [{"summary": "This spot is popular", "type": "general", "reasonName": "globalInteractionReason"}]}, "venue": {"id": "4c52d45bf31a9c7411c685ea", "name": "REWE", "location": {"address": "Volkradstra\u00dfe 32", "lat": 52.49966833004774, "lng": 13.507872929162772, "labeledLatLngs": [{"label": "display", "lat": 52.49966833004774, "lng": 13.507872929162772}], "distance": 309, "postalCode": "10319", "cc": "DE", "city": "Berlin", "state": "Berlin", "country": "Deutschland", "formattedAddress": ["Volkradstra\u00dfe 32", "10319 Berlin", "Deutschland"]}, "categories": [{"id": "52f2ab2ebcbc57f1066b8b46", "name": "Supermarket", "pluralName": "Supermarkets", "shortName": "Supermarket", "icon": {"prefix": "https://ss3.4sqi.net/img/categories_v2/shops/food_grocery_", "suffix": ".png"}, "primary": true}], "photos": {"count": 0, "groups": []}, "venuePage": {"id": "557862933"}}, "referralId": "e-0-4c52d45bf31a9c7411c685ea-7"}, {"reasons": {"count": 0, "items": [{"summary": "This spot is popular", "type": "general", "reasonName": "globalInteractionReason"}]}, "venue": {"id": "54a2eb9a498e9cfaa4184321", "name": "REWE", "location": {"address": "Am Tierpark 68", "lat": 52.498280872186726, "lng": 13.521579037563242, "labeledLatLngs": [{"label": "display", "lat": 52.498280872186726, "lng": 13.521579037563242}], "distance": 704, "postalCode": "10319", "cc": "DE", "city": "Berlin", "state": "Berlin", "country": "Deutschland", "formattedAddress": ["Am Tierpark 68", "10319 Berlin", "Deutschland"]}, "categories": [{"id": "52f2ab2ebcbc57f1066b8b46", "name": "Supermarket", "pluralName": "Supermarkets", "shortName": "Supermarket", "icon": {"prefix": "https://ss3.4sqi.net/img/categories_v2/shops/food_grocery_", "suffix": ".png"}, "primary": true}], "photos": {"count": 0, "groups": []}, "venuePage": {"id": "577518680"}}, "referralId": "e-0-54a2eb9a498e9cfaa4184321-8"}, {"reasons": {"count": 0, "items": [{"summary": "This spot is popular", "type": "general", "reasonName": "globalInteractionReason"}]}, "venue": {"id": "4e08ae5c1f6e211033942a68", "name": "Rossmann", "location": {"address": "Otto-Schmirgal-Stra\u00dfe 1", "lat": 52.4977213416787, "lng": 13.521528991078947, "labeledLatLngs": [{"label": "display", "lat": 52.4977213416787, "lng": 13.521528991078947}], "distance": 698, "postalCode": "10319", "cc": "DE", "city": "Berlin", "state": "Berlin", "country": "Deutschland", "formattedAddress": ["Otto-Schmirgal-Stra\u00dfe 1", "10319 Berlin", "Deutschland"]}, "categories": [{"id": "5745c2e4498e11e7bccabdbd", "name": "Drugstore", "pluralName": "Drugstores", "shortName": "Drugstore", "icon": {"prefix": "https://ss3.4sqi.net/img/categories_v2/shops/pharmacy_", "suffix": ".png"}, "primary": true}], "photos": {"count": 0, "groups": []}}, "referralId": "e-0-4e08ae5c1f6e211033942a68-9"}, {"reasons": {"count": 0, "items": [{"summary": "This spot is popular", "type": "general", "reasonName": "globalInteractionReason"}]}, "venue": {"id": "503fbd0c7e2752ec471b57c8", "name": "Rossmann", "location": {"address": "Alfred-Kowalke-Stra\u00dfe 2-4", "lat": 52.5047165637255, "lng": 13.5155213140671, "labeledLatLngs": [{"label": "display", "lat": 52.5047165637255, "lng": 13.5155213140671}], "distance": 825, "postalCode": "10315", "cc": "DE", "city": "Berlin", "state": "Berlin", "country": "Deutschland", "formattedAddress": ["Alfred-Kowalke-Stra\u00dfe 2-4", "10315 Berlin", "Deutschland"]}, "categories": [{"id": "5745c2e4498e11e7bccabdbd", "name": "Drugstore", "pluralName": "Drugstores", "shortName": "Drugstore", "icon": {"prefix": "https://ss3.4sqi.net/img/categories_v2/shops/pharmacy_", "suffix": ".png"}, "primary": true}], "photos": {"count": 0, "groups": []}}, "referralId": "e-0-503fbd0c7e2752ec471b57c8-10"}, {"reasons": {"count": 0, "items": [{"summary": "This spot is popular", "type": "general", "reasonName": "globalInteractionReason"}]}, "venue": {"id": "4dc5d3dc45dd2645527bbc7e", "name": "Bus Sewanstr./Dolgenseestr. [296,396,N50]", "location": {"address": "Sewanstra\u00dfe 174", "lat": 52.49631963094566, "lng": 13.509820617556842, "labeledLatLngs": [{"label": "display", "lat": 52.49631963094566, "lng": 13.509820617556842}], "distance": 188, "postalCode": "10319", "cc": "DE", "city": "Berlin", "state": "Berlin", "country": "Deutschland", "formattedAddress": ["Sewanstra\u00dfe 174", "10319 Berlin", "Deutschland"]}, "categories": [{"id": "52f2ab2ebcbc57f1066b8b4f", "name": "Bus Stop", "pluralName": "Bus Stops", "shortName": "Bus Stop", "icon": {"prefix": "https://ss3.4sqi.net/img/categories_v2/travel/busstation_", "suffix": ".png"}, "primary": true}], "photos": {"count": 0, "groups": []}}, "referralId": "e-0-4dc5d3dc45dd2645527bbc7e-11"}, {"reasons": {"count": 0, "items": [{"summary": "This spot is popular", "type": "general", "reasonName": "globalInteractionReason"}]}, "venue": {"id": "4b1a89f8f964a520dceb23e3", "name": "Kaufland", "location": {"address": "Sewanstr. 4, 6", "crossStreet": "Rummelsburger Str.", "lat": 52.49968634202692, "lng": 13.49704247578207, "labeledLatLngs": [{"label": "display", "lat": 52.49968634202692, "lng": 13.49704247578207}], "distance": 984, "postalCode": "10319", "cc": "DE", "city": "Berlin", "state": "Berlin", "country": "Deutschland", "formattedAddress": ["Sewanstr. 4, 6 (Rummelsburger Str.)", "10319 Berlin", "Deutschland"]}, "categories": [{"id": "52f2ab2ebcbc57f1066b8b42", "name": "Big Box Store", "pluralName": "Big Box Stores", "shortName": "Big Box Store", "icon": {"prefix": "https://ss3.4sqi.net/img/categories_v2/shops/default_", "suffix": ".png"}, "primary": true}], "photos": {"count": 0, "groups": []}, "venuePage": {"id": "454565087"}}, "referralId": "e-0-4b1a89f8f964a520dceb23e3-12"}, {"reasons": {"count": 0, "items": [{"summary": "This spot is popular", "type": "general", "reasonName": "globalInteractionReason"}]}, "venue": {"id": "4c55221f5b839521b4b7df31", "name": "Am Kraatz-Tr\u00e4nke-Graben", "location": {"address": "Agnes-Kraus-Weg", "lat": 52.49997397893388, "lng": 13.504064083099365, "labeledLatLngs": [{"label": "display", "lat": 52.49997397893388, "lng": 13.504064083099365}], "distance": 543, "postalCode": "10319", "cc": "DE", "city": "Berlin", "state": "Berlin", "country": "Deutschland", "formattedAddress": ["Agnes-Kraus-Weg", "10319 Berlin", "Deutschland"]}, "categories": [{"id": "4bf58dd8d48988d163941735", "name": "Park", "pluralName": "Parks", "shortName": "Park", "icon": {"prefix": "https://ss3.4sqi.net/img/categories_v2/parks_outdoors/park_", "suffix": ".png"}, "primary": true}], "photos": {"count": 0, "groups": []}}, "referralId": "e-0-4c55221f5b839521b4b7df31-13"}, {"reasons": {"count": 0, "items": [{"summary": "This spot is popular", "type": "general", "reasonName": "globalInteractionReason"}]}, "venue": {"id": "4d7659f5ec646dcb0003fa10", "name": "Netto Filiale", "location": {"address": "Sewanstr. 44", "lat": 52.49751976, "lng": 13.50301545, "labeledLatLngs": [{"label": "display", "lat": 52.49751976, "lng": 13.50301545}], "distance": 556, "postalCode": "10319", "cc": "DE", "city": "Berlin", "state": "Berlin", "country": "Deutschland", "formattedAddress": ["Sewanstr. 44", "10319 Berlin", "Deutschland"]}, "categories": [{"id": "52f2ab2ebcbc57f1066b8b46", "name": "Supermarket", "pluralName": "Supermarkets", "shortName": "Supermarket", "icon": {"prefix": "https://ss3.4sqi.net/img/categories_v2/shops/food_grocery_", "suffix": ".png"}, "primary": true}], "photos": {"count": 0, "groups": []}, "venuePage": {"id": "538529477"}}, "referralId": "e-0-4d7659f5ec646dcb0003fa10-14"}, {"reasons": {"count": 0, "items": [{"summary": "This spot is popular", "type": "general", "reasonName": "globalInteractionReason"}]}, "venue": {"id": "4adcda6ff964a520d64421e3", "name": "ABACUS Tierpark Hotel", "location": {"address": "Franz-Mett-Stra\u00dfe 3 -9", "lat": 52.502148, "lng": 13.518727, "labeledLatLngs": [{"label": "display", "lat": 52.502148, "lng": 13.518727}], "distance": 703, "postalCode": "10319", "cc": "DE", "neighborhood": "Alt-Friedrichsfelde", "city": "Berlin", "state": "Berlin", "country": "Deutschland", "formattedAddress": ["Franz-Mett-Stra\u00dfe 3 -9", "10319 Berlin", "Deutschland"]}, "categories": [{"id": "4bf58dd8d48988d1fa931735", "name": "Hotel", "pluralName": "Hotels", "shortName": "Hotel", "icon": {"prefix": "https://ss3.4sqi.net/img/categories_v2/travel/hotel_", "suffix": ".png"}, "primary": true}], "photos": {"count": 0, "groups": []}}, "referralId": "e-0-4adcda6ff964a520d64421e3-15"}, {"reasons": {"count": 0, "items": [{"summary": "This spot is popular", "type": "general", "reasonName": "globalInteractionReason"}]}, "venue": {"id": "4ed50b1029c2bbe66182984f", "name": "Jufuhaus Berlin", "location": {"address": "Sewanstra\u00dfe 43", "lat": 52.498515140536846, "lng": 13.502365122176217, "labeledLatLngs": [{"label": "display", "lat": 52.498515140536846, "lng": 13.502365122176217}], "distance": 605, "cc": "DE", "city": "Berlin", "state": "Berlin", "country": "Deutschland", "formattedAddress": ["Sewanstra\u00dfe 43", "Berlin", "Deutschland"]}, "categories": [{"id": "4bf58dd8d48988d171941735", "name": "Event Space", "pluralName": "Event Spaces", "shortName": "Event Space", "icon": {"prefix": "https://ss3.4sqi.net/img/categories_v2/building/eventspace_", "suffix": ".png"}, "primary": true}], "photos": {"count": 0, "groups": []}}, "referralId": "e-0-4ed50b1029c2bbe66182984f-16"}, {"reasons": {"count": 0, "items": [{"summary": "This spot is popular", "type": "general", "reasonName": "globalInteractionReason"}]}, "venue": {"id": "506bf366e4b088a79dee7043", "name": "FIT T9", "location": {"address": "Otto-Schmirgal-Str. 7", "lat": 52.49714700314547, "lng": 13.520381419840596, "labeledLatLngs": [{"label": "display", "lat": 52.49714700314547, "lng": 13.520381419840596}], "distance": 624, "postalCode": "10319", "cc": "DE", "city": "Berlin", "state": "Berlin", "country": "Deutschland", "formattedAddress": ["Otto-Schmirgal-Str. 7", "10319 Berlin", "Deutschland"]}, "categories": [{"id": "4bf58dd8d48988d175941735", "name": "Gym / Fitness Center", "pluralName": "Gyms or Fitness Centers", "shortName": "Gym / Fitness", "icon": {"prefix": "https://ss3.4sqi.net/img/categories_v2/building/gym_", "suffix": ".png"}, "primary": true}], "photos": {"count": 0, "groups": []}}, "referralId": "e-0-506bf366e4b088a79dee7043-17"}, {"reasons": {"count": 0, "items": [{"summary": "This spot is popular", "type": "general", "reasonName": "globalInteractionReason"}]}, "venue": {"id": "4bb4c3606ebfc9b65553edfa", "name": "ALDI NORD", "location": {"address": "Sewanstr. 2", "lat": 52.49574796629651, "lng": 13.51980706778055, "labeledLatLngs": [{"label": "display", "lat": 52.49574796629651, "lng": 13.51980706778055}], "distance": 624, "postalCode": "10319", "cc": "DE", "city": "Berlin", "state": "Berlin", "country": "Deutschland", "formattedAddress": ["Sewanstr. 2", "10319 Berlin", "Deutschland"]}, "categories": [{"id": "52f2ab2ebcbc57f1066b8b46", "name": "Supermarket", "pluralName": "Supermarkets", "shortName": "Supermarket", "icon": {"prefix": "https://ss3.4sqi.net/img/categories_v2/shops/food_grocery_", "suffix": ".png"}, "primary": true}], "photos": {"count": 0, "groups": []}}, "referralId": "e-0-4bb4c3606ebfc9b65553edfa-18"}, {"reasons": {"count": 0, "items": [{"summary": "This spot is popular", "type": "general", "reasonName": "globalInteractionReason"}]}, "venue": {"id": "4ccfe70d6449a093562bc7cf", "name": "Kaiser's", "location": {"address": "Dolgenseestr. 11", "lat": 52.4933339984942, "lng": 13.505131138955615, "labeledLatLngs": [{"label": "display", "lat": 52.4933339984942, "lng": 13.505131138955615}], "distance": 644, "postalCode": "10319", "cc": "DE", "city": "Berlin", "state": "Berlin", "country": "Deutschland", "formattedAddress": ["Dolgenseestr. 11", "10319 Berlin", "Deutschland"]}, "categories": [{"id": "52f2ab2ebcbc57f1066b8b46", "name": "Supermarket", "pluralName": "Supermarkets", "shortName": "Supermarket", "icon": {"prefix": "https://ss3.4sqi.net/img/categories_v2/shops/food_grocery_", "suffix": ".png"}, "primary": true}], "photos": {"count": 0, "groups": []}}, "referralId": "e-0-4ccfe70d6449a093562bc7cf-19"}, {"reasons": {"count": 0, "items": [{"summary": "This spot is popular", "type": "general", "reasonName": "globalInteractionReason"}]}, "venue": {"id": "4d5cf24e775f8cfaa0d3bbe0", "name": "TierparkCenter", "location": {"address": "Otto-Schmirgal-Str. 5", "lat": 52.49730912555673, "lng": 13.521240949630737, "labeledLatLngs": [{"label": "display", "lat": 52.49730912555673, "lng": 13.521240949630737}], "distance": 680, "postalCode": "10319", "cc": "DE", "city": "Berlin", "state": "Berlin", "country": "Deutschland", "formattedAddress": ["Otto-Schmirgal-Str. 5", "10319 Berlin", "Deutschland"]}, "categories": [{"id": "4bf58dd8d48988d1fd941735", "name": "Shopping Mall", "pluralName": "Shopping Malls", "shortName": "Mall", "icon": {"prefix": "https://ss3.4sqi.net/img/categories_v2/shops/mall_", "suffix": ".png"}, "primary": true}], "photos": {"count": 0, "groups": []}}, "referralId": "e-0-4d5cf24e775f8cfaa0d3bbe0-20"}, {"reasons": {"count": 0, "items": [{"summary": "This spot is popular", "type": "general", "reasonName": "globalInteractionReason"}]}, "venue": {"id": "57c7f634498ecc3fd62f062d", "name": "Markt am Tierpark-Center", "location": {"address": "Heinrich-Dathe-Platz", "lat": 52.497795, "lng": 13.521409, "labeledLatLngs": [{"label": "display", "lat": 52.497795, "lng": 13.521409}], "distance": 690, "postalCode": "10319", "cc": "DE", "city": "Berlin", "state": "Berlin", "country": "Deutschland", "formattedAddress": ["Heinrich-Dathe-Platz", "10319 Berlin", "Deutschland"]}, "categories": [{"id": "50be8ee891d4fa8dcc7199a7", "name": "Market", "pluralName": "Markets", "shortName": "Market", "icon": {"prefix": "https://ss3.4sqi.net/img/categories_v2/shops/market_", "suffix": ".png"}, "primary": true}], "photos": {"count": 0, "groups": []}}, "referralId": "e-0-57c7f634498ecc3fd62f062d-21"}, {"reasons": {"count": 0, "items": [{"summary": "This spot is popular", "type": "general", "reasonName": "globalInteractionReason"}]}, "venue": {"id": "4fcd1baee4b096bc2c88dcd0", "name": "Gastst\u00e4tte Zum B\u00e4ren", "location": {"address": "Am Tierpark 66", "lat": 52.49861575496647, "lng": 13.52141256493563, "labeledLatLngs": [{"label": "display", "lat": 52.49861575496647, "lng": 13.52141256493563}], "distance": 696, "cc": "DE", "city": "Berlin", "state": "Berlin", "country": "Deutschland", "formattedAddress": ["Am Tierpark 66", "Berlin", "Deutschland"]}, "categories": [{"id": "4bf58dd8d48988d155941735", "name": "Gastropub", "pluralName": "Gastropubs", "shortName": "Gastropub", "icon": {"prefix": "https://ss3.4sqi.net/img/categories_v2/food/gastropub_", "suffix": ".png"}, "primary": true}], "photos": {"count": 0, "groups": []}}, "referralId": "e-0-4fcd1baee4b096bc2c88dcd0-22"}, {"reasons": {"count": 0, "items": [{"summary": "This spot is popular", "type": "general", "reasonName": "globalInteractionReason"}]}, "venue": {"id": "56ad1edc498e2043f4e26810", "name": "ABACUS Tierpark Restaurant", "location": {"address": "Franz-Mett-Str. 3-9", "lat": 52.50049907300477, "lng": 13.520961420814327, "labeledLatLngs": [{"label": "display", "lat": 52.50049907300477, "lng": 13.520961420814327}], "distance": 726, "postalCode": "10319", "cc": "DE", "city": "Berlin", "state": "Berlin", "country": "Deutschland", "formattedAddress": ["Franz-Mett-Str. 3-9", "10319 Berlin", "Deutschland"]}, "categories": [{"id": "4bf58dd8d48988d1c4941735", "name": "Restaurant", "pluralName": "Restaurants", "shortName": "Restaurant", "icon": {"prefix": "https://ss3.4sqi.net/img/categories_v2/food/default_", "suffix": ".png"}, "primary": true}], "photos": {"count": 0, "groups": []}}, "referralId": "e-0-56ad1edc498e2043f4e26810-23"}, {"reasons": {"count": 0, "items": [{"summary": "This spot is popular", "type": "general", "reasonName": "globalInteractionReason"}]}, "venue": {"id": "4d6e46668df154811d307c23", "name": "Netto Marken-Discount", "location": {"address": "Otto-Schmirgal-Str. 3", "lat": 52.49752147, "lng": 13.52196379, "labeledLatLngs": [{"label": "display", "lat": 52.49752147, "lng": 13.52196379}], "distance": 728, "postalCode": "10319", "cc": "DE", "city": "Berlin", "state": "Berlin", "country": "Deutschland", "formattedAddress": ["Otto-Schmirgal-Str. 3", "10319 Friedrichsfelde", "Deutschland"]}, "categories": [{"id": "52f2ab2ebcbc57f1066b8b46", "name": "Supermarket", "pluralName": "Supermarkets", "shortName": "Supermarket", "icon": {"prefix": "https://ss3.4sqi.net/img/categories_v2/shops/food_grocery_", "suffix": ".png"}, "primary": true}], "photos": {"count": 0, "groups": []}}, "referralId": "e-0-4d6e46668df154811d307c23-24"}, {"reasons": {"count": 0, "items": [{"summary": "This spot is popular", "type": "general", "reasonName": "globalInteractionReason"}]}, "venue": {"id": "4d640403dbeb224b0b28a645", "name": "o2 Partner Shop Berlin 15", "location": {"address": "Otto-Schmirgal-Str. 1-7", "lat": 52.49742506310226, "lng": 13.5221529006958, "labeledLatLngs": [{"label": "display", "lat": 52.49742506310226, "lng": 13.5221529006958}], "distance": 741, "postalCode": "10319", "cc": "DE", "city": "Berlin", "state": "Berlin", "country": "Deutschland", "formattedAddress": ["Otto-Schmirgal-Str. 1-7", "10319 Berlin", "Deutschland"]}, "categories": [{"id": "4f04afc02fb6e1c99f3db0bc", "name": "Mobile Phone Shop", "pluralName": "Mobile Phone Shops", "shortName": "Mobile Phones", "icon": {"prefix": "https://ss3.4sqi.net/img/categories_v2/shops/mobilephoneshop_", "suffix": ".png"}, "primary": true}], "photos": {"count": 0, "groups": []}}, "referralId": "e-0-4d640403dbeb224b0b28a645-25"}, {"reasons": {"count": 0, "items": [{"summary": "This spot is popular", "type": "general", "reasonName": "globalInteractionReason"}]}, "venue": {"id": "4f9c0270e4b020e60f6450e7", "name": "SV Bau-Union", "location": {"lat": 52.49602854527168, "lng": 13.499891972909655, "labeledLatLngs": [{"label": "display", "lat": 52.49602854527168, "lng": 13.499891972909655}], "distance": 792, "cc": "DE", "city": "Berlin", "state": "Berlin", "country": "Deutschland", "formattedAddress": ["Berlin", "Deutschland"]}, "categories": [{"id": "4cce455aebf7b749d5e191f5", "name": "Soccer Field", "pluralName": "Soccer Fields", "shortName": "Soccer Field", "icon": {"prefix": "https://ss3.4sqi.net/img/categories_v2/arts_entertainment/stadium_soccer_", "suffix": ".png"}, "primary": true}], "photos": {"count": 0, "groups": []}}, "referralId": "e-0-4f9c0270e4b020e60f6450e7-26"}, {"reasons": {"count": 0, "items": [{"summary": "This spot is popular", "type": "general", "reasonName": "globalInteractionReason"}]}, "venue": {"id": "4b309da8f964a52076fa24e3", "name": "U Tierpark", "location": {"address": "Am Tierpark", "crossStreet": "Otto-Schmirgal-Str.", "lat": 52.49776634227156, "lng": 13.522989749908447, "labeledLatLngs": [{"label": "display", "lat": 52.49776634227156, "lng": 13.522989749908447}], "distance": 797, "postalCode": "10319", "cc": "DE", "city": "Berlin", "state": "Berlin", "country": "Deutschland", "formattedAddress": ["Am Tierpark (Otto-Schmirgal-Str.)", "10319 Berlin", "Deutschland"]}, "categories": [{"id": "4bf58dd8d48988d1fd931735", "name": "Metro Station", "pluralName": "Metro Stations", "shortName": "Metro", "icon": {"prefix": "https://ss3.4sqi.net/img/categories_v2/travel/subway_", "suffix": ".png"}, "primary": true}], "photos": {"count": 0, "groups": []}}, "referralId": "e-0-4b309da8f964a52076fa24e3-27"}, {"reasons": {"count": 0, "items": [{"summary": "This spot is popular", "type": "general", "reasonName": "globalInteractionReason"}]}, "venue": {"id": "517502dbe4b019428fc44235", "name": "Caf\u00e9 Crusty", "location": {"address": "Am Tierpark 74", "lat": 52.496943808481035, "lng": 13.522982423513913, "labeledLatLngs": [{"label": "display", "lat": 52.496943808481035, "lng": 13.522982423513913}], "distance": 802, "postalCode": "10315", "cc": "DE", "city": "Berlin", "state": "Berlin", "country": "Deutschland", "formattedAddress": ["Am Tierpark 74", "10315 Berlin", "Deutschland"]}, "categories": [{"id": "4bf58dd8d48988d1e0931735", "name": "Coffee Shop", "pluralName": "Coffee Shops", "shortName": "Coffee Shop", "icon": {"prefix": "https://ss3.4sqi.net/img/categories_v2/food/coffeeshop_", "suffix": ".png"}, "primary": true}], "photos": {"count": 0, "groups": []}}, "referralId": "e-0-517502dbe4b019428fc44235-28"}, {"reasons": {"count": 0, "items": [{"summary": "This spot is popular", "type": "general", "reasonName": "globalInteractionReason"}]}, "venue": {"id": "4f128064e4b0d3f8a6943054", "name": "H Criegernweg", "location": {"address": "Am Tierpark", "crossStreet": "Criegernweg", "lat": 52.501231835847264, "lng": 13.522350775228796, "labeledLatLngs": [{"label": "display", "lat": 52.501231835847264, "lng": 13.522350775228796}], "distance": 846, "postalCode": "10319", "cc": "DE", "city": "Berlin", "state": "Berlin", "country": "Deutschland", "formattedAddress": ["Am Tierpark (Criegernweg)", "10319 Berlin", "Deutschland"]}, "categories": [{"id": "52f2ab2ebcbc57f1066b8b51", "name": "Tram Station", "pluralName": "Tram Stations", "shortName": "Tram", "icon": {"prefix": "https://ss3.4sqi.net/img/categories_v2/travel/trainstation_", "suffix": ".png"}, "primary": true}], "photos": {"count": 0, "groups": []}}, "referralId": "e-0-4f128064e4b0d3f8a6943054-29"}, {"reasons": {"count": 0, "items": [{"summary": "This spot is popular", "type": "general", "reasonName": "globalInteractionReason"}]}, "venue": {"id": "4d984c2d647d8cfab78aeb3d", "name": "Silvias Bar", "location": {"address": "Alfred-Kowalke-Stra\u00dfe 2-4", "lat": 52.50548302185948, "lng": 13.514945888645444, "labeledLatLngs": [{"label": "display", "lat": 52.50548302185948, "lng": 13.514945888645444}], "distance": 893, "postalCode": "10315", "cc": "DE", "city": "Berlin", "state": "Berlin", "country": "Deutschland", "formattedAddress": ["Alfred-Kowalke-Stra\u00dfe 2-4", "10315 Berlin", "Deutschland"]}, "categories": [{"id": "4bf58dd8d48988d155941735", "name": "Gastropub", "pluralName": "Gastropubs", "shortName": "Gastropub", "icon": {"prefix": "https://ss3.4sqi.net/img/categories_v2/food/gastropub_", "suffix": ".png"}, "primary": true}], "photos": {"count": 0, "groups": []}}, "referralId": "e-0-4d984c2d647d8cfab78aeb3d-30"}, {"reasons": {"count": 0, "items": [{"summary": "This spot is popular", "type": "general", "reasonName": "globalInteractionReason"}]}, "venue": {"id": "5901a1e7446ea6092964e713", "name": "S3", "location": {"lat": 52.489374, "lng": 13.509808, "labeledLatLngs": [{"label": "display", "lat": 52.489374, "lng": 13.509808}], "distance": 940, "cc": "DE", "city": "Berlin", "state": "Berlin", "country": "Deutschland", "formattedAddress": ["Berlin", "Deutschland"]}, "categories": [{"id": "4bf58dd8d48988d1fc931735", "name": "Light Rail Station", "pluralName": "Light Rail Stations", "shortName": "Light Rail", "icon": {"prefix": "https://ss3.4sqi.net/img/categories_v2/travel/lightrail_", "suffix": ".png"}, "primary": true}], "photos": {"count": 0, "groups": []}}, "referralId": "e-0-5901a1e7446ea6092964e713-31"}, {"reasons": {"count": 0, "items": [{"summary": "This spot is popular", "type": "general", "reasonName": "globalInteractionReason"}]}, "venue": {"id": "4b648b51f964a5205abc2ae3", "name": "S Betriebsbahnhof Rummelsburg", "location": {"address": "H\u00f6nower Weg 2", "lat": 52.493544042147704, "lng": 13.498595608561363, "labeledLatLngs": [{"label": "display", "lat": 52.493544042147704, "lng": 13.498595608561363}], "distance": 977, "postalCode": "10319", "cc": "DE", "city": "Berlin", "state": "Berlin", "country": "Deutschland", "formattedAddress": ["H\u00f6nower Weg 2", "10319 Berlin", "Deutschland"]}, "categories": [{"id": "4bf58dd8d48988d1fc931735", "name": "Light Rail Station", "pluralName": "Light Rail Stations", "shortName": "Light Rail", "icon": {"prefix": "https://ss3.4sqi.net/img/categories_v2/travel/lightrail_", "suffix": ".png"}, "primary": true}], "photos": {"count": 0, "groups": []}}, "referralId": "e-0-4b648b51f964a5205abc2ae3-32"}]