[{"reasons": {"count": 0, "items": [{"summary": "This spot is popular", "type": "general", "reasonName": "globalInteractionReason"}]}, "venue": {"id": "4adcda82f964a5208a4821e3", "name": "Milit\u00e4rhistorisches Museum der Bundeswehr", "location": {"address": "Am Flugplatz Gatow 33", "lat": 52.472649524990324, "lng": 13.13866210494488, "labeledLatLngs": [{"label": "display", "lat": 52.472649524990324, "lng": 13.13866210494488}], "distance": 904, "postalCode": "14089", "cc": "DE", "city": "Berlin", "state": "Berlin", "country": "Deutschland", "formattedAddress": ["Am Flugplatz Gatow 33", "14089 Berlin", "Deutschland"]}, "categories": [{"id": "4bf58dd8d48988d190941735", "name": "History Museum", "pluralName": "History Museums", "shortName": "History Museum", "icon": {"prefix": "https://ss3.4sqi.net/img/categories_v2/arts_entertainment/museum_history_", "suffix": ".png"}, "primary": true}], "photos": {"count": 0, "groups": []}}, "referralId": "e-0-4adcda82f964a5208a4821e3-0"}, {"reasons": {"count": 0, "items": [{"summary": "This spot is popular", "type": "general", "reasonName": "globalInteractionReason"}]}, "venue": {"id": "4c49c87f3013a593c0d736e3", "name": "Berliner Golf Club Gatow e.V.", "location": {"address": "Sparnecker Weg 100", "lat": 52.46808895945038, "lng": 13.142145279715454, "labeledLatLngs": [{"label": "display", "lat": 52.46808895945038, "lng": 13.142145279715454}], "distance": 710, "postalCode": "14089", "cc": "DE", "city": "Berlin", "state": "Berlin", "country": "Deutschland", "formattedAddress": ["Sparnecker Weg 100", "14089 Berlin", "Deutschland"]}, "categories": [{"id": "4bf58dd8d48988d1e6941735", "name": "Golf Course", "pluralName": "Golf Courses", "shortName": "Golf Course", "icon": {"prefix": "https://ss3.4sqi.net/img/categories_v2/parks_outdoors/golfcourse_", "suffix": ".png"}, "primary": true}], "photos": {"count": 0, "groups": []}}, "referralId": "e-0-4c49c87f3013a593c0d736e3-1"}, {"reasons": {"count": 0, "items": [{"summary": "This spot is popular", "type": "general", "reasonName": "globalInteractionReason"}]}, "venue": {"id": "4de1e9ba1f6e3190cd0463d7", "name": "Flugplatz Gatow", "location": {"address": "Am Flugplatz Gatow", "lat": 52.47235094645794, "lng": 13.138446807861328, "labeledLatLngs": [{"label": "display", "lat": 52.47235094645794, "lng": 13.138446807861328}], "distance": 911, "postalCode": "14089", "cc": "DE", "city": "Berlin", "state": "Berlin", "country": "Deutschland", "formattedAddress": ["Am Flugplatz Gatow", "14089 Berlin", "Deutschland"]}, "categories": [{"id": "4deefb944765f83613cdba6e", "name": "Historic Site", "pluralName": "Historic Sites", "shortName": "Historic Site", "icon": {"prefix": "https://ss3.4sqi.net/img/categories_v2/arts_entertainment/historicsite_", "suffix": ".png"}, "primary": true}], "photos": {"count": 0, "groups": []}}, "referralId": "e-0-4de1e9ba1f6e3190cd0463d7-2"}, {"reasons": {"count": 0, "items": [{"summary": "This spot is popular", "type": "general", "reasonName": "globalInteractionReason"}]}, "venue": {"id": "50cf5047e4b0f2cbe682dbd3", "name": "H General-Steinhoff-Kaserne", "location": {"address": "Kladower Damm", "lat": 52.46567473271762, "lng": 13.16335878115881, "labeledLatLngs": [{"label": "display", "lat": 52.46567473271762, "lng": 13.16335878115881}], "distance": 977, "postalCode": "14089", "cc": "DE", "city": "Berlin", "state": "Berlin", "country": "Deutschland", "formattedAddress": ["Kladower Damm", "14089 Berlin", "Deutschland"]}, "categories": [{"id": "52f2ab2ebcbc57f1066b8b4f", "name": "Bus Stop", "pluralName": "Bus Stops", "shortName": "Bus Stop", "icon": {"prefix": "https://ss3.4sqi.net/img/categories_v2/travel/busstation_", "suffix": ".png"}, "primary": true}], "photos": {"count": 0, "groups": []}}, "referralId": "e-0-50cf5047e4b0f2cbe682dbd3-3"}]