[{"reasons": {"count": 0, "items": [{"summary": "This spot is popular", "type": "general", "reasonName": "globalInteractionReason"}]}, "venue": {"id": "4bd2a653caff95215049d3f0", "name": "Regattastrecke Gr\u00fcnau", "location": {"address": "Regattastr.", "lat": 52.413074130833635, "lng": 13.588950634002684, "labeledLatLngs": [{"label": "display", "lat": 52.413074130833635, "lng": 13.588950634002684}], "distance": 959, "postalCode": "12527", "cc": "DE", "city": "Berlin", "state": "Berlin", "country": "Deutschland", "formattedAddress": ["Regattastr.", "12527 Berlin", "Deutschland"]}, "categories": [{"id": "4eb1d4dd4b900d56c88a45fd", "name": "River", "pluralName": "Rivers", "shortName": "River", "icon": {"prefix": "https://ss3.4sqi.net/img/categories_v2/parks_outdoors/river_", "suffix": ".png"}, "primary": true}], "photos": {"count": 0, "groups": []}}, "referralId": "e-0-4bd2a653caff95215049d3f0-0"}, {"reasons": {"count": 0, "items": [{"summary": "This spot is popular", "type": "general", "reasonName": "globalInteractionReason"}]}, "venue": {"id": "4c3996dc1e06d13a33de793e", "name": "Strandbad Gr\u00fcnau", "location": {"address": "Sportpromenade 9", "lat": 52.40882019075368, "lng": 13.606771230697632, "labeledLatLngs": [{"label": "display", "lat": 52.40882019075368, "lng": 13.606771230697632}], "distance": 835, "postalCode": "12527", "cc": "DE", "city": "Berlin", "state": "B", "country": "Deutschland", "formattedAddress": ["Sportpromenade 9", "12527 Berlin", "Deutschland"]}, "categories": [{"id": "4bf58dd8d48988d1e2941735", "name": "Beach", "pluralName": "Beaches", "shortName": "Beach", "icon": {"prefix": "https://ss3.4sqi.net/img/categories_v2/parks_outdoors/beach_", "suffix": ".png"}, "primary": true}], "photos": {"count": 0, "groups": []}}, "referralId": "e-0-4c3996dc1e06d13a33de793e-1"}, {"reasons": {"count": 0, "items": [{"summary": "This spot is popular", "type": "general", "reasonName": "globalInteractionReason"}]}, "venue": {"id": "4adcda72f964a520204521e3", "name": "Gr\u00fcnau Hotel", "location": {"address": "Kablower Weg 87", "lat": 52.40306509840518, "lng": 13.585884245593931, "labeledLatLngs": [{"label": "display", "lat": 52.40306509840518, "lng": 13.585884245593931}], "distance": 721, "postalCode": "12526", "cc": "DE", "city": "Berlin", "state": "Berlin", "country": "Deutschland", "formattedAddress": ["Kablower Weg 87", "12526 Berlin", "Deutschland"]}, "categories": [{"id": "4bf58dd8d48988d1fa931735", "name": "Hotel", "pluralName": "Hotels", "shortName": "Hotel", "icon": {"prefix": "https://ss3.4sqi.net/img/categories_v2/travel/hotel_", "suffix": ".png"}, "primary": true}], "photos": {"count": 0, "groups": []}}, "referralId": "e-0-4adcda72f964a520204521e3-2"}, {"reasons": {"count": 0, "items": [{"summary": "This spot is popular", "type": "general", "reasonName": "globalInteractionReason"}]}, "venue": {"id": "4ed7bf45f7905836c06fcb13", "name": "Dittmanns Drogerie", "location": {"address": "Kablower Weg 87, 12526 Berlin", "lat": 52.40286276936555, "lng": 13.585740552412167, "labeledLatLngs": [{"label": "display", "lat": 52.40286276936555, "lng": 13.585740552412167}], "distance": 739, "postalCode": "12526", "cc": "DE", "city": "Berlin", "state": "Berlin", "country": "Deutschland", "formattedAddress": ["Kablower Weg 87, 12526 Berlin", "12526 Berlin", "Deutschland"]}, "categories": [{"id": "4bf58dd8d48988d1c4941735", "name": "Restaurant", "pluralName": "Restaurants", "shortName": "Restaurant", "icon": {"prefix": "https://ss3.4sqi.net/img/categories_v2/food/default_", "suffix": ".png"}, "primary": true}], "photos": {"count": 0, "groups": []}}, "referralId": "e-0-4ed7bf45f7905836c06fcb13-3"}, {"reasons": {"count": 0, "items": [{"summary": "This spot is popular", "type": "general", "reasonName": "globalInteractionReason"}]}, "venue": {"id": "53f4cc8a498e79fdfef2fbc4", "name": "Dahme", "location": {"lat": 52.412925, "lng": 13.597372, "labeledLatLngs": [{"label": "display", "lat": 52.412925, "lng": 13.597372}], "distance": 833, "cc": "DE", "country": "Deutschland", "formattedAddress": ["Deutschland"]}, "categories": [{"id": "4eb1d4dd4b900d56c88a45fd", "name": "River", "pluralName": "Rivers", "shortName": "River", "icon": {"prefix": "https://ss3.4sqi.net/img/categories_v2/parks_outdoors/river_", "suffix": ".png"}, "primary": true}], "photos": {"count": 0, "groups": []}}, "referralId": "e-0-53f4cc8a498e79fdfef2fbc4-4"}]