[{"reasons": {"count": 0, "items": [{"summary": "This spot is popular", "type": "general", "reasonName": "globalInteractionReason"}]}, "venue": {"id": "526974e0498eefeefd2d49dd", "name": "Tomasa", "location": {"address": "Delbr\u00fcckstr. 37", "lat": 52.483645089962536, "lng": 13.282192266046682, "labeledLatLngs": [{"label": "display", "lat": 52.483645089962536, "lng": 13.282192266046682}], "distance": 412, "postalCode": "14193", "cc": "DE", "city": "Berlin", "state": "Berlin", "country": "Deutschland", "formattedAddress": ["Delbr\u00fcckstr. 37", "14193 Berlin", "Deutschland"]}, "categories": [{"id": "4bf58dd8d48988d16d941735", "name": "Caf\u00e9", "pluralName": "Caf\u00e9s", "shortName": "Caf\u00e9", "icon": {"prefix": "https://ss3.4sqi.net/img/categories_v2/food/cafe_", "suffix": ".png"}, "primary": true}], "photos": {"count": 0, "groups": []}}, "referralId": "e-0-526974e0498eefeefd2d49dd-0"}, {"reasons": {"count": 0, "items": [{"summary": "This spot is popular", "type": "general", "reasonName": "globalInteractionReason"}]}, "venue": {"id": "4c3ca56f933b0f47f75ae421", "name": "La Cascina", "location": {"address": "Delbr\u00fcckstr 28", "lat": 52.48381248198134, "lng": 13.282864331501237, "labeledLatLngs": [{"label": "display", "lat": 52.48381248198134, "lng": 13.282864331501237}], "distance": 438, "postalCode": "14193", "cc": "DE", "city": "Berlin", "state": "Berlin", "country": "Deutschland", "formattedAddress": ["Delbr\u00fcckstr 28", "14193 Berlin", "Deutschland"]}, "categories": [{"id": "4bf58dd8d48988d110941735", "name": "Italian Restaurant", "pluralName": "Italian Restaurants", "shortName": "Italian", "icon": {"prefix": "https://ss3.4sqi.net/img/categories_v2/food/italian_", "suffix": ".png"}, "primary": true}], "photos": {"count": 0, "groups": []}}, "referralId": "e-0-4c3ca56f933b0f47f75ae421-1"}, {"reasons": {"count": 0, "items": [{"summary": "This spot is popular", "type": "general", "reasonName": "globalInteractionReason"}]}, "venue": {"id": "4b7ad99bf964a520c7402fe3", "name": "da YVONNE Trattoria Toscana", "location": {"address": "Hubertusallee 48", "lat": 52.48686826793415, "lng": 13.284675478935242, "labeledLatLngs": [{"label": "display", "lat": 52.48686826793415, "lng": 13.284675478935242}], "distance": 503, "postalCode": "14193", "cc": "DE", "city": "Berlin", "state": "Berlin", "country": "Deutschland", "formattedAddress": ["Hubertusallee 48", "14193 Berlin", "Deutschland"]}, "categories": [{"id": "55a5a1ebe4b013909087cb7f", "name": "Trattoria/Osteria", "pluralName": "Trattorias/Osterias", "shortName": "Trattoria/Osteria", "icon": {"prefix": "https://ss3.4sqi.net/img/categories_v2/food/italian_", "suffix": ".png"}, "primary": true}], "photos": {"count": 0, "groups": []}, "venuePage": {"id": "488171571"}}, "referralId": "e-0-4b7ad99bf964a520c7402fe3-2"}, {"reasons": {"count": 0, "items": [{"summary": "This spot is popular", "type": "general", "reasonName": "globalInteractionReason"}]}, "venue": {"id": "4adcda73f964a520544521e3", "name": "Schlosshotel im Grunewald", "location": {"address": "Brahmsstr. 10", "lat": 52.48019096839007, "lng": 13.274295187243437, "labeledLatLngs": [{"label": "display", "lat": 52.48019096839007, "lng": 13.274295187243437}], "distance": 673, "postalCode": "14193", "cc": "DE", "city": "Berlin", "state": "Berlin", "country": "Deutschland", "formattedAddress": ["Brahmsstr. 10", "14193 Berlin", "Deutschland"]}, "categories": [{"id": "4bf58dd8d48988d1fa931735", "name": "Hotel", "pluralName": "Hotels", "shortName": "Hotel", "icon": {"prefix": "https://ss3.4sqi.net/img/categories_v2/travel/hotel_", "suffix": ".png"}, "primary": true}], "photos": {"count": 0, "groups": []}, "venuePage": {"id": "126526560"}}, "referralId": "e-0-4adcda73f964a520544521e3-3"}, {"reasons": {"count": 0, "items": [{"summary": "This spot is popular", "type": "general", "reasonName": "globalInteractionReason"}]}, "venue": {"id": "4adcda71f964a5200a4521e3", "name": "St.-Michaels-Heim", "location": {"address": "Bismarckallee 23", "lat": 52.48838911790244, "lng": 13.277310728178536, "labeledLatLngs": [{"label": "display", "lat": 52.48838911790244, "lng": 13.277310728178536}], "distance": 273, "postalCode": "14193", "cc": "DE", "city": "Berlin", "state": "Berlin", "country": "Deutschland", "formattedAddress": ["Bismarckallee 23", "14193 Berlin", "Deutschland"]}, "categories": [{"id": "4bf58dd8d48988d1fa931735", "name": "Hotel", "pluralName": "Hotels", "shortName": "Hotel", "icon": {"prefix": "https://ss3.4sqi.net/img/categories_v2/travel/hotel_", "suffix": ".png"}, "primary": true}], "photos": {"count": 0, "groups": []}}, "referralId": "e-0-4adcda71f964a5200a4521e3-4"}, {"reasons": {"count": 0, "items": [{"summary": "This spot is popular", "type": "general", "reasonName": "globalInteractionReason"}]}, "venue": {"id": "56841abb498e4abb4bcdca8d", "name": "Landhaus Grunewald", "location": {"address": "Delbr\u00fcckstr. 37", "crossStreet": "Hubertusallee", "lat": 52.48357081196343, "lng": 13.282352685928345, "labeledLatLngs": [{"label": "display", "lat": 52.48357081196343, "lng": 13.282352685928345}], "distance": 425, "postalCode": "14193", "cc": "DE", "city": "Berlin", "state": "Berlin", "country": "Deutschland", "formattedAddress": ["Delbr\u00fcckstr. 37 (Hubertusallee)", "14193 Berlin", "Deutschland"]}, "categories": [{"id": "4bf58dd8d48988d10d941735", "name": "German Restaurant", "pluralName": "German Restaurants", "shortName": "German", "icon": {"prefix": "https://ss3.4sqi.net/img/categories_v2/food/german_", "suffix": ".png"}, "primary": true}], "photos": {"count": 0, "groups": []}}, "referralId": "e-0-56841abb498e4abb4bcdca8d-5"}, {"reasons": {"count": 0, "items": [{"summary": "This spot is popular", "type": "general", "reasonName": "globalInteractionReason"}]}, "venue": {"id": "4b9cd29cf964a5204d7d36e3", "name": "Wiener Conditorei Caffeehaus", "location": {"address": "Hohenzollerndamm 92", "lat": 52.47763886349294, "lng": 13.282030158893958, "labeledLatLngs": [{"label": "display", "lat": 52.47763886349294, "lng": 13.282030158893958}], "distance": 975, "postalCode": "14199", "cc": "DE", "city": "Berlin", "state": "Berlin", "country": "Deutschland", "formattedAddress": ["Hohenzollerndamm 92", "14199 Berlin", "Deutschland"]}, "categories": [{"id": "4bf58dd8d48988d1d0941735", "name": "Dessert Shop", "pluralName": "Dessert Shops", "shortName": "Desserts", "icon": {"prefix": "https://ss3.4sqi.net/img/categories_v2/food/dessert_", "suffix": ".png"}, "primary": true}], "photos": {"count": 0, "groups": []}}, "referralId": "e-0-4b9cd29cf964a5204d7d36e3-6"}, {"reasons": {"count": 0, "items": [{"summary": "This spot is popular", "type": "general", "reasonName": "globalInteractionReason"}]}, "venue": {"id": "4e7a4b06483ba42a8fe6ae74", "name": "Hagenplatz", "location": {"address": "Koenigsallee", "crossStreet": "Hagenstr.", "lat": 52.48330680715881, "lng": 13.266409635543823, "labeledLatLngs": [{"label": "display", "lat": 52.48330680715881, "lng": 13.266409635543823}], "distance": 801, "postalCode": "14193", "cc": "DE", "city": "Berlin", "state": "Berlin", "country": "Deutschland", "formattedAddress": ["Koenigsallee (Hagenstr.)", "14193 Berlin", "Deutschland"]}, "categories": [{"id": "4bf58dd8d48988d164941735", "name": "Plaza", "pluralName": "Plazas", "shortName": "Plaza", "icon": {"prefix": "https://ss3.4sqi.net/img/categories_v2/parks_outdoors/plaza_", "suffix": ".png"}, "primary": true}], "photos": {"count": 0, "groups": []}}, "referralId": "e-0-4e7a4b06483ba42a8fe6ae74-7"}, {"reasons": {"count": 0, "items": [{"summary": "This spot is popular", "type": "general", "reasonName": "globalInteractionReason"}]}, "venue": {"id": "4c93721c6cfea093ad2dba8b", "name": "Trattoria Don Carlo", "location": {"address": "Elgersburgerstr. 29", "lat": 52.48231265010107, "lng": 13.289507619948278, "labeledLatLngs": [{"label": "display", "lat": 52.48231265010107, "lng": 13.289507619948278}], "distance": 913, "postalCode": "14193", "cc": "DE", "neighborhood": "Schmargendorf", "city": "Berlin", "state": "Berlin", "country": "Deutschland", "formattedAddress": ["Elgersburgerstr. 29", "14193 Berlin", "Deutschland"]}, "categories": [{"id": "55a5a1ebe4b013909087cb7f", "name": "Trattoria/Osteria", "pluralName": "Trattorias/Osterias", "shortName": "Trattoria/Osteria", "icon": {"prefix": "https://ss3.4sqi.net/img/categories_v2/food/italian_", "suffix": ".png"}, "primary": true}], "photos": {"count": 0, "groups": []}}, "referralId": "e-0-4c93721c6cfea093ad2dba8b-8"}, {"reasons": {"count": 0, "items": [{"summary": "This spot is popular", "type": "general", "reasonName": "globalInteractionReason"}]}, "venue": {"id": "4dcff4c7e4cd130e168c3641", "name": "Restaurant Floh", "location": {"address": "Am Bahnhof Grunewald 4", "crossStreet": "Karmielplatz", "lat": 52.487979496062785, "lng": 13.26335049902978, "labeledLatLngs": [{"label": "display", "lat": 52.487979496062785, "lng": 13.26335049902978}], "distance": 980, "postalCode": "14193", "cc": "DE", "city": "Berlin", "state": "Berlin", "country": "Deutschland", "formattedAddress": ["Am Bahnhof Grunewald 4 (Karmielplatz)", "14193 Berlin", "Deutschland"]}, "categories": [{"id": "4bf58dd8d48988d10d941735", "name": "German Restaurant", "pluralName": "German Restaurants", "shortName": "German", "icon": {"prefix": "https://ss3.4sqi.net/img/categories_v2/food/german_", "suffix": ".png"}, "primary": true}], "photos": {"count": 0, "groups": []}}, "referralId": "e-0-4dcff4c7e4cd130e168c3641-9"}, {"reasons": {"count": 0, "items": [{"summary": "This spot is popular", "type": "general", "reasonName": "globalInteractionReason"}]}, "venue": {"id": "4c112a1f3ce120a14142091c", "name": "Fr\u00fchsammers Restaurant", "location": {"address": "Flinsberger Platz 8", "lat": 52.48371641280662, "lng": 13.29018526128719, "labeledLatLngs": [{"label": "display", "lat": 52.48371641280662, "lng": 13.29018526128719}], "distance": 900, "postalCode": "14193", "cc": "DE", "city": "Berlin", "state": "Berlin", "country": "Deutschland", "formattedAddress": ["Flinsberger Platz 8", "14193 Berlin", "Deutschland"]}, "categories": [{"id": "4bf58dd8d48988d1c4941735", "name": "Restaurant", "pluralName": "Restaurants", "shortName": "Restaurant", "icon": {"prefix": "https://ss3.4sqi.net/img/categories_v2/food/default_", "suffix": ".png"}, "primary": true}], "photos": {"count": 0, "groups": []}}, "referralId": "e-0-4c112a1f3ce120a14142091c-10"}, {"reasons": {"count": 0, "items": [{"summary": "This spot is popular", "type": "general", "reasonName": "globalInteractionReason"}]}, "venue": {"id": "4e9d6bd5b6348df6f71e2f2e", "name": "Mahnmal Gleis 17", "location": {"address": "Am Bahnhof Grunewald", "lat": 52.48879096206023, "lng": 13.264092206954956, "labeledLatLngs": [{"label": "display", "lat": 52.48879096206023, "lng": 13.264092206954956}], "distance": 957, "postalCode": "14193", "cc": "DE", "city": "Berlin", "state": "Berlin", "country": "Deutschland", "formattedAddress": ["Am Bahnhof Grunewald", "14193 Berlin", "Deutschland"]}, "categories": [{"id": "4deefb944765f83613cdba6e", "name": "Historic Site", "pluralName": "Historic Sites", "shortName": "Historic Site", "icon": {"prefix": "https://ss3.4sqi.net/img/categories_v2/arts_entertainment/historicsite_", "suffix": ".png"}, "primary": true}], "photos": {"count": 0, "groups": []}}, "referralId": "e-0-4e9d6bd5b6348df6f71e2f2e-11"}, {"reasons": {"count": 0, "items": [{"summary": "This spot is popular", "type": "general", "reasonName": "globalInteractionReason"}]}, "venue": {"id": "4b716766f964a520e3442de3", "name": "Reinhards Landhaus", "location": {"address": "Koenigsallee 56", "crossStreet": "Douglasstr.", "lat": 52.482858628321324, "lng": 13.264800310134888, "labeledLatLngs": [{"label": "display", "lat": 52.482858628321324, "lng": 13.264800310134888}], "distance": 921, "postalCode": "14193", "cc": "DE", "city": "Berlin", "state": "Berlin", "country": "Deutschland", "formattedAddress": ["Koenigsallee 56 (Douglasstr.)", "14193 Berlin", "Deutschland"]}, "categories": [{"id": "4bf58dd8d48988d10d941735", "name": "German Restaurant", "pluralName": "German Restaurants", "shortName": "German", "icon": {"prefix": "https://ss3.4sqi.net/img/categories_v2/food/german_", "suffix": ".png"}, "primary": true}], "photos": {"count": 0, "groups": []}}, "referralId": "e-0-4b716766f964a520e3442de3-12"}, {"reasons": {"count": 0, "items": [{"summary": "This spot is popular", "type": "general", "reasonName": "globalInteractionReason"}]}, "venue": {"id": "4d3874069516236ae46d9651", "name": "Habel-Weinstube", "location": {"address": "Hohenzollerndamm 93", "lat": 52.4774680141545, "lng": 13.28166719834087, "labeledLatLngs": [{"label": "display", "lat": 52.4774680141545, "lng": 13.28166719834087}], "distance": 985, "postalCode": "14199", "cc": "DE", "city": "Berlin", "state": "Berlin", "country": "Deutschland", "formattedAddress": ["Hohenzollerndamm 93", "14199 Berlin", "Deutschland"]}, "categories": [{"id": "4bf58dd8d48988d11b941735", "name": "Pub", "pluralName": "Pubs", "shortName": "Pub", "icon": {"prefix": "https://ss3.4sqi.net/img/categories_v2/nightlife/pub_", "suffix": ".png"}, "primary": true}], "photos": {"count": 0, "groups": []}}, "referralId": "e-0-4d3874069516236ae46d9651-13"}, {"reasons": {"count": 0, "items": [{"summary": "This spot is popular", "type": "general", "reasonName": "globalInteractionReason"}]}, "venue": {"id": "55d8dae5498eab573aa11c04", "name": "Cappuccino Grand Caf\u00e9 Ku\u00b4damm Beach", "location": {"address": "Koenigsallee 5B", "lat": 52.49404571966356, "lng": 13.282242783156518, "labeledLatLngs": [{"label": "display", "lat": 52.49404571966356, "lng": 13.282242783156518}], "distance": 960, "postalCode": "14193", "cc": "DE", "city": "Berlin", "state": "Berlin", "country": "Deutschland", "formattedAddress": ["Koenigsallee 5B", "14193 Berlin", "Deutschland"]}, "categories": [{"id": "4bf58dd8d48988d110941735", "name": "Italian Restaurant", "pluralName": "Italian Restaurants", "shortName": "Italian", "icon": {"prefix": "https://ss3.4sqi.net/img/categories_v2/food/italian_", "suffix": ".png"}, "primary": true}], "photos": {"count": 0, "groups": []}}, "referralId": "e-0-55d8dae5498eab573aa11c04-14"}, {"reasons": {"count": 0, "items": [{"summary": "This spot is popular", "type": "general", "reasonName": "globalInteractionReason"}]}, "venue": {"id": "4f730b03e4b059045afa0f8f", "name": "Elsterplatz", "location": {"address": "Hohenzollerndamm", "crossStreet": "Berkaer Str.", "lat": 52.48006399245025, "lng": 13.285378217697144, "labeledLatLngs": [{"label": "display", "lat": 52.48006399245025, "lng": 13.285378217697144}], "distance": 847, "postalCode": "14193", "cc": "DE", "city": "Berlin", "state": "Berlin", "country": "Deutschland", "formattedAddress": ["Hohenzollerndamm (Berkaer Str.)", "14193 Berlin", "Deutschland"]}, "categories": [{"id": "4bf58dd8d48988d164941735", "name": "Plaza", "pluralName": "Plazas", "shortName": "Plaza", "icon": {"prefix": "https://ss3.4sqi.net/img/categories_v2/parks_outdoors/plaza_", "suffix": ".png"}, "primary": true}], "photos": {"count": 0, "groups": []}}, "referralId": "e-0-4f730b03e4b059045afa0f8f-15"}, {"reasons": {"count": 0, "items": [{"summary": "This spot is popular", "type": "general", "reasonName": "globalInteractionReason"}]}, "venue": {"id": "4b06d7ecf964a5203cf122e3", "name": "EDEKA Trabener Stra\u00dfe", "location": {"address": "Trabener Str. 2", "lat": 52.48766529, "lng": 13.26468207, "labeledLatLngs": [{"label": "display", "lat": 52.48766529, "lng": 13.26468207}], "distance": 884, "postalCode": "14193", "cc": "DE", "city": "Berlin", "state": "Berlin", "country": "Deutschland", "formattedAddress": ["Trabener Str. 2", "14193 Berlin", "Deutschland"]}, "categories": [{"id": "52f2ab2ebcbc57f1066b8b46", "name": "Supermarket", "pluralName": "Supermarkets", "shortName": "Supermarket", "icon": {"prefix": "https://ss3.4sqi.net/img/categories_v2/shops/food_grocery_", "suffix": ".png"}, "primary": true}], "photos": {"count": 0, "groups": []}, "venuePage": {"id": "555940820"}}, "referralId": "e-0-4b06d7ecf964a5203cf122e3-16"}, {"reasons": {"count": 0, "items": [{"summary": "This spot is popular", "type": "general", "reasonName": "globalInteractionReason"}]}, "venue": {"id": "4adcda77f964a520df4521e3", "name": "Wiener am Hagenplatz", "location": {"address": "Hagenplatz 3", "lat": 52.48374031887544, "lng": 13.267297958854266, "labeledLatLngs": [{"label": "display", "lat": 52.48374031887544, "lng": 13.267297958854266}], "distance": 728, "postalCode": "14193", "cc": "DE", "city": "Berlin", "state": "Berlin", "country": "Deutschland", "formattedAddress": ["Hagenplatz 3", "14193 Berlin", "Deutschland"]}, "categories": [{"id": "4bf58dd8d48988d16d941735", "name": "Caf\u00e9", "pluralName": "Caf\u00e9s", "shortName": "Caf\u00e9", "icon": {"prefix": "https://ss3.4sqi.net/img/categories_v2/food/cafe_", "suffix": ".png"}, "primary": true}], "photos": {"count": 0, "groups": []}}, "referralId": "e-0-4adcda77f964a520df4521e3-17"}, {"reasons": {"count": 0, "items": [{"summary": "This spot is popular", "type": "general", "reasonName": "globalInteractionReason"}]}, "venue": {"id": "4c2883e5ed0ac9b6414560aa", "name": "Ku'damm Beach", "location": {"address": "Koenigsallee 5", "lat": 52.49431528459459, "lng": 13.281821209996343, "labeledLatLngs": [{"label": "display", "lat": 52.49431528459459, "lng": 13.281821209996343}], "distance": 979, "postalCode": "14193", "cc": "DE", "city": "Berlin", "state": "Berlin", "country": "Deutschland", "formattedAddress": ["Koenigsallee 5", "14193 Berlin", "Deutschland"]}, "categories": [{"id": "4bf58dd8d48988d1e2941735", "name": "Beach", "pluralName": "Beaches", "shortName": "Beach", "icon": {"prefix": "https://ss3.4sqi.net/img/categories_v2/parks_outdoors/beach_", "suffix": ".png"}, "primary": true}], "photos": {"count": 0, "groups": []}}, "referralId": "e-0-4c2883e5ed0ac9b6414560aa-18"}, {"reasons": {"count": 0, "items": [{"summary": "This spot is popular", "type": "general", "reasonName": "globalInteractionReason"}]}, "venue": {"id": "4c3a0e0a3849c9280b49c2b1", "name": "Ristorante La Maremma", "location": {"address": "Hagenstr. 79", "lat": 52.47736350955775, "lng": 13.280082041207848, "labeledLatLngs": [{"label": "display", "lat": 52.47736350955775, "lng": 13.280082041207848}], "distance": 971, "postalCode": "14193", "cc": "DE", "city": "Berlin", "state": "Berlin", "country": "Deutschland", "formattedAddress": ["Hagenstr. 79", "14193 Berlin", "Deutschland"]}, "categories": [{"id": "4bf58dd8d48988d110941735", "name": "Italian Restaurant", "pluralName": "Italian Restaurants", "shortName": "Italian", "icon": {"prefix": "https://ss3.4sqi.net/img/categories_v2/food/italian_", "suffix": ".png"}, "primary": true}], "photos": {"count": 0, "groups": []}}, "referralId": "e-0-4c3a0e0a3849c9280b49c2b1-19"}, {"reasons": {"count": 0, "items": [{"summary": "This spot is popular", "type": "general", "reasonName": "globalInteractionReason"}]}, "venue": {"id": "4c56766e4cc1ef3bd3524b12", "name": "Hubertussee", "location": {"address": "Hubertusallee", "crossStreet": "Delbr\u00fcckstr.", "lat": 52.486401056272925, "lng": 13.280260562896729, "labeledLatLngs": [{"label": "display", "lat": 52.486401056272925, "lng": 13.280260562896729}], "distance": 199, "postalCode": "14193", "cc": "DE", "city": "Berlin", "state": "Berlin", "country": "Deutschland", "formattedAddress": ["Hubertusallee (Delbr\u00fcckstr.)", "14193 Berlin", "Deutschland"]}, "categories": [{"id": "4bf58dd8d48988d161941735", "name": "Lake", "pluralName": "Lakes", "shortName": "Lake", "icon": {"prefix": "https://ss3.4sqi.net/img/categories_v2/parks_outdoors/lake_", "suffix": ".png"}, "primary": true}], "photos": {"count": 0, "groups": []}}, "referralId": "e-0-4c56766e4cc1ef3bd3524b12-20"}, {"reasons": {"count": 0, "items": [{"summary": "This spot is popular", "type": "general", "reasonName": "globalInteractionReason"}]}, "venue": {"id": "4c5678684cc1ef3ba2534b12", "name": "Koenigssee", "location": {"address": "Koenigsallee", "crossStreet": "Delbr\u00fcckstr.", "lat": 52.488621104599574, "lng": 13.27317953109741, "labeledLatLngs": [{"label": "display", "lat": 52.488621104599574, "lng": 13.27317953109741}], "distance": 414, "postalCode": "14193", "cc": "DE", "city": "Berlin", "state": "Berlin", "country": "Deutschland", "formattedAddress": ["Koenigsallee (Delbr\u00fcckstr.)", "14193 Berlin", "Deutschland"]}, "categories": [{"id": "4bf58dd8d48988d161941735", "name": "Lake", "pluralName": "Lakes", "shortName": "Lake", "icon": {"prefix": "https://ss3.4sqi.net/img/categories_v2/parks_outdoors/lake_", "suffix": ".png"}, "primary": true}], "photos": {"count": 0, "groups": []}}, "referralId": "e-0-4c5678684cc1ef3ba2534b12-21"}, {"reasons": {"count": 0, "items": [{"summary": "This spot is popular", "type": "general", "reasonName": "globalInteractionReason"}]}, "venue": {"id": "4eae619a61af352e5d7fd952", "name": "Bosco Verde", "location": {"address": "Menzelstr. 1", "lat": 52.48256249364841, "lng": 13.266436064796626, "labeledLatLngs": [{"label": "display", "lat": 52.48256249364841, "lng": 13.266436064796626}], "distance": 833, "postalCode": "14193", "cc": "DE", "city": "Berlin", "state": "Berlin", "country": "Deutschland", "formattedAddress": ["Menzelstr. 1", "14193 Berlin", "Deutschland"]}, "categories": [{"id": "4bf58dd8d48988d110941735", "name": "Italian Restaurant", "pluralName": "Italian Restaurants", "shortName": "Italian", "icon": {"prefix": "https://ss3.4sqi.net/img/categories_v2/food/italian_", "suffix": ".png"}, "primary": true}], "photos": {"count": 0, "groups": []}}, "referralId": "e-0-4eae619a61af352e5d7fd952-22"}, {"reasons": {"count": 0, "items": [{"summary": "This spot is popular", "type": "general", "reasonName": "globalInteractionReason"}]}, "venue": {"id": "4be1743e8dd062b5ed4b3e3c", "name": "Europ\u00e4ische Akademie Berlin", "location": {"address": "Bismarckallee 46/48", "lat": 52.484547676838204, "lng": 13.269774477912254, "labeledLatLngs": [{"label": "display", "lat": 52.484547676838204, "lng": 13.269774477912254}], "distance": 540, "postalCode": "14193", "cc": "DE", "city": "Berlin", "state": "Berlin", "country": "Deutschland", "formattedAddress": ["Bismarckallee 46/48", "14193 Berlin", "Deutschland"]}, "categories": [{"id": "4bf58dd8d48988d1fa931735", "name": "Hotel", "pluralName": "Hotels", "shortName": "Hotel", "icon": {"prefix": "https://ss3.4sqi.net/img/categories_v2/travel/hotel_", "suffix": ".png"}, "primary": true}], "photos": {"count": 0, "groups": []}}, "referralId": "e-0-4be1743e8dd062b5ed4b3e3c-23"}, {"reasons": {"count": 0, "items": [{"summary": "This spot is popular", "type": "general", "reasonName": "globalInteractionReason"}]}, "venue": {"id": "4d9b579f78f46ea865a003fc", "name": "Johannaplatz / Jojo", "location": {"address": "Johannaplatz", "lat": 52.49009321519437, "lng": 13.282407677170136, "labeledLatLngs": [{"label": "display", "lat": 52.49009321519437, "lng": 13.282407677170136}], "distance": 573, "postalCode": "14193", "cc": "DE", "city": "Berlin", "state": "Berlin", "country": "Deutschland", "formattedAddress": ["Johannaplatz", "14193 Berlin", "Deutschland"]}, "categories": [{"id": "4bf58dd8d48988d163941735", "name": "Park", "pluralName": "Parks", "shortName": "Park", "icon": {"prefix": "https://ss3.4sqi.net/img/categories_v2/parks_outdoors/park_", "suffix": ".png"}, "primary": true}], "photos": {"count": 0, "groups": []}}, "referralId": "e-0-4d9b579f78f46ea865a003fc-24"}, {"reasons": {"count": 0, "items": [{"summary": "This spot is popular", "type": "general", "reasonName": "globalInteractionReason"}]}, "venue": {"id": "5061db8be4b087ebebd22836", "name": "BSC Sportplatz Hockey", "location": {"address": "Hubertusallee 50", "lat": 52.485286723480726, "lng": 13.286584970629088, "labeledLatLngs": [{"label": "display", "lat": 52.485286723480726, "lng": 13.286584970629088}], "distance": 625, "cc": "DE", "city": "Berlin", "state": "Berlin", "country": "Deutschland", "formattedAddress": ["Hubertusallee 50", "Berlin", "Deutschland"]}, "categories": [{"id": "4f452cd44b9081a197eba860", "name": "Hockey Field", "pluralName": "Hockey Fields", "shortName": "Hockey Field", "icon": {"prefix": "https://ss3.4sqi.net/img/categories_v2/arts_entertainment/stadium_hockey_", "suffix": ".png"}, "primary": true}], "photos": {"count": 0, "groups": []}}, "referralId": "e-0-5061db8be4b087ebebd22836-25"}, {"reasons": {"count": 0, "items": [{"summary": "This spot is popular", "type": "general", "reasonName": "globalInteractionReason"}]}, "venue": {"id": "4eae5c720aaf9e9a247fcab9", "name": "Restaurant im Schlosshotel", "location": {"address": "Brahmsstr. 10", "lat": 52.48015353217953, "lng": 13.274402618408203, "labeledLatLngs": [{"label": "display", "lat": 52.48015353217953, "lng": 13.274402618408203}], "distance": 675, "postalCode": "14193", "cc": "DE", "city": "Berlin", "state": "Berlin", "country": "Deutschland", "formattedAddress": ["Brahmsstr. 10", "14193 Berlin", "Deutschland"]}, "categories": [{"id": "4bf58dd8d48988d16d941735", "name": "Caf\u00e9", "pluralName": "Caf\u00e9s", "shortName": "Caf\u00e9", "icon": {"prefix": "https://ss3.4sqi.net/img/categories_v2/food/cafe_", "suffix": ".png"}, "primary": true}], "photos": {"count": 0, "groups": []}}, "referralId": "e-0-4eae5c720aaf9e9a247fcab9-26"}, {"reasons": {"count": 0, "items": [{"summary": "This spot is popular", "type": "general", "reasonName": "globalInteractionReason"}]}, "venue": {"id": "4bc779af93bdeee1606c37ae", "name": "Hotel Haus Bismarck", "location": {"address": "Bismarckallee 3", "lat": 52.49111663669372, "lng": 13.283135890960693, "labeledLatLngs": [{"label": "display", "lat": 52.49111663669372, "lng": 13.283135890960693}], "distance": 694, "postalCode": "14193", "cc": "DE", "city": "Berlin", "state": "Berlin", "country": "Deutschland", "formattedAddress": ["Bismarckallee 3", "14193 Berlin", "Deutschland"]}, "categories": [{"id": "4bf58dd8d48988d1fa931735", "name": "Hotel", "pluralName": "Hotels", "shortName": "Hotel", "icon": {"prefix": "https://ss3.4sqi.net/img/categories_v2/travel/hotel_", "suffix": ".png"}, "primary": true}], "photos": {"count": 0, "groups": []}}, "referralId": "e-0-4bc779af93bdeee1606c37ae-27"}, {"reasons": {"count": 0, "items": [{"summary": "This spot is popular", "type": "general", "reasonName": "globalInteractionReason"}]}, "venue": {"id": "4b86e77ff964a5200ca531e3", "name": "Ristorante Capriccio", "location": {"address": "Hagenplatz 2", "lat": 52.48384040705229, "lng": 13.266961754096908, "labeledLatLngs": [{"label": "display", "lat": 52.48384040705229, "lng": 13.266961754096908}], "distance": 746, "postalCode": "14193", "cc": "DE", "city": "Berlin", "state": "Berlin", "country": "Deutschland", "formattedAddress": ["Hagenplatz 2", "14193 Berlin", "Deutschland"]}, "categories": [{"id": "4bf58dd8d48988d110941735", "name": "Italian Restaurant", "pluralName": "Italian Restaurants", "shortName": "Italian", "icon": {"prefix": "https://ss3.4sqi.net/img/categories_v2/food/italian_", "suffix": ".png"}, "primary": true}], "photos": {"count": 0, "groups": []}}, "referralId": "e-0-4b86e77ff964a5200ca531e3-28"}, {"reasons": {"count": 0, "items": [{"summary": "This spot is popular", "type": "general", "reasonName": "globalInteractionReason"}]}, "venue": {"id": "5682b9d3498e48c1c97b62a2", "name": "PROBANDT - Rechtsanw\u00e4lte - Notar", "location": {"address": "Hagenstr. 30", "lat": 52.47949, "lng": 13.273050000000012, "labeledLatLngs": [{"label": "display", "lat": 52.47949, "lng": 13.273050000000012}], "distance": 776, "postalCode": "14193", "cc": "DE", "city": "Berlin", "state": "Berlin", "country": "Deutschland", "formattedAddress": ["Hagenstr. 30", "14193 Berlin", "Deutschland"]}, "categories": [{"id": "52f2ab2ebcbc57f1066b8b3f", "name": "Lawyer", "pluralName": "Lawyers", "shortName": "Lawyer", "icon": {"prefix": "https://ss3.4sqi.net/img/categories_v2/education/lawschool_", "suffix": ".png"}, "primary": true}], "photos": {"count": 0, "groups": []}, "venuePage": {"id": "150378895"}}, "referralId": "e-0-5682b9d3498e48c1c97b62a2-29"}, {"reasons": {"count": 0, "items": [{"summary": "This spot is popular", "type": "general", "reasonName": "globalInteractionReason"}]}, "venue": {"id": "58932461727ba367b5732e66", "name": "Bismarckplatz", "location": {"address": "Bismarckplatz", "crossStreet": "Hubertusallee", "lat": 52.491764, "lng": 13.284632, "labeledLatLngs": [{"label": "display", "lat": 52.491764, "lng": 13.284632}], "distance": 812, "cc": "DE", "city": "Halensee", "state": "Berlin", "country": "Deutschland", "formattedAddress": ["Bismarckplatz (Hubertusallee)", "Halensee", "Deutschland"]}, "categories": [{"id": "4bf58dd8d48988d164941735", "name": "Plaza", "pluralName": "Plazas", "shortName": "Plaza", "icon": {"prefix": "https://ss3.4sqi.net/img/categories_v2/parks_outdoors/plaza_", "suffix": ".png"}, "primary": true}], "photos": {"count": 0, "groups": []}}, "referralId": "e-0-58932461727ba367b5732e66-30"}, {"reasons": {"count": 0, "items": [{"summary": "This spot is popular", "type": "general", "reasonName": "globalInteractionReason"}]}, "venue": {"id": "4f96ad09e4b024c1fd648fa7", "name": "H Bismarckplatz", "location": {"address": "Hubertusallee", "crossStreet": "Bismarckplatz", "lat": 52.49189554734122, "lng": 13.284908820950452, "labeledLatLngs": [{"label": "display", "lat": 52.49189554734122, "lng": 13.284908820950452}], "distance": 835, "postalCode": "14193", "cc": "DE", "city": "Berlin", "state": "Berlin", "country": "Deutschland", "formattedAddress": ["Hubertusallee (Bismarckplatz)", "14193 Berlin", "Deutschland"]}, "categories": [{"id": "52f2ab2ebcbc57f1066b8b4f", "name": "Bus Stop", "pluralName": "Bus Stops", "shortName": "Bus Stop", "icon": {"prefix": "https://ss3.4sqi.net/img/categories_v2/travel/busstation_", "suffix": ".png"}, "primary": true}], "photos": {"count": 0, "groups": []}}, "referralId": "e-0-4f96ad09e4b024c1fd648fa7-31"}, {"reasons": {"count": 0, "items": [{"summary": "This spot is popular", "type": "general", "reasonName": "globalInteractionReason"}]}, "venue": {"id": "57cd2fea498ec0379af2a50f", "name": "Rangierbahnhof Grunewald", "location": {"address": "Werkst\u00e4ttenweg", "crossStreet": "Cordesstr.", "lat": 52.49193, "lng": 13.268958, "labeledLatLngs": [{"label": "display", "lat": 52.49193, "lng": 13.268958}], "distance": 879, "postalCode": "14193", "cc": "DE", "neighborhood": "Grunewald", "city": "Berlin", "state": "Berlin", "country": "Deutschland", "formattedAddress": ["Werkst\u00e4ttenweg (Cordesstr.)", "14193 Berlin", "Deutschland"]}, "categories": [{"id": "4bf58dd8d48988d129951735", "name": "Train Station", "pluralName": "Train Stations", "shortName": "Train Station", "icon": {"prefix": "https://ss3.4sqi.net/img/categories_v2/travel/trainstation_", "suffix": ".png"}, "primary": true}], "photos": {"count": 0, "groups": []}}, "referralId": "e-0-57cd2fea498ec0379af2a50f-32"}, {"reasons": {"count": 0, "items": [{"summary": "This spot is popular", "type": "general", "reasonName": "globalInteractionReason"}]}, "venue": {"id": "4eea19dc02d5d0dbe54980b3", "name": "H Elsterplatz", "location": {"address": "Hohenzollerndamm", "crossStreet": "Elsterplatz", "lat": 52.47973441734806, "lng": 13.28563081278833, "labeledLatLngs": [{"label": "display", "lat": 52.47973441734806, "lng": 13.28563081278833}], "distance": 887, "postalCode": "14199", "cc": "DE", "city": "Berlin", "state": "Berlin", "country": "Deutschland", "formattedAddress": ["Hohenzollerndamm (Elsterplatz)", "14199 Berlin", "Deutschland"]}, "categories": [{"id": "52f2ab2ebcbc57f1066b8b4f", "name": "Bus Stop", "pluralName": "Bus Stops", "shortName": "Bus Stop", "icon": {"prefix": "https://ss3.4sqi.net/img/categories_v2/travel/busstation_", "suffix": ".png"}, "primary": true}], "photos": {"count": 0, "groups": []}}, "referralId": "e-0-4eea19dc02d5d0dbe54980b3-33"}, {"reasons": {"count": 0, "items": [{"summary": "This spot is popular", "type": "general", "reasonName": "globalInteractionReason"}]}, "venue": {"id": "5d1b13af7ad1940023534f98", "name": "EDEKA Meichsner-G\u00f6rse", "location": {"address": "Karlsbader Str. 17", "lat": 52.47846766350056, "lng": 13.282079744312796, "labeledLatLngs": [{"label": "display", "lat": 52.47846766350056, "lng": 13.282079744312796}], "distance": 889, "postalCode": "14193", "cc": "DE", "city": "Berlin", "state": "Berlin", "country": "Deutschland", "formattedAddress": ["Karlsbader Str. 17", "14193 Berlin", "Deutschland"]}, "categories": [{"id": "52f2ab2ebcbc57f1066b8b46", "name": "Supermarket", "pluralName": "Supermarkets", "shortName": "Supermarket", "icon": {"prefix": "https://ss3.4sqi.net/img/categories_v2/shops/food_grocery_", "suffix": ".png"}, "primary": true}], "photos": {"count": 0, "groups": []}, "venuePage": {"id": "557419335"}}, "referralId": "e-0-5d1b13af7ad1940023534f98-34"}, {"reasons": {"count": 0, "items": [{"summary": "This spot is popular", "type": "general", "reasonName": "globalInteractionReason"}]}, "venue": {"id": "4e1dcf7e52b1944a828cb072", "name": "Grunewald Tennis Club", "location": {"lat": 52.483560684976304, "lng": 13.28998480316447, "labeledLatLngs": [{"label": "display", "lat": 52.483560684976304, "lng": 13.28998480316447}], "distance": 892, "cc": "DE", "city": "Berlin", "state": "Berlin", "country": "Deutschland", "formattedAddress": ["Berlin", "Deutschland"]}, "categories": [{"id": "52e81612bcbc57f1066b7a2e", "name": "Sports Club", "pluralName": "Sports Clubs", "shortName": "Sports Club", "icon": {"prefix": "https://ss3.4sqi.net/img/categories_v2/shops/sports_outdoors_", "suffix": ".png"}, "primary": true}], "photos": {"count": 0, "groups": []}}, "referralId": "e-0-4e1dcf7e52b1944a828cb072-35"}, {"reasons": {"count": 0, "items": [{"summary": "This spot is popular", "type": "general", "reasonName": "globalInteractionReason"}]}, "venue": {"id": "4dc168f71838710f437c8c86", "name": "Carlo & Rita Ciabatteria", "location": {"address": "Hohenzollerndamm 88a", "lat": 52.47876380543887, "lng": 13.28381675214732, "labeledLatLngs": [{"label": "display", "lat": 52.47876380543887, "lng": 13.28381675214732}], "distance": 908, "postalCode": "14199", "cc": "DE", "city": "Berlin", "state": "Berlin", "country": "Deutschland", "formattedAddress": ["Hohenzollerndamm 88a", "14199 Berlin", "Deutschland"]}, "categories": [{"id": "4bf58dd8d48988d110941735", "name": "Italian Restaurant", "pluralName": "Italian Restaurants", "shortName": "Italian", "icon": {"prefix": "https://ss3.4sqi.net/img/categories_v2/food/italian_", "suffix": ".png"}, "primary": true}], "photos": {"count": 0, "groups": []}}, "referralId": "e-0-4dc168f71838710f437c8c86-36"}, {"reasons": {"count": 0, "items": [{"summary": "This spot is popular", "type": "general", "reasonName": "globalInteractionReason"}]}, "venue": {"id": "4f3a9387e4b0550571060ed6", "name": "Blumen am Roseneck", "location": {"address": "Karlsbader Str. 18", "lat": 52.47809441586103, "lng": 13.282549538171551, "labeledLatLngs": [{"label": "display", "lat": 52.47809441586103, "lng": 13.282549538171551}], "distance": 939, "cc": "DE", "city": "Berlin", "state": "Berlin", "country": "Deutschland", "formattedAddress": ["Karlsbader Str. 18", "Berlin", "Deutschland"]}, "categories": [{"id": "4bf58dd8d48988d11b951735", "name": "Flower Shop", "pluralName": "Flower Shops", "shortName": "Flower Shop", "icon": {"prefix": "https://ss3.4sqi.net/img/categories_v2/shops/flowershop_", "suffix": ".png"}, "primary": true}], "photos": {"count": 0, "groups": []}}, "referralId": "e-0-4f3a9387e4b0550571060ed6-37"}, {"reasons": {"count": 0, "items": [{"summary": "This spot is popular", "type": "general", "reasonName": "globalInteractionReason"}]}, "venue": {"id": "4d0e022ed515236a8a6d104b", "name": "Halensee", "location": {"address": "Trabener Str.", "crossStreet": "Koenigsallee", "lat": 52.49421299013024, "lng": 13.280367851257324, "labeledLatLngs": [{"label": "display", "lat": 52.49421299013024, "lng": 13.280367851257324}], "distance": 942, "postalCode": "10711", "cc": "DE", "city": "Berlin", "state": "Berlin", "country": "Deutschland", "formattedAddress": ["Trabener Str. (Koenigsallee)", "10711 Berlin", "Deutschland"]}, "categories": [{"id": "4bf58dd8d48988d161941735", "name": "Lake", "pluralName": "Lakes", "shortName": "Lake", "icon": {"prefix": "https://ss3.4sqi.net/img/categories_v2/parks_outdoors/lake_", "suffix": ".png"}, "primary": true}], "photos": {"count": 0, "groups": []}}, "referralId": "e-0-4d0e022ed515236a8a6d104b-38"}, {"reasons": {"count": 0, "items": [{"summary": "This spot is popular", "type": "general", "reasonName": "globalInteractionReason"}]}, "venue": {"id": "5070170ae4b02f4a1209f78a", "name": "Karlsbader Apotheke", "location": {"address": "Karlsbader Str. 18", "crossStreet": "Hohenzollerndamm", "lat": 52.47794789952711, "lng": 13.282440265977643, "labeledLatLngs": [{"label": "display", "lat": 52.47794789952711, "lng": 13.282440265977643}], "distance": 952, "postalCode": "14193", "cc": "DE", "city": "Berlin", "state": "Berlin", "country": "Deutschland", "formattedAddress": ["Karlsbader Str. 18 (Hohenzollerndamm)", "14193 Berlin", "Deutschland"]}, "categories": [{"id": "4bf58dd8d48988d10f951735", "name": "Pharmacy", "pluralName": "Pharmacies", "shortName": "Pharmacy", "icon": {"prefix": "https://ss3.4sqi.net/img/categories_v2/shops/pharmacy_", "suffix": ".png"}, "primary": true}], "photos": {"count": 0, "groups": []}}, "referralId": "e-0-5070170ae4b02f4a1209f78a-39"}, {"reasons": {"count": 0, "items": [{"summary": "This spot is popular", "type": "general", "reasonName": "globalInteractionReason"}]}, "venue": {"id": "5139d8dce4b05447384a0bb4", "name": "Lindner", "location": {"address": "Hohenzollerndamm 92", "lat": 52.47787301999002, "lng": 13.282256126403809, "labeledLatLngs": [{"label": "display", "lat": 52.47787301999002, "lng": 13.282256126403809}], "distance": 955, "postalCode": "14199", "cc": "DE", "city": "Berlin", "state": "Berlin", "country": "Deutschland", "formattedAddress": ["Hohenzollerndamm 92", "14199 Berlin", "Deutschland"]}, "categories": [{"id": "4bf58dd8d48988d1f5941735", "name": "Gourmet Shop", "pluralName": "Gourmet Shops", "shortName": "Gourmet", "icon": {"prefix": "https://ss3.4sqi.net/img/categories_v2/shops/food_gourmet_", "suffix": ".png"}, "primary": true}], "photos": {"count": 0, "groups": []}}, "referralId": "e-0-5139d8dce4b05447384a0bb4-40"}, {"reasons": {"count": 0, "items": [{"summary": "This spot is popular", "type": "general", "reasonName": "globalInteractionReason"}]}, "venue": {"id": "4fdaca53e4b0891dce40308d", "name": "Steinecke Am Bahnhof Grunewald", "location": {"lat": 52.48734262306346, "lng": 13.263487360302856, "labeledLatLngs": [{"label": "display", "lat": 52.48734262306346, "lng": 13.263487360302856}], "distance": 956, "cc": "DE", "city": "Berlin", "state": "Berlin", "country": "Deutschland", "formattedAddress": ["Berlin", "Deutschland"]}, "categories": [{"id": "4bf58dd8d48988d16a941735", "name": "Bakery", "pluralName": "Bakeries", "shortName": "Bakery", "icon": {"prefix": "https://ss3.4sqi.net/img/categories_v2/food/bakery_", "suffix": ".png"}, "primary": true}], "photos": {"count": 0, "groups": []}}, "referralId": "e-0-4fdaca53e4b0891dce40308d-41"}, {"reasons": {"count": 0, "items": [{"summary": "This spot is popular", "type": "general", "reasonName": "globalInteractionReason"}]}, "venue": {"id": "5341346f498e54ecbd153684", "name": "H S Grunewald", "location": {"address": "Am Bahnhof Grunewald", "crossStreet": "Eichkampstr.", "lat": 52.48758451826218, "lng": 13.263398835890898, "labeledLatLngs": [{"label": "display", "lat": 52.48758451826218, "lng": 13.263398835890898}], "distance": 967, "postalCode": "14193", "cc": "DE", "city": "Berlin", "state": "Berlin", "country": "Deutschland", "formattedAddress": ["Am Bahnhof Grunewald (Eichkampstr.)", "14193 Berlin", "Deutschland"]}, "categories": [{"id": "52f2ab2ebcbc57f1066b8b4f", "name": "Bus Stop", "pluralName": "Bus Stops", "shortName": "Bus Stop", "icon": {"prefix": "https://ss3.4sqi.net/img/categories_v2/travel/busstation_", "suffix": ".png"}, "primary": true}], "photos": {"count": 0, "groups": []}}, "referralId": "e-0-5341346f498e54ecbd153684-42"}, {"reasons": {"count": 0, "items": [{"summary": "This spot is popular", "type": "general", "reasonName": "globalInteractionReason"}]}, "venue": {"id": "4fe01f7be4b0872cf2336863", "name": "Casetta Croccante", "location": {"address": "Karmielplatz 1", "lat": 52.48775014529204, "lng": 13.263084895485322, "labeledLatLngs": [{"label": "display", "lat": 52.48775014529204, "lng": 13.263084895485322}], "distance": 992, "postalCode": "14193", "cc": "DE", "city": "Berlin", "state": "Berlin", "country": "Deutschland", "formattedAddress": ["Karmielplatz 1", "14193 Berlin", "Deutschland"]}, "categories": [{"id": "55a5a1ebe4b013909087cb7f", "name": "Trattoria/Osteria", "pluralName": "Trattorias/Osterias", "shortName": "Trattoria/Osteria", "icon": {"prefix": "https://ss3.4sqi.net/img/categories_v2/food/italian_", "suffix": ".png"}, "primary": true}], "photos": {"count": 0, "groups": []}}, "referralId": "e-0-4fe01f7be4b0872cf2336863-43"}, {"reasons": {"count": 0, "items": [{"summary": "This spot is popular", "type": "general", "reasonName": "globalInteractionReason"}]}, "venue": {"id": "4f094dc4e4b0e8907b82744b", "name": "H Herthastra\u00dfe", "location": {"address": "Hubertusallee", "crossStreet": "Herthastr.", "lat": 52.49361663446229, "lng": 13.285064333835072, "labeledLatLngs": [{"label": "display", "lat": 52.49361663446229, "lng": 13.285064333835072}], "distance": 999, "postalCode": "14193", "cc": "DE", "city": "Berlin", "state": "Berlin", "country": "Deutschland", "formattedAddress": ["Hubertusallee (Herthastr.)", "14193 Berlin", "Deutschland"]}, "categories": [{"id": "52f2ab2ebcbc57f1066b8b4f", "name": "Bus Stop", "pluralName": "Bus Stops", "shortName": "Bus Stop", "icon": {"prefix": "https://ss3.4sqi.net/img/categories_v2/travel/busstation_", "suffix": ".png"}, "primary": true}], "photos": {"count": 0, "groups": []}}, "referralId": "e-0-4f094dc4e4b0e8907b82744b-44"}]