[{"reasons": {"count": 0, "items": [{"summary": "This spot is popular", "type": "general", "reasonName": "globalInteractionReason"}]}, "venue": {"id": "4df4a9bfd22d8c5470e1e44e", "name": "China-Restaurant Evergreen", "location": {"address": "Magistratsweg 31", "lat": 52.52348279739062, "lng": 13.161732128724124, "labeledLatLngs": [{"label": "display", "lat": 52.52348279739062, "lng": 13.161732128724124}], "distance": 687, "postalCode": "13593", "cc": "DE", "city": "Berlin", "state": "Berlin", "country": "Deutschland", "formattedAddress": ["Magistratsweg 31", "13593 Berlin", "Deutschland"]}, "categories": [{"id": "4bf58dd8d48988d145941735", "name": "Chinese Restaurant", "pluralName": "Chinese Restaurants", "shortName": "Chinese", "icon": {"prefix": "https://ss3.4sqi.net/img/categories_v2/food/asian_", "suffix": ".png"}, "primary": true}], "photos": {"count": 0, "groups": []}}, "referralId": "e-0-4df4a9bfd22d8c5470e1e44e-0"}, {"reasons": {"count": 0, "items": [{"summary": "This spot is popular", "type": "general", "reasonName": "globalInteractionReason"}]}, "venue": {"id": "4da07bfd2305a35d84bccdaf", "name": "Hahneberg", "location": {"address": "Hahnebergweg", "lat": 52.51809976365255, "lng": 13.1501015314598, "labeledLatLngs": [{"label": "display", "lat": 52.51809976365255, "lng": 13.1501015314598}], "distance": 446, "postalCode": "13593", "cc": "DE", "city": "Berlin", "state": "Berlin", "country": "Deutschland", "formattedAddress": ["Hahnebergweg", "13593 Berlin", "Deutschland"]}, "categories": [{"id": "4eb1d4d54b900d56c88a45fc", "name": "Mountain", "pluralName": "Mountains", "shortName": "Mountain", "icon": {"prefix": "https://ss3.4sqi.net/img/categories_v2/parks_outdoors/mountain_", "suffix": ".png"}, "primary": true}], "photos": {"count": 0, "groups": []}}, "referralId": "e-0-4da07bfd2305a35d84bccdaf-1"}, {"reasons": {"count": 0, "items": [{"summary": "This spot is popular", "type": "general", "reasonName": "globalInteractionReason"}]}, "venue": {"id": "5020ce7be4b02f6498cf47c2", "name": "Rossmann", "location": {"address": "Obstallee 28-30", "lat": 52.522254350194665, "lng": 13.157936486110676, "labeledLatLngs": [{"label": "display", "lat": 52.522254350194665, "lng": 13.157936486110676}], "distance": 467, "postalCode": "13593", "cc": "DE", "city": "Berlin", "state": "Berlin", "country": "Deutschland", "formattedAddress": ["Obstallee 28-30", "13593 Berlin", "Deutschland"]}, "categories": [{"id": "5745c2e4498e11e7bccabdbd", "name": "Drugstore", "pluralName": "Drugstores", "shortName": "Drugstore", "icon": {"prefix": "https://ss3.4sqi.net/img/categories_v2/shops/pharmacy_", "suffix": ".png"}, "primary": true}], "photos": {"count": 0, "groups": []}}, "referralId": "e-0-5020ce7be4b02f6498cf47c2-2"}, {"reasons": {"count": 0, "items": [{"summary": "This spot is popular", "type": "general", "reasonName": "globalInteractionReason"}]}, "venue": {"id": "505665f7e4b088edb213c257", "name": "H Reimerweg", "location": {"address": "Heerstr.", "crossStreet": "Reimerweg / Pillnitzer Weg", "lat": 52.52200589490209, "lng": 13.154635176951931, "labeledLatLngs": [{"label": "display", "lat": 52.52200589490209, "lng": 13.154635176951931}], "distance": 454, "postalCode": "13593", "cc": "DE", "city": "Berlin", "state": "Berlin", "country": "Deutschland", "formattedAddress": ["Heerstr. (Reimerweg / Pillnitzer Weg)", "13593 Berlin", "Deutschland"]}, "categories": [{"id": "52f2ab2ebcbc57f1066b8b4f", "name": "Bus Stop", "pluralName": "Bus Stops", "shortName": "Bus Stop", "icon": {"prefix": "https://ss3.4sqi.net/img/categories_v2/travel/busstation_", "suffix": ".png"}, "primary": true}], "photos": {"count": 0, "groups": []}}, "referralId": "e-0-505665f7e4b088edb213c257-3"}, {"reasons": {"count": 0, "items": [{"summary": "This spot is popular", "type": "general", "reasonName": "globalInteractionReason"}]}, "venue": {"id": "4e7c3780823139fc8931d10c", "name": "H Heerstra\u00dfe / Magistratsweg", "location": {"address": "Heerstr.", "crossStreet": "Magistratsweg", "lat": 52.52113244990403, "lng": 13.162575329479477, "labeledLatLngs": [{"label": "display", "lat": 52.52113244990403, "lng": 13.162575329479477}], "distance": 520, "postalCode": "13593", "cc": "DE", "city": "Berlin", "state": "Berlin", "country": "Deutschland", "formattedAddress": ["Heerstr. (Magistratsweg)", "13593 Berlin", "Deutschland"]}, "categories": [{"id": "52f2ab2ebcbc57f1066b8b4f", "name": "Bus Stop", "pluralName": "Bus Stops", "shortName": "Bus Stop", "icon": {"prefix": "https://ss3.4sqi.net/img/categories_v2/travel/busstation_", "suffix": ".png"}, "primary": true}], "photos": {"count": 0, "groups": []}}, "referralId": "e-0-4e7c3780823139fc8931d10c-4"}, {"reasons": {"count": 0, "items": [{"summary": "This spot is popular", "type": "general", "reasonName": "globalInteractionReason"}]}, "venue": {"id": "50953802498e4ddf6810655f", "name": "Videotown", "location": {"address": "Obstallee", "lat": 52.52114611659262, "lng": 13.163008561542366, "labeledLatLngs": [{"label": "display", "lat": 52.52114611659262, "lng": 13.163008561542366}], "distance": 544, "cc": "DE", "city": "Berlin", "state": "Berlin", "country": "Deutschland", "formattedAddress": ["Obstallee", "Berlin", "Deutschland"]}, "categories": [{"id": "4bf58dd8d48988d126951735", "name": "Video Store", "pluralName": "Video Stores", "shortName": "Video Store", "icon": {"prefix": "https://ss3.4sqi.net/img/categories_v2/shops/video_", "suffix": ".png"}, "primary": true}], "photos": {"count": 0, "groups": []}}, "referralId": "e-0-50953802498e4ddf6810655f-5"}, {"reasons": {"count": 0, "items": [{"summary": "This spot is popular", "type": "general", "reasonName": "globalInteractionReason"}]}, "venue": {"id": "4e549b7a1838d8d1dad28b5c", "name": "H Rudolf-Wissell-Siedlung", "location": {"address": "Magistratsweg", "crossStreet": "Maulbeerallee", "lat": 52.52438037860639, "lng": 13.157401544008286, "labeledLatLngs": [{"label": "display", "lat": 52.52438037860639, "lng": 13.157401544008286}], "distance": 698, "postalCode": "13593", "cc": "DE", "city": "Berlin", "state": "Berlin", "country": "Deutschland", "formattedAddress": ["Magistratsweg (Maulbeerallee)", "13593 Berlin", "Deutschland"]}, "categories": [{"id": "52f2ab2ebcbc57f1066b8b4f", "name": "Bus Stop", "pluralName": "Bus Stops", "shortName": "Bus Stop", "icon": {"prefix": "https://ss3.4sqi.net/img/categories_v2/travel/busstation_", "suffix": ".png"}, "primary": true}], "photos": {"count": 0, "groups": []}}, "referralId": "e-0-4e549b7a1838d8d1dad28b5c-6"}, {"reasons": {"count": 0, "items": [{"summary": "This spot is popular", "type": "general", "reasonName": "globalInteractionReason"}]}, "venue": {"id": "505668d4e4b0c7508c030662", "name": "H Hahneberg", "location": {"address": "Heerstr.", "crossStreet": "G\u00e4rtnereiring", "lat": 52.523814258007306, "lng": 13.146402069385028, "labeledLatLngs": [{"label": "display", "lat": 52.523814258007306, "lng": 13.146402069385028}], "distance": 942, "postalCode": "13593", "cc": "DE", "city": "Berlin", "state": "Berlin", "country": "Deutschland", "formattedAddress": ["Heerstr. (G\u00e4rtnereiring)", "13593 Berlin", "Deutschland"]}, "categories": [{"id": "52f2ab2ebcbc57f1066b8b4f", "name": "Bus Stop", "pluralName": "Bus Stops", "shortName": "Bus Stop", "icon": {"prefix": "https://ss3.4sqi.net/img/categories_v2/travel/busstation_", "suffix": ".png"}, "primary": true}], "photos": {"count": 0, "groups": []}}, "referralId": "e-0-505668d4e4b0c7508c030662-7"}, {"reasons": {"count": 0, "items": [{"summary": "This spot is popular", "type": "general", "reasonName": "globalInteractionReason"}]}, "venue": {"id": "4adcda7df964a520964721e3", "name": "Fort Hahneberg", "location": {"address": "Hahnebergweg 50", "lat": 52.521492956078454, "lng": 13.14364808362996, "labeledLatLngs": [{"label": "display", "lat": 52.521492956078454, "lng": 13.14364808362996}], "distance": 960, "postalCode": "13591", "cc": "DE", "city": "Berlin", "state": "Berlin", "country": "Deutschland", "formattedAddress": ["Hahnebergweg 50", "13591 Berlin", "Deutschland"]}, "categories": [{"id": "50aaa49e4b90af0d42d5de11", "name": "Castle", "pluralName": "Castles", "shortName": "Castle", "icon": {"prefix": "https://ss3.4sqi.net/img/categories_v2/parks_outdoors/beach_", "suffix": ".png"}, "primary": true}], "photos": {"count": 0, "groups": []}}, "referralId": "e-0-4adcda7df964a520964721e3-8"}, {"reasons": {"count": 0, "items": [{"summary": "This spot is popular", "type": "general", "reasonName": "globalInteractionReason"}]}, "venue": {"id": "4e31323545ddbe0f665cdeda", "name": "PENNY", "location": {"address": "Heerstra\u00dfe 378-382", "crossStreet": "Heerstr.", "lat": 52.518948023244256, "lng": 13.171006458055786, "labeledLatLngs": [{"label": "display", "lat": 52.518948023244256, "lng": 13.171006458055786}], "distance": 973, "postalCode": "13593", "cc": "DE", "city": "Berlin", "state": "Berlin", "country": "Deutschland", "formattedAddress": ["Heerstra\u00dfe 378-382 (Heerstr.)", "13593 Berlin", "Deutschland"]}, "categories": [{"id": "4bf58dd8d48988d1ff941735", "name": "Miscellaneous Shop", "pluralName": "Miscellaneous Shops", "shortName": "Shop", "icon": {"prefix": "https://ss3.4sqi.net/img/categories_v2/shops/default_", "suffix": ".png"}, "primary": true}], "photos": {"count": 0, "groups": []}, "venuePage": {"id": "478205780"}}, "referralId": "e-0-4e31323545ddbe0f665cdeda-9"}]