[{"reasons": {"count": 0, "items": [{"summary": "This spot is popular", "type": "general", "reasonName": "globalInteractionReason"}]}, "venue": {"id": "4bc98009cc8cd13a14c0bbcf", "name": "Der Holl\u00e4nder", "location": {"address": "Trakehner Allee 1a", "lat": 52.51310799699027, "lng": 13.244823573763515, "labeledLatLngs": [{"label": "display", "lat": 52.51310799699027, "lng": 13.244823573763515}], "distance": 429, "postalCode": "14053", "cc": "DE", "city": "Berlin", "state": "Berlin", "country": "Deutschland", "formattedAddress": ["Trakehner Allee 1a", "14053 Berlin", "Deutschland"]}, "categories": [{"id": "4bf58dd8d48988d11b951735", "name": "Flower Shop", "pluralName": "Flower Shops", "shortName": "Flower Shop", "icon": {"prefix": "https://ss3.4sqi.net/img/categories_v2/shops/flowershop_", "suffix": ".png"}, "primary": true}], "photos": {"count": 0, "groups": []}}, "referralId": "e-0-4bc98009cc8cd13a14c0bbcf-0"}, {"reasons": {"count": 0, "items": [{"summary": "This spot is popular", "type": "general", "reasonName": "globalInteractionReason"}]}, "venue": {"id": "5246e699498e10e0dbe8a389", "name": "Jesse Owens Lounge", "location": {"address": "Olympischer Platz 3", "lat": 52.513903046293585, "lng": 13.239748477935791, "labeledLatLngs": [{"label": "display", "lat": 52.513903046293585, "lng": 13.239748477935791}], "distance": 372, "postalCode": "14053", "cc": "DE", "city": "Berlin", "state": "Berlin", "country": "Deutschland", "formattedAddress": ["Olympischer Platz 3", "14053 Berlin", "Deutschland"]}, "categories": [{"id": "4bf58dd8d48988d121941735", "name": "Lounge", "pluralName": "Lounges", "shortName": "Lounge", "icon": {"prefix": "https://ss3.4sqi.net/img/categories_v2/nightlife/default_", "suffix": ".png"}, "primary": true}], "photos": {"count": 0, "groups": []}}, "referralId": "e-0-5246e699498e10e0dbe8a389-1"}, {"reasons": {"count": 0, "items": [{"summary": "This spot is popular", "type": "general", "reasonName": "globalInteractionReason"}]}, "venue": {"id": "4adcda89f964a520a64921e3", "name": "Olympiastadion", "location": {"address": "Olympischer Platz 3", "lat": 52.514849775310154, "lng": 13.23976993560791, "labeledLatLngs": [{"label": "display", "lat": 52.514849775310154, "lng": 13.23976993560791}], "distance": 478, "postalCode": "14053", "cc": "DE", "city": "Berlin", "state": "Berlin", "country": "Deutschland", "formattedAddress": ["Olympischer Platz 3", "14053 Berlin", "Deutschland"]}, "categories": [{"id": "4bf58dd8d48988d188941735", "name": "Soccer Stadium", "pluralName": "Soccer Stadiums", "shortName": "Soccer", "icon": {"prefix": "https://ss3.4sqi.net/img/categories_v2/arts_entertainment/stadium_soccer_", "suffix": ".png"}, "primary": true}], "photos": {"count": 0, "groups": []}}, "referralId": "e-0-4adcda89f964a520a64921e3-2"}, {"reasons": {"count": 0, "items": [{"summary": "This spot is popular", "type": "general", "reasonName": "globalInteractionReason"}]}, "venue": {"id": "5170e2b5e0e29a4625ff2915", "name": "Hertha BSC Heimspiel", "location": {"address": "Olympischer Platz 1", "crossStreet": "Am Olympiastadion", "lat": 52.514670282552004, "lng": 13.24114821644443, "labeledLatLngs": [{"label": "display", "lat": 52.514670282552004, "lng": 13.24114821644443}], "distance": 463, "postalCode": "14053", "cc": "DE", "city": "Berlin", "state": "Berlin", "country": "Deutschland", "formattedAddress": ["Olympischer Platz 1 (Am Olympiastadion)", "14053 Berlin", "Deutschland"]}, "categories": [{"id": "4bf58dd8d48988d188941735", "name": "Soccer Stadium", "pluralName": "Soccer Stadiums", "shortName": "Soccer", "icon": {"prefix": "https://ss3.4sqi.net/img/categories_v2/arts_entertainment/stadium_soccer_", "suffix": ".png"}, "primary": true}], "photos": {"count": 0, "groups": []}, "venuePage": {"id": "64233443"}}, "referralId": "e-0-5170e2b5e0e29a4625ff2915-3"}, {"reasons": {"count": 0, "items": [{"summary": "This spot is popular", "type": "general", "reasonName": "globalInteractionReason"}]}, "venue": {"id": "4cd55a2367c7236afd361277", "name": "Sommerbad Olympiastadion", "location": {"address": "Olympischer Platz 1", "lat": 52.516357108680396, "lng": 13.2390481239585, "labeledLatLngs": [{"label": "display", "lat": 52.516357108680396, "lng": 13.2390481239585}], "distance": 649, "postalCode": "14053", "cc": "DE", "city": "Berlin", "state": "Berlin", "country": "Deutschland", "formattedAddress": ["Olympischer Platz 1", "14053 Berlin", "Deutschland"]}, "categories": [{"id": "4bf58dd8d48988d15e941735", "name": "Pool", "pluralName": "Pools", "shortName": "Pool", "icon": {"prefix": "https://ss3.4sqi.net/img/categories_v2/parks_outdoors/pool_", "suffix": ".png"}, "primary": true}], "photos": {"count": 0, "groups": []}}, "referralId": "e-0-4cd55a2367c7236afd361277-4"}, {"reasons": {"count": 0, "items": [{"summary": "This spot is popular", "type": "general", "reasonName": "globalInteractionReason"}]}, "venue": {"id": "4cd55e8867c7236ae84f1277", "name": "Corbusierhaus", "location": {"address": "Flatowallee 16", "crossStreet": "Heilsberger Allee", "lat": 52.51008453402597, "lng": 13.243923979589495, "labeledLatLngs": [{"label": "display", "lat": 52.51008453402597, "lng": 13.243923979589495}], "distance": 266, "postalCode": "14055", "cc": "DE", "city": "Berlin", "state": "Berlin", "country": "Deutschland", "formattedAddress": ["Flatowallee 16 (Heilsberger Allee)", "14055 Berlin", "Deutschland"]}, "categories": [{"id": "4bf58dd8d48988d130941735", "name": "Building", "pluralName": "Buildings", "shortName": "Building", "icon": {"prefix": "https://ss3.4sqi.net/img/categories_v2/building/default_", "suffix": ".png"}, "primary": true}], "photos": {"count": 0, "groups": []}}, "referralId": "e-0-4cd55e8867c7236ae84f1277-5"}, {"reasons": {"count": 0, "items": [{"summary": "This spot is popular", "type": "general", "reasonName": "globalInteractionReason"}]}, "venue": {"id": "4adcda89f964a520914921e3", "name": "Waldb\u00fchne", "location": {"address": "Glockenturmstr. 1", "lat": 52.51577812124075, "lng": 13.22927713394165, "labeledLatLngs": [{"label": "display", "lat": 52.51577812124075, "lng": 13.22927713394165}], "distance": 933, "postalCode": "14053", "cc": "DE", "city": "Berlin", "state": "Berlin", "country": "Deutschland", "formattedAddress": ["Glockenturmstr. 1", "14053 Berlin", "Deutschland"]}, "categories": [{"id": "56aa371be4b08b9a8d5734db", "name": "Amphitheater", "pluralName": "Amphitheaters", "shortName": "Amphitheater", "icon": {"prefix": "https://ss3.4sqi.net/img/categories_v2/arts_entertainment/default_", "suffix": ".png"}, "primary": true}], "photos": {"count": 0, "groups": []}}, "referralId": "e-0-4adcda89f964a520914921e3-6"}, {"reasons": {"count": 0, "items": [{"summary": "This spot is popular", "type": "general", "reasonName": "globalInteractionReason"}]}, "venue": {"id": "4f524d8de4b0336533cfe024", "name": "Olympia-Lounge", "location": {"address": "Olympischer Platz 3", "lat": 52.51396569934586, "lng": 13.239780061965375, "labeledLatLngs": [{"label": "display", "lat": 52.51396569934586, "lng": 13.239780061965375}], "distance": 379, "postalCode": "14053", "cc": "DE", "city": "Berlin", "state": "Berlin", "country": "Deutschland", "formattedAddress": ["Olympischer Platz 3", "14053 Berlin", "Deutschland"]}, "categories": [{"id": "4bf58dd8d48988d121941735", "name": "Lounge", "pluralName": "Lounges", "shortName": "Lounge", "icon": {"prefix": "https://ss3.4sqi.net/img/categories_v2/nightlife/default_", "suffix": ".png"}, "primary": true}], "photos": {"count": 0, "groups": []}}, "referralId": "e-0-4f524d8de4b0336533cfe024-7"}, {"reasons": {"count": 0, "items": [{"summary": "This spot is popular", "type": "general", "reasonName": "globalInteractionReason"}]}, "venue": {"id": "4ed0d85b1081bc34fbf4873f", "name": "Ostkurve", "location": {"address": "Olympischer Platz 3", "lat": 52.515181688821194, "lng": 13.239897340016029, "labeledLatLngs": [{"label": "display", "lat": 52.515181688821194, "lng": 13.239897340016029}], "distance": 514, "postalCode": "14053", "cc": "DE", "city": "Berlin", "state": "Berlin", "country": "Deutschland", "formattedAddress": ["Olympischer Platz 3", "14053 Berlin", "Deutschland"]}, "categories": [{"id": "4bf58dd8d48988d188941735", "name": "Soccer Stadium", "pluralName": "Soccer Stadiums", "shortName": "Soccer", "icon": {"prefix": "https://ss3.4sqi.net/img/categories_v2/arts_entertainment/stadium_soccer_", "suffix": ".png"}, "primary": true}], "photos": {"count": 0, "groups": []}}, "referralId": "e-0-4ed0d85b1081bc34fbf4873f-8"}, {"reasons": {"count": 0, "items": [{"summary": "This spot is popular", "type": "general", "reasonName": "globalInteractionReason"}]}, "venue": {"id": "4dbe664c0cb691071cceffdf", "name": "Olympiapark Berlin", "location": {"address": "Friedrich-Friesen-Allee", "crossStreet": "Gutsmuthsweg", "lat": 52.518727886767266, "lng": 13.23878288269043, "labeledLatLngs": [{"label": "display", "lat": 52.518727886767266, "lng": 13.23878288269043}], "distance": 913, "postalCode": "14053", "cc": "DE", "city": "Berlin", "state": "Berlin", "country": "Deutschland", "formattedAddress": ["Friedrich-Friesen-Allee (Gutsmuthsweg)", "14053 Berlin", "Deutschland"]}, "categories": [{"id": "4f4528bc4b90abdf24c9de85", "name": "Athletics & Sports", "pluralName": "Athletics & Sports", "shortName": "Athletics & Sports", "icon": {"prefix": "https://ss3.4sqi.net/img/categories_v2/shops/sports_outdoors_", "suffix": ".png"}, "primary": true}], "photos": {"count": 0, "groups": []}}, "referralId": "e-0-4dbe664c0cb691071cceffdf-9"}, {"reasons": {"count": 0, "items": [{"summary": "This spot is popular", "type": "general", "reasonName": "globalInteractionReason"}]}, "venue": {"id": "4adcda7ef964a520cc4721e3", "name": "Olympia-Glockenturm", "location": {"address": "Am Glockenturm", "crossStreet": "Glockenturmstr.", "lat": 52.513807994161695, "lng": 13.230979844022388, "labeledLatLngs": [{"label": "display", "lat": 52.513807994161695, "lng": 13.230979844022388}], "distance": 714, "postalCode": "14052", "cc": "DE", "city": "Berlin", "state": "Berlin", "country": "Deutschland", "formattedAddress": ["Am Glockenturm (Glockenturmstr.)", "14052 Berlin", "Deutschland"]}, "categories": [{"id": "4bf58dd8d48988d165941735", "name": "Scenic Lookout", "pluralName": "Scenic Lookouts", "shortName": "Scenic Lookout", "icon": {"prefix": "https://ss3.4sqi.net/img/categories_v2/parks_outdoors/sceniclookout_", "suffix": ".png"}, "primary": true}], "photos": {"count": 0, "groups": []}}, "referralId": "e-0-4adcda7ef964a520cc4721e3-10"}, {"reasons": {"count": 0, "items": [{"summary": "This spot is popular", "type": "general", "reasonName": "globalInteractionReason"}]}, "venue": {"id": "4f5cbc97e4b02415433b5bd6", "name": "Eissporthalle Charlottenburg (\"PO9\")", "location": {"address": "Glockenturmstr. 14", "lat": 52.513666458289634, "lng": 13.22738669335104, "labeledLatLngs": [{"label": "display", "lat": 52.513666458289634, "lng": 13.22738669335104}], "distance": 926, "postalCode": "14053", "cc": "DE", "city": "Berlin", "state": "Berlin", "country": "Deutschland", "formattedAddress": ["Glockenturmstr. 14", "14053 Berlin", "Deutschland"]}, "categories": [{"id": "56aa371be4b08b9a8d57352c", "name": "Hockey Rink", "pluralName": "Hockey Rinks", "shortName": "Hockey Rink", "icon": {"prefix": "https://ss3.4sqi.net/img/categories_v2/arts_entertainment/stadium_hockey_", "suffix": ".png"}, "primary": true}], "photos": {"count": 0, "groups": []}}, "referralId": "e-0-4f5cbc97e4b02415433b5bd6-11"}, {"reasons": {"count": 0, "items": [{"summary": "This spot is popular", "type": "general", "reasonName": "globalInteractionReason"}]}, "venue": {"id": "4adcda87f964a5204c4921e3", "name": "Tiroler Bauernstuben", "location": {"address": "Heerstra\u00dfe 137", "crossStreet": "Am Scholzpl.", "lat": 52.506167, "lng": 13.228208, "labeledLatLngs": [{"label": "display", "lat": 52.506167, "lng": 13.228208}], "distance": 940, "postalCode": "14055", "cc": "DE", "city": "Berlin", "state": "Berlin", "country": "Deutschland", "formattedAddress": ["Heerstra\u00dfe 137 (Am Scholzpl.)", "14055 Berlin", "Deutschland"]}, "categories": [{"id": "4bf58dd8d48988d1c4941735", "name": "Restaurant", "pluralName": "Restaurants", "shortName": "Restaurant", "icon": {"prefix": "https://ss3.4sqi.net/img/categories_v2/food/default_", "suffix": ".png"}, "primary": true}], "photos": {"count": 0, "groups": []}}, "referralId": "e-0-4adcda87f964a5204c4921e3-12"}, {"reasons": {"count": 0, "items": [{"summary": "This spot is popular", "type": "general", "reasonName": "globalInteractionReason"}]}, "venue": {"id": "4ff580b9e4b0211bc1f3873f", "name": "Olympischer Platz", "location": {"address": "Olympischer Platz", "lat": 52.515355527844946, "lng": 13.245646931346155, "labeledLatLngs": [{"label": "display", "lat": 52.515355527844946, "lng": 13.245646931346155}], "distance": 654, "postalCode": "14053", "cc": "DE", "city": "Berlin", "state": "Berlin", "country": "Deutschland", "formattedAddress": ["Olympischer Platz", "14053 Berlin", "Deutschland"]}, "categories": [{"id": "4bf58dd8d48988d164941735", "name": "Plaza", "pluralName": "Plazas", "shortName": "Plaza", "icon": {"prefix": "https://ss3.4sqi.net/img/categories_v2/parks_outdoors/plaza_", "suffix": ".png"}, "primary": true}], "photos": {"count": 0, "groups": []}}, "referralId": "e-0-4ff580b9e4b0211bc1f3873f-13"}, {"reasons": {"count": 0, "items": [{"summary": "This spot is popular", "type": "general", "reasonName": "globalInteractionReason"}]}, "venue": {"id": "4b54a42ef964a5204dc427e3", "name": "Preu\u00dfisches Landwirtshaus", "location": {"address": "Flatowallee 23", "lat": 52.510483921977986, "lng": 13.240585099683573, "labeledLatLngs": [{"label": "display", "lat": 52.510483921977986, "lng": 13.240585099683573}], "distance": 35, "postalCode": "14055", "cc": "DE", "city": "Berlin", "state": "Berlin", "country": "Deutschland", "formattedAddress": ["Flatowallee 23", "14055 Berlin", "Deutschland"]}, "categories": [{"id": "4bf58dd8d48988d10d941735", "name": "German Restaurant", "pluralName": "German Restaurants", "shortName": "German", "icon": {"prefix": "https://ss3.4sqi.net/img/categories_v2/food/german_", "suffix": ".png"}, "primary": true}], "photos": {"count": 0, "groups": []}}, "referralId": "e-0-4b54a42ef964a5204dc427e3-14"}, {"reasons": {"count": 0, "items": [{"summary": "This spot is popular", "type": "general", "reasonName": "globalInteractionReason"}]}, "venue": {"id": "52ab5db311d2718d1fb57bff", "name": "G\u00e4steblock", "location": {"address": "Olympischer Platz 3", "lat": 52.514189423532535, "lng": 13.238130693882793, "labeledLatLngs": [{"label": "display", "lat": 52.514189423532535, "lng": 13.238130693882793}], "distance": 424, "postalCode": "14053", "cc": "DE", "city": "Berlin", "state": "Berlin", "country": "Deutschland", "formattedAddress": ["Olympischer Platz 3", "14053 Berlin", "Deutschland"]}, "categories": [{"id": "4bf58dd8d48988d188941735", "name": "Soccer Stadium", "pluralName": "Soccer Stadiums", "shortName": "Soccer", "icon": {"prefix": "https://ss3.4sqi.net/img/categories_v2/arts_entertainment/stadium_soccer_", "suffix": ".png"}, "primary": true}], "photos": {"count": 0, "groups": []}}, "referralId": "e-0-52ab5db311d2718d1fb57bff-15"}, {"reasons": {"count": 0, "items": [{"summary": "This spot is popular", "type": "general", "reasonName": "globalInteractionReason"}]}, "venue": {"id": "4b891b44f964a520121d32e3", "name": "Stadionterrassen", "location": {"address": "Jesse-Owens-Allee 2", "lat": 52.512067043229465, "lng": 13.239961754351816, "labeledLatLngs": [{"label": "display", "lat": 52.512067043229465, "lng": 13.239961754351816}], "distance": 167, "postalCode": "14053", "cc": "DE", "city": "Berlin", "state": "Berlin", "country": "Deutschland", "formattedAddress": ["Jesse-Owens-Allee 2", "14053 Berlin", "Deutschland"]}, "categories": [{"id": "4bf58dd8d48988d1c4941735", "name": "Restaurant", "pluralName": "Restaurants", "shortName": "Restaurant", "icon": {"prefix": "https://ss3.4sqi.net/img/categories_v2/food/default_", "suffix": ".png"}, "primary": true}], "photos": {"count": 0, "groups": []}}, "referralId": "e-0-4b891b44f964a520121d32e3-16"}, {"reasons": {"count": 0, "items": [{"summary": "This spot is popular", "type": "general", "reasonName": "globalInteractionReason"}]}, "venue": {"id": "4bb5eb12941ad13a5ea31ee3", "name": "Olympiapark-Amateurstadion (Stadion am Wurfplatz)", "location": {"address": "Friedrich-Friesen-Allee", "crossStreet": "Gutsmuthsweg", "lat": 52.517305773121755, "lng": 13.236663100566307, "labeledLatLngs": [{"label": "display", "lat": 52.517305773121755, "lng": 13.236663100566307}], "distance": 785, "postalCode": "14053", "cc": "DE", "city": "Berlin", "state": "Berlin", "country": "Deutschland", "formattedAddress": ["Friedrich-Friesen-Allee (Gutsmuthsweg)", "14053 Berlin", "Deutschland"]}, "categories": [{"id": "4bf58dd8d48988d188941735", "name": "Soccer Stadium", "pluralName": "Soccer Stadiums", "shortName": "Soccer", "icon": {"prefix": "https://ss3.4sqi.net/img/categories_v2/arts_entertainment/stadium_soccer_", "suffix": ".png"}, "primary": true}], "photos": {"count": 0, "groups": []}}, "referralId": "e-0-4bb5eb12941ad13a5ea31ee3-17"}, {"reasons": {"count": 0, "items": [{"summary": "This spot is popular", "type": "general", "reasonName": "globalInteractionReason"}]}, "venue": {"id": "4be403b121d5a59380641a11", "name": "S Olympiastadion", "location": {"address": "Flatowallee", "lat": 52.511424834543156, "lng": 13.243354816623604, "labeledLatLngs": [{"label": "display", "lat": 52.511424834543156, "lng": 13.243354816623604}], "distance": 242, "postalCode": "14053", "cc": "DE", "city": "Berlin", "state": "Berlin", "country": "Deutschland", "formattedAddress": ["Flatowallee", "14053 Berlin", "Deutschland"]}, "categories": [{"id": "4bf58dd8d48988d1fc931735", "name": "Light Rail Station", "pluralName": "Light Rail Stations", "shortName": "Light Rail", "icon": {"prefix": "https://ss3.4sqi.net/img/categories_v2/travel/lightrail_", "suffix": ".png"}, "primary": true}], "photos": {"count": 0, "groups": []}}, "referralId": "e-0-4be403b121d5a59380641a11-18"}, {"reasons": {"count": 0, "items": [{"summary": "This spot is popular", "type": "general", "reasonName": "globalInteractionReason"}]}, "venue": {"id": "51860283498e1c0b6d2f5ad0", "name": "Coubertinplatz", "location": {"lat": 52.51280630970319, "lng": 13.24037096274282, "labeledLatLngs": [{"label": "display", "lat": 52.51280630970319, "lng": 13.24037096274282}], "distance": 250, "cc": "DE", "city": "Berlin", "state": "Berlin", "country": "Deutschland", "formattedAddress": ["Berlin", "Deutschland"]}, "categories": [{"id": "4bf58dd8d48988d164941735", "name": "Plaza", "pluralName": "Plazas", "shortName": "Plaza", "icon": {"prefix": "https://ss3.4sqi.net/img/categories_v2/parks_outdoors/plaza_", "suffix": ".png"}, "primary": true}], "photos": {"count": 0, "groups": []}}, "referralId": "e-0-51860283498e1c0b6d2f5ad0-19"}, {"reasons": {"count": 0, "items": [{"summary": "This spot is popular", "type": "general", "reasonName": "globalInteractionReason"}]}, "venue": {"id": "4d1c7425ddc854817533c860", "name": "Rudolf-Harbig-Halle", "location": {"address": "Glockenturmstr. 1", "lat": 52.51279959156077, "lng": 13.229985237121582, "labeledLatLngs": [{"label": "display", "lat": 52.51279959156077, "lng": 13.229985237121582}], "distance": 727, "postalCode": "14053", "cc": "DE", "city": "Berlin", "state": "Berlin", "country": "Deutschland", "formattedAddress": ["Glockenturmstr. 1", "14053 Berlin", "Deutschland"]}, "categories": [{"id": "4bf58dd8d48988d176941735", "name": "Gym", "pluralName": "Gyms", "shortName": "Gym", "icon": {"prefix": "https://ss3.4sqi.net/img/categories_v2/building/gym_", "suffix": ".png"}, "primary": true}], "photos": {"count": 0, "groups": []}}, "referralId": "e-0-4d1c7425ddc854817533c860-20"}, {"reasons": {"count": 0, "items": [{"summary": "This spot is popular", "type": "general", "reasonName": "globalInteractionReason"}]}, "venue": {"id": "4d985337744f3704eafceb57", "name": "Pichelsberger Krug", "location": {"address": "Schirwindter Allee 22", "lat": 52.50967025756683, "lng": 13.229079, "labeledLatLngs": [{"label": "display", "lat": 52.50967025756683, "lng": 13.229079}], "distance": 751, "postalCode": "14055", "cc": "DE", "city": "Berlin", "state": "Berlin", "country": "Deutschland", "formattedAddress": ["Schirwindter Allee 22", "14055 Berlin", "Deutschland"]}, "categories": [{"id": "4bf58dd8d48988d10d941735", "name": "German Restaurant", "pluralName": "German Restaurants", "shortName": "German", "icon": {"prefix": "https://ss3.4sqi.net/img/categories_v2/food/german_", "suffix": ".png"}, "primary": true}], "photos": {"count": 0, "groups": []}}, "referralId": "e-0-4d985337744f3704eafceb57-21"}, {"reasons": {"count": 0, "items": [{"summary": "This spot is popular", "type": "general", "reasonName": "globalInteractionReason"}]}, "venue": {"id": "4bb8b7f27421a5932004c240", "name": "S Pichelsberg", "location": {"address": "Tharauer Allee", "crossStreet": "Schirwindter Alee", "lat": 52.51031661559193, "lng": 13.227699135300064, "labeledLatLngs": [{"label": "display", "lat": 52.51031661559193, "lng": 13.227699135300064}], "distance": 838, "postalCode": "14055", "cc": "DE", "city": "Berlin", "state": "Berlin", "country": "Deutschland", "formattedAddress": ["Tharauer Allee (Schirwindter Alee)", "14055 Berlin", "Deutschland"]}, "categories": [{"id": "4bf58dd8d48988d1fc931735", "name": "Light Rail Station", "pluralName": "Light Rail Stations", "shortName": "Light Rail", "icon": {"prefix": "https://ss3.4sqi.net/img/categories_v2/travel/lightrail_", "suffix": ".png"}, "primary": true}], "photos": {"count": 0, "groups": []}}, "referralId": "e-0-4bb8b7f27421a5932004c240-22"}, {"reasons": {"count": 0, "items": [{"summary": "This spot is popular", "type": "general", "reasonName": "globalInteractionReason"}]}, "venue": {"id": "538199a2498e510111df1306", "name": "Scholzplatz", "location": {"address": "Heerstr.", "crossStreet": "Am Postfenn", "lat": 52.50637347808597, "lng": 13.22879433631897, "labeledLatLngs": [{"label": "display", "lat": 52.50637347808597, "lng": 13.22879433631897}], "distance": 894, "postalCode": "14055", "cc": "DE", "city": "Berlin", "state": "Berlin", "country": "Deutschland", "formattedAddress": ["Heerstr. (Am Postfenn)", "14055 Berlin", "Deutschland"]}, "categories": [{"id": "4bf58dd8d48988d164941735", "name": "Plaza", "pluralName": "Plazas", "shortName": "Plaza", "icon": {"prefix": "https://ss3.4sqi.net/img/categories_v2/parks_outdoors/plaza_", "suffix": ".png"}, "primary": true}], "photos": {"count": 0, "groups": []}}, "referralId": "e-0-538199a2498e510111df1306-23"}, {"reasons": {"count": 0, "items": [{"summary": "This spot is popular", "type": "general", "reasonName": "globalInteractionReason"}]}, "venue": {"id": "4ffc0631e4b08b17d9ff567f", "name": "Smart Grand Slam - Berlin", "location": {"lat": 52.515659434065675, "lng": 13.229383917545798, "labeledLatLngs": [{"label": "display", "lat": 52.515659434065675, "lng": 13.229383917545798}], "distance": 920, "cc": "DE", "city": "Berlin", "state": "Berlin", "country": "Deutschland", "formattedAddress": ["Berlin", "Deutschland"]}, "categories": [{"id": "4bf58dd8d48988d184941735", "name": "Stadium", "pluralName": "Stadiums", "shortName": "Stadium", "icon": {"prefix": "https://ss3.4sqi.net/img/categories_v2/arts_entertainment/stadium_", "suffix": ".png"}, "primary": true}], "photos": {"count": 0, "groups": []}}, "referralId": "e-0-4ffc0631e4b08b17d9ff567f-24"}, {"reasons": {"count": 0, "items": [{"summary": "This spot is popular", "type": "general", "reasonName": "globalInteractionReason"}]}, "venue": {"id": "4e3ad8117d8b90abc32bbed9", "name": "Sardegna a tavola", "location": {"address": "Heerstr. 138", "lat": 52.50726118272222, "lng": 13.22669067658571, "labeledLatLngs": [{"label": "display", "lat": 52.50726118272222, "lng": 13.22669067658571}], "distance": 978, "postalCode": "14055", "cc": "DE", "city": "Berlin", "state": "Berlin", "country": "Deutschland", "formattedAddress": ["Heerstr. 138", "14055 Berlin", "Deutschland"]}, "categories": [{"id": "4bf58dd8d48988d110941735", "name": "Italian Restaurant", "pluralName": "Italian Restaurants", "shortName": "Italian", "icon": {"prefix": "https://ss3.4sqi.net/img/categories_v2/food/italian_", "suffix": ".png"}, "primary": true}], "photos": {"count": 0, "groups": []}}, "referralId": "e-0-4e3ad8117d8b90abc32bbed9-25"}]