[{"reasons": {"count": 0, "items": [{"summary": "This spot is popular", "type": "general", "reasonName": "globalInteractionReason"}]}, "venue": {"id": "5125030ce4b02ffb6f4c7faf", "name": "Nike Factory Store", "location": {"address": "Ahrensfelder Chausse 17", "lat": 52.547758984005384, "lng": 13.601321705465875, "labeledLatLngs": [{"label": "display", "lat": 52.547758984005384, "lng": 13.601321705465875}], "distance": 707, "postalCode": "16356", "cc": "DE", "city": "Ahrensfelde-Eiche", "state": "Brandenburg", "country": "Deutschland", "formattedAddress": ["Ahrensfelder Chausse 17", "16356 Ahrensfelde-Eiche", "Deutschland"]}, "categories": [{"id": "4bf58dd8d48988d1f2941735", "name": "Sporting Goods Shop", "pluralName": "Sporting Goods Shops", "shortName": "Sporting Goods", "icon": {"prefix": "https://ss3.4sqi.net/img/categories_v2/shops/sports_outdoors_", "suffix": ".png"}, "primary": true}], "photos": {"count": 0, "groups": []}}, "referralId": "e-0-5125030ce4b02ffb6f4c7faf-0"}, {"reasons": {"count": 0, "items": [{"summary": "This spot is popular", "type": "general", "reasonName": "globalInteractionReason"}]}, "venue": {"id": "50462a30e4b0b475f6471686", "name": "BergWerk", "location": {"address": "Kurt-Weill-Gasse 7", "crossStreet": "Stendaler Str.", "lat": 52.537724205357534, "lng": 13.603606043474246, "labeledLatLngs": [{"label": "display", "lat": 52.537724205357534, "lng": 13.603606043474246}], "distance": 419, "postalCode": "12627", "cc": "DE", "city": "Berlin", "state": "Berlin", "country": "Deutschland", "formattedAddress": ["Kurt-Weill-Gasse 7 (Stendaler Str.)", "12627 Berlin", "Deutschland"]}, "categories": [{"id": "50328a4b91d4c4b30a586d6b", "name": "Rock Climbing Spot", "pluralName": "Rock Climbing Spots", "shortName": "Rock Climbing", "icon": {"prefix": "https://ss3.4sqi.net/img/categories_v2/parks_outdoors/rockclimbing_", "suffix": ".png"}, "primary": true}], "photos": {"count": 0, "groups": []}}, "referralId": "e-0-50462a30e4b0b475f6471686-1"}, {"reasons": {"count": 0, "items": [{"summary": "This spot is popular", "type": "general", "reasonName": "globalInteractionReason"}]}, "venue": {"id": "4c4f191b9efabe9a86702d6b", "name": "ELIXIA Vitalclub Hellersdorf", "location": {"address": "Heidenauer Str. 26", "lat": 52.53518775517027, "lng": 13.607566839658343, "labeledLatLngs": [{"label": "display", "lat": 52.53518775517027, "lng": 13.607566839658343}], "distance": 773, "postalCode": "12627", "cc": "DE", "city": "Berlin", "state": "Berlin", "country": "Deutschland", "formattedAddress": ["Heidenauer Str. 26", "12627 Berlin", "Deutschland"]}, "categories": [{"id": "4bf58dd8d48988d175941735", "name": "Gym / Fitness Center", "pluralName": "Gyms or Fitness Centers", "shortName": "Gym / Fitness", "icon": {"prefix": "https://ss3.4sqi.net/img/categories_v2/building/gym_", "suffix": ".png"}, "primary": true}], "photos": {"count": 0, "groups": []}}, "referralId": "e-0-4c4f191b9efabe9a86702d6b-2"}, {"reasons": {"count": 0, "items": [{"summary": "This spot is popular", "type": "general", "reasonName": "globalInteractionReason"}]}, "venue": {"id": "4d96f81dc19fb60c666f8a65", "name": "real", "location": {"address": "Stendaler Str. 24", "lat": 52.53824358696982, "lng": 13.60502496516479, "labeledLatLngs": [{"label": "display", "lat": 52.53824358696982, "lng": 13.60502496516479}], "distance": 392, "postalCode": "12627", "cc": "DE", "city": "Hellersdorf", "state": "Berlin", "country": "Deutschland", "formattedAddress": ["Stendaler Str. 24", "12627 Hellersdorf", "Deutschland"]}, "categories": [{"id": "52f2ab2ebcbc57f1066b8b42", "name": "Big Box Store", "pluralName": "Big Box Stores", "shortName": "Big Box Store", "icon": {"prefix": "https://ss3.4sqi.net/img/categories_v2/shops/default_", "suffix": ".png"}, "primary": true}], "photos": {"count": 0, "groups": []}, "venuePage": {"id": "562589196"}}, "referralId": "e-0-4d96f81dc19fb60c666f8a65-3"}, {"reasons": {"count": 0, "items": [{"summary": "This spot is popular", "type": "general", "reasonName": "globalInteractionReason"}]}, "venue": {"id": "596eaec34f0e583e889da9c4", "name": "Decathlon Kaufpark Eiche", "location": {"address": "Landsberger Chaussee 17", "lat": 52.549302, "lng": 13.595467, "labeledLatLngs": [{"label": "display", "lat": 52.549302, "lng": 13.595467}], "distance": 999, "postalCode": "16356", "cc": "DE", "city": "Ahrensfelde-Eiche", "state": "Brandenburg", "country": "Deutschland", "formattedAddress": ["Landsberger Chaussee 17", "16356 Ahrensfelde-Eiche", "Deutschland"]}, "categories": [{"id": "4bf58dd8d48988d1f2941735", "name": "Sporting Goods Shop", "pluralName": "Sporting Goods Shops", "shortName": "Sporting Goods", "icon": {"prefix": "https://ss3.4sqi.net/img/categories_v2/shops/sports_outdoors_", "suffix": ".png"}, "primary": true}], "photos": {"count": 0, "groups": []}}, "referralId": "e-0-596eaec34f0e583e889da9c4-4"}, {"reasons": {"count": 0, "items": [{"summary": "This spot is popular", "type": "general", "reasonName": "globalInteractionReason"}]}, "venue": {"id": "4ede470e29c2b9122cf32a1e", "name": "Rossmann", "location": {"address": "Janusz-Korczak-Stra\u00dfe 27", "lat": 52.53853389456454, "lng": 13.603935898745984, "labeledLatLngs": [{"label": "display", "lat": 52.53853389456454, "lng": 13.603935898745984}], "distance": 336, "postalCode": "12627", "cc": "DE", "city": "Berlin", "state": "Berlin", "country": "Deutschland", "formattedAddress": ["Janusz-Korczak-Stra\u00dfe 27", "12627 Berlin", "Deutschland"]}, "categories": [{"id": "5745c2e4498e11e7bccabdbd", "name": "Drugstore", "pluralName": "Drugstores", "shortName": "Drugstore", "icon": {"prefix": "https://ss3.4sqi.net/img/categories_v2/shops/pharmacy_", "suffix": ".png"}, "primary": true}], "photos": {"count": 0, "groups": []}}, "referralId": "e-0-4ede470e29c2b9122cf32a1e-5"}, {"reasons": {"count": 0, "items": [{"summary": "This spot is popular", "type": "general", "reasonName": "globalInteractionReason"}]}, "venue": {"id": "4f3d3934e4b02d5ef86fc975", "name": "Kaufland", "location": {"address": "Landsberger Chaussee 17", "lat": 52.549555136877515, "lng": 13.596959881834673, "labeledLatLngs": [{"label": "display", "lat": 52.549555136877515, "lng": 13.596959881834673}], "distance": 980, "postalCode": "16356", "cc": "DE", "city": "Ahrensfelde", "state": "Brandenburg", "country": "Deutschland", "formattedAddress": ["Landsberger Chaussee 17", "16356 Ahrensfelde", "Deutschland"]}, "categories": [{"id": "52f2ab2ebcbc57f1066b8b42", "name": "Big Box Store", "pluralName": "Big Box Stores", "shortName": "Big Box Store", "icon": {"prefix": "https://ss3.4sqi.net/img/categories_v2/shops/default_", "suffix": ".png"}, "primary": true}], "photos": {"count": 0, "groups": []}, "venuePage": {"id": "455317895"}}, "referralId": "e-0-4f3d3934e4b02d5ef86fc975-6"}, {"reasons": {"count": 0, "items": [{"summary": "This spot is popular", "type": "general", "reasonName": "globalInteractionReason"}]}, "venue": {"id": "4d93030e90202d434fd5cf7e", "name": "La Paz", "location": {"address": "Kurt-Weill-Gasse 7", "lat": 52.537752358190325, "lng": 13.60311929232302, "labeledLatLngs": [{"label": "display", "lat": 52.537752358190325, "lng": 13.60311929232302}], "distance": 412, "postalCode": "12627", "cc": "DE", "city": "Berlin", "state": "Berlin", "country": "Deutschland", "formattedAddress": ["Kurt-Weill-Gasse 7", "12627 Berlin", "Deutschland"]}, "categories": [{"id": "4bf58dd8d48988d1c1941735", "name": "Mexican Restaurant", "pluralName": "Mexican Restaurants", "shortName": "Mexican", "icon": {"prefix": "https://ss3.4sqi.net/img/categories_v2/food/mexican_", "suffix": ".png"}, "primary": true}], "photos": {"count": 0, "groups": []}}, "referralId": "e-0-4d93030e90202d434fd5cf7e-7"}, {"reasons": {"count": 0, "items": [{"summary": "This spot is popular", "type": "general", "reasonName": "globalInteractionReason"}]}, "venue": {"id": "4cee4e03b80da09382e82600", "name": "MediaMarkt", "location": {"address": "Landsberger Chaussee 17", "lat": 52.54932789709909, "lng": 13.599801223925207, "labeledLatLngs": [{"label": "display", "lat": 52.54932789709909, "lng": 13.599801223925207}], "distance": 897, "postalCode": "16356", "cc": "DE", "city": "Eiche", "state": "Brandenburg", "country": "Deutschland", "formattedAddress": ["Landsberger Chaussee 17", "16356 Eiche", "Deutschland"]}, "categories": [{"id": "4bf58dd8d48988d122951735", "name": "Electronics Store", "pluralName": "Electronics Stores", "shortName": "Electronics", "icon": {"prefix": "https://ss3.4sqi.net/img/categories_v2/shops/technology_", "suffix": ".png"}, "primary": true}], "photos": {"count": 0, "groups": []}, "venuePage": {"id": "454784938"}}, "referralId": "e-0-4cee4e03b80da09382e82600-8"}, {"reasons": {"count": 0, "items": [{"summary": "This spot is popular", "type": "general", "reasonName": "globalInteractionReason"}]}, "venue": {"id": "4dbeae6693a08f9274f11d12", "name": "Saturn", "location": {"address": "Stendalerstr. 24", "lat": 52.53748187825381, "lng": 13.605126410481768, "labeledLatLngs": [{"label": "display", "lat": 52.53748187825381, "lng": 13.605126410481768}], "distance": 473, "postalCode": "12627", "cc": "DE", "city": "Hellersdorf", "state": "Berlin", "country": "Deutschland", "formattedAddress": ["Stendalerstr. 24", "12627 Hellersdorf", "Deutschland"]}, "categories": [{"id": "4bf58dd8d48988d122951735", "name": "Electronics Store", "pluralName": "Electronics Stores", "shortName": "Electronics", "icon": {"prefix": "https://ss3.4sqi.net/img/categories_v2/shops/technology_", "suffix": ".png"}, "primary": true}], "photos": {"count": 0, "groups": []}}, "referralId": "e-0-4dbeae6693a08f9274f11d12-9"}, {"reasons": {"count": 0, "items": [{"summary": "This spot is popular", "type": "general", "reasonName": "globalInteractionReason"}]}, "venue": {"id": "4bd1ff3a9854d13aacb6fa4d", "name": "KaufPark Eiche", "location": {"address": "Landsberger Chaussee 17", "lat": 52.54863233506712, "lng": 13.598908783164909, "labeledLatLngs": [{"label": "display", "lat": 52.54863233506712, "lng": 13.598908783164909}], "distance": 838, "postalCode": "16356", "cc": "DE", "city": "Ahrensfelde-Eiche", "state": "Brandenburg", "country": "Deutschland", "formattedAddress": ["Landsberger Chaussee 17", "16356 Ahrensfelde-Eiche", "Deutschland"]}, "categories": [{"id": "4bf58dd8d48988d1fd941735", "name": "Shopping Mall", "pluralName": "Shopping Malls", "shortName": "Mall", "icon": {"prefix": "https://ss3.4sqi.net/img/categories_v2/shops/mall_", "suffix": ".png"}, "primary": true}], "photos": {"count": 0, "groups": []}, "venuePage": {"id": "76683050"}}, "referralId": "e-0-4bd1ff3a9854d13aacb6fa4d-10"}, {"reasons": {"count": 0, "items": [{"summary": "This spot is popular", "type": "general", "reasonName": "globalInteractionReason"}]}, "venue": {"id": "4ea04a5382310652a82c068a", "name": "Lidl", "location": {"address": "Zossener Str. 121", "lat": 52.5453546, "lng": 13.5933741, "labeledLatLngs": [{"label": "display", "lat": 52.5453546, "lng": 13.5933741}], "distance": 762, "postalCode": "12629", "cc": "DE", "city": "Berlin", "state": "Berlin", "country": "Deutschland", "formattedAddress": ["Zossener Str. 121", "12629 Berlin-Marzahn-Hellersdorf", "Deutschland"]}, "categories": [{"id": "52f2ab2ebcbc57f1066b8b46", "name": "Supermarket", "pluralName": "Supermarkets", "shortName": "Supermarket", "icon": {"prefix": "https://ss3.4sqi.net/img/categories_v2/shops/food_grocery_", "suffix": ".png"}, "primary": true}], "photos": {"count": 0, "groups": []}, "venuePage": {"id": "578271377"}}, "referralId": "e-0-4ea04a5382310652a82c068a-11"}, {"reasons": {"count": 0, "items": [{"summary": "This spot is popular", "type": "general", "reasonName": "globalInteractionReason"}]}, "venue": {"id": "4eabf13eb8f7a50de970c65f", "name": "Lidl", "location": {"address": "Gothaer Str. 49", "lat": 52.5375869, "lng": 13.5903345, "labeledLatLngs": [{"label": "display", "lat": 52.5375869, "lng": 13.5903345}], "distance": 936, "postalCode": "12629", "cc": "DE", "city": "Berlin", "state": "Berlin", "country": "Deutschland", "formattedAddress": ["Gothaer Str. 49", "12629 Berlin-Marzahn-Hellersdorf", "Deutschland"]}, "categories": [{"id": "52f2ab2ebcbc57f1066b8b46", "name": "Supermarket", "pluralName": "Supermarkets", "shortName": "Supermarket", "icon": {"prefix": "https://ss3.4sqi.net/img/categories_v2/shops/food_grocery_", "suffix": ".png"}, "primary": true}], "photos": {"count": 0, "groups": []}, "venuePage": {"id": "574268290"}}, "referralId": "e-0-4eabf13eb8f7a50de970c65f-12"}, {"reasons": {"count": 0, "items": [{"summary": "This spot is popular", "type": "general", "reasonName": "globalInteractionReason"}]}, "venue": {"id": "4e78935e1f6ecf8d369929d4", "name": "Marktplatz Center", "location": {"address": "Stendaler Str. 24", "lat": 52.5376838096101, "lng": 13.60495349150882, "labeledLatLngs": [{"label": "display", "lat": 52.5376838096101, "lng": 13.60495349150882}], "distance": 447, "postalCode": "12627", "cc": "DE", "city": "Berlin", "state": "Berlin", "country": "Deutschland", "formattedAddress": ["Stendaler Str. 24", "12627 Berlin", "Deutschland"]}, "categories": [{"id": "4bf58dd8d48988d1fd941735", "name": "Shopping Mall", "pluralName": "Shopping Malls", "shortName": "Mall", "icon": {"prefix": "https://ss3.4sqi.net/img/categories_v2/shops/mall_", "suffix": ".png"}, "primary": true}], "photos": {"count": 0, "groups": []}}, "referralId": "e-0-4e78935e1f6ecf8d369929d4-13"}, {"reasons": {"count": 0, "items": [{"summary": "This spot is popular", "type": "general", "reasonName": "globalInteractionReason"}]}, "venue": {"id": "4cca86953a78199c777ddd36", "name": "TK Maxx", "location": {"address": "Landsberger Chaussee 17", "lat": 52.54930305910572, "lng": 13.598456959616108, "labeledLatLngs": [{"label": "display", "lat": 52.54930305910572, "lng": 13.598456959616108}], "distance": 918, "postalCode": "16356", "cc": "DE", "city": "Ahrensfelde", "state": "Brandenburg", "country": "Deutschland", "formattedAddress": ["Landsberger Chaussee 17", "16356 Ahrensfelde", "Deutschland"]}, "categories": [{"id": "4bf58dd8d48988d103951735", "name": "Clothing Store", "pluralName": "Clothing Stores", "shortName": "Apparel", "icon": {"prefix": "https://ss3.4sqi.net/img/categories_v2/shops/apparel_", "suffix": ".png"}, "primary": true}], "photos": {"count": 0, "groups": []}}, "referralId": "e-0-4cca86953a78199c777ddd36-14"}, {"reasons": {"count": 0, "items": [{"summary": "This spot is popular", "type": "general", "reasonName": "globalInteractionReason"}]}, "venue": {"id": "4f426a93e4b0e5bc1479fab6", "name": "Rossmann", "location": {"address": "Landsberger Chaussee 17", "lat": 52.5491044270597, "lng": 13.5960362977688, "labeledLatLngs": [{"label": "display", "lat": 52.5491044270597, "lng": 13.5960362977688}], "distance": 961, "postalCode": "16356", "cc": "DE", "city": "Berlin", "state": "Berlin", "country": "Deutschland", "formattedAddress": ["Landsberger Chaussee 17", "16356 Berlin", "Deutschland"]}, "categories": [{"id": "5745c2e4498e11e7bccabdbd", "name": "Drugstore", "pluralName": "Drugstores", "shortName": "Drugstore", "icon": {"prefix": "https://ss3.4sqi.net/img/categories_v2/shops/pharmacy_", "suffix": ".png"}, "primary": true}], "photos": {"count": 0, "groups": []}}, "referralId": "e-0-4f426a93e4b0e5bc1479fab6-15"}, {"reasons": {"count": 0, "items": [{"summary": "This spot is popular", "type": "general", "reasonName": "globalInteractionReason"}]}, "venue": {"id": "4adcda8bf964a520e64921e3", "name": "CineStar Hellersdorf", "location": {"address": "Stendaler Str. 25", "lat": 52.537734684745935, "lng": 13.603611981602498, "labeledLatLngs": [{"label": "display", "lat": 52.537734684745935, "lng": 13.603611981602498}], "distance": 418, "postalCode": "12627", "cc": "DE", "neighborhood": "Hellersdorf", "city": "Berlin", "state": "Berlin", "country": "Deutschland", "formattedAddress": ["Stendaler Str. 25", "12627 Berlin", "Deutschland"]}, "categories": [{"id": "4bf58dd8d48988d180941735", "name": "Multiplex", "pluralName": "Multiplexes", "shortName": "Cineplex", "icon": {"prefix": "https://ss3.4sqi.net/img/categories_v2/arts_entertainment/movietheater_", "suffix": ".png"}, "primary": true}], "photos": {"count": 0, "groups": []}}, "referralId": "e-0-4adcda8bf964a520e64921e3-16"}, {"reasons": {"count": 0, "items": [{"summary": "This spot is popular", "type": "general", "reasonName": "globalInteractionReason"}]}, "venue": {"id": "4f338e46e4b00f87aa886e3e", "name": "BackWerk", "location": {"address": "Janusz-Korszak-Str. 25", "lat": 52.53856229453936, "lng": 13.603884567966569, "labeledLatLngs": [{"label": "display", "lat": 52.53856229453936, "lng": 13.603884567966569}], "distance": 332, "postalCode": "12627", "cc": "DE", "city": "Berlin", "state": "Berlin", "country": "Deutschland", "formattedAddress": ["Janusz-Korszak-Str. 25", "12627 Berlin", "Deutschland"]}, "categories": [{"id": "4bf58dd8d48988d16a941735", "name": "Bakery", "pluralName": "Bakeries", "shortName": "Bakery", "icon": {"prefix": "https://ss3.4sqi.net/img/categories_v2/food/bakery_", "suffix": ".png"}, "primary": true}], "photos": {"count": 0, "groups": []}, "venuePage": {"id": "560106252"}}, "referralId": "e-0-4f338e46e4b00f87aa886e3e-17"}, {"reasons": {"count": 0, "items": [{"summary": "This spot is popular", "type": "general", "reasonName": "globalInteractionReason"}]}, "venue": {"id": "4f854a7ee4b00a08e3c27d33", "name": "C&A", "location": {"address": "Landsberger Chaussee 17", "lat": 52.54934103644134, "lng": 13.596026561193174, "labeledLatLngs": [{"label": "display", "lat": 52.54934103644134, "lng": 13.596026561193174}], "distance": 985, "postalCode": "16356", "cc": "DE", "city": "Ahrensfelde", "state": "Brandenburg", "country": "Deutschland", "formattedAddress": ["Landsberger Chaussee 17", "16356 Ahrensfelde", "Deutschland"]}, "categories": [{"id": "4bf58dd8d48988d103951735", "name": "Clothing Store", "pluralName": "Clothing Stores", "shortName": "Apparel", "icon": {"prefix": "https://ss3.4sqi.net/img/categories_v2/shops/apparel_", "suffix": ".png"}, "primary": true}], "photos": {"count": 0, "groups": []}}, "referralId": "e-0-4f854a7ee4b00a08e3c27d33-18"}, {"reasons": {"count": 0, "items": [{"summary": "This spot is popular", "type": "general", "reasonName": "globalInteractionReason"}]}, "venue": {"id": "4e0dd7301f6e9964ea1c72a4", "name": "YOGI-HAUS indisches Restaurant", "location": {"address": "Lyonel-Feininger-Str. 1", "lat": 52.53790448904997, "lng": 13.607232570648193, "labeledLatLngs": [{"label": "display", "lat": 52.53790448904997, "lng": 13.607232570648193}], "distance": 503, "postalCode": "12627", "cc": "DE", "city": "Berlin", "state": "Berlin", "country": "Deutschland", "formattedAddress": ["Lyonel-Feininger-Str. 1", "12627 Berlin", "Deutschland"]}, "categories": [{"id": "4bf58dd8d48988d10f941735", "name": "Indian Restaurant", "pluralName": "Indian Restaurants", "shortName": "Indian", "icon": {"prefix": "https://ss3.4sqi.net/img/categories_v2/food/indian_", "suffix": ".png"}, "primary": true}], "photos": {"count": 0, "groups": []}}, "referralId": "e-0-4e0dd7301f6e9964ea1c72a4-19"}, {"reasons": {"count": 0, "items": [{"summary": "This spot is popular", "type": "general", "reasonName": "globalInteractionReason"}]}, "venue": {"id": "4d9333bc123cd7cebfc26812", "name": "CAF\u00c9 P-TWO", "location": {"address": "Hellersdorfer Stra\u00dfe 233", "lat": 52.53607585923777, "lng": 13.602296964544355, "labeledLatLngs": [{"label": "display", "lat": 52.53607585923777, "lng": 13.602296964544355}], "distance": 598, "postalCode": "12627", "cc": "DE", "city": "Berlin", "state": "Berlin", "country": "Deutschland", "formattedAddress": ["Hellersdorfer Stra\u00dfe 233", "12627 Berlin", "Deutschland"]}, "categories": [{"id": "4bf58dd8d48988d11e941735", "name": "Cocktail Bar", "pluralName": "Cocktail Bars", "shortName": "Cocktail", "icon": {"prefix": "https://ss3.4sqi.net/img/categories_v2/nightlife/cocktails_", "suffix": ".png"}, "primary": true}], "photos": {"count": 0, "groups": []}}, "referralId": "e-0-4d9333bc123cd7cebfc26812-20"}, {"reasons": {"count": 0, "items": [{"summary": "This spot is popular", "type": "general", "reasonName": "globalInteractionReason"}]}, "venue": {"id": "4eb530bfcc2143e827dc2a8c", "name": "Video World", "location": {"address": "Hellersdorfer Str. 231", "lat": 52.53588204901293, "lng": 13.601457058999653, "labeledLatLngs": [{"label": "display", "lat": 52.53588204901293, "lng": 13.601457058999653}], "distance": 624, "postalCode": "12627", "cc": "DE", "city": "Berlin", "state": "Berlin", "country": "Deutschland", "formattedAddress": ["Hellersdorfer Str. 231", "12627 Berlin", "Deutschland"]}, "categories": [{"id": "4bf58dd8d48988d126951735", "name": "Video Store", "pluralName": "Video Stores", "shortName": "Video Store", "icon": {"prefix": "https://ss3.4sqi.net/img/categories_v2/shops/video_", "suffix": ".png"}, "primary": true}], "photos": {"count": 0, "groups": []}}, "referralId": "e-0-4eb530bfcc2143e827dc2a8c-21"}, {"reasons": {"count": 0, "items": [{"summary": "This spot is popular", "type": "general", "reasonName": "globalInteractionReason"}]}, "venue": {"id": "4e0a24aad22d658532b87593", "name": "Restaurant Lippenstift", "location": {"address": "Heidenauer Str. 17", "lat": 52.53506877285348, "lng": 13.607637179043737, "labeledLatLngs": [{"label": "display", "lat": 52.53506877285348, "lng": 13.607637179043737}], "distance": 787, "postalCode": "12627", "cc": "DE", "city": "Berlin", "state": "Berlin", "country": "Deutschland", "formattedAddress": ["Heidenauer Str. 17", "12627 Berlin", "Deutschland"]}, "categories": [{"id": "4bf58dd8d48988d10d941735", "name": "German Restaurant", "pluralName": "German Restaurants", "shortName": "German", "icon": {"prefix": "https://ss3.4sqi.net/img/categories_v2/food/german_", "suffix": ".png"}, "primary": true}], "photos": {"count": 0, "groups": []}}, "referralId": "e-0-4e0a24aad22d658532b87593-22"}, {"reasons": {"count": 0, "items": [{"summary": "This spot is popular", "type": "general", "reasonName": "globalInteractionReason"}]}, "venue": {"id": "4e6a2c5852b1c1205fae9fd9", "name": "Pfennigpfeiffer", "location": {"lat": 52.548524804742, "lng": 13.600036213861507, "labeledLatLngs": [{"label": "display", "lat": 52.548524804742, "lng": 13.600036213861507}], "distance": 806, "cc": "DE", "city": "Berlin", "state": "Berlin", "country": "Deutschland", "formattedAddress": ["Berlin", "Deutschland"]}, "categories": [{"id": "4d4b7105d754a06378d81259", "name": "Shop & Service", "pluralName": "Shops & Services", "shortName": "Shops", "icon": {"prefix": "https://ss3.4sqi.net/img/categories_v2/shops/default_", "suffix": ".png"}, "primary": true}], "photos": {"count": 0, "groups": []}}, "referralId": "e-0-4e6a2c5852b1c1205fae9fd9-23"}, {"reasons": {"count": 0, "items": [{"summary": "This spot is popular", "type": "general", "reasonName": "globalInteractionReason"}]}, "venue": {"id": "51f1357e498e9f95ac887c89", "name": "Tchibo", "location": {"address": "H\u00f6now", "lat": 52.54855861938557, "lng": 13.600099354577685, "labeledLatLngs": [{"label": "display", "lat": 52.54855861938557, "lng": 13.600099354577685}], "distance": 809, "cc": "DE", "city": "Berlin", "state": "Berlin", "country": "Deutschland", "formattedAddress": ["H\u00f6now", "Berlin", "Deutschland"]}, "categories": [{"id": "4bf58dd8d48988d1e0931735", "name": "Coffee Shop", "pluralName": "Coffee Shops", "shortName": "Coffee Shop", "icon": {"prefix": "https://ss3.4sqi.net/img/categories_v2/food/coffeeshop_", "suffix": ".png"}, "primary": true}], "photos": {"count": 0, "groups": []}}, "referralId": "e-0-51f1357e498e9f95ac887c89-24"}, {"reasons": {"count": 0, "items": [{"summary": "This spot is popular", "type": "general", "reasonName": "globalInteractionReason"}]}, "venue": {"id": "50d335753d7c145df3e87800", "name": "McDonald's", "location": {"address": "Landsberger Chaussee 17", "lat": 52.549636074382285, "lng": 13.597984313964844, "labeledLatLngs": [{"label": "display", "lat": 52.549636074382285, "lng": 13.597984313964844}], "distance": 963, "postalCode": "16356", "cc": "DE", "city": "Eiche", "state": "Brandenburg", "country": "Deutschland", "formattedAddress": ["Landsberger Chaussee 17", "16356 Eiche", "Deutschland"]}, "categories": [{"id": "4bf58dd8d48988d16e941735", "name": "Fast Food Restaurant", "pluralName": "Fast Food Restaurants", "shortName": "Fast Food", "icon": {"prefix": "https://ss3.4sqi.net/img/categories_v2/food/fastfood_", "suffix": ".png"}, "primary": true}], "photos": {"count": 0, "groups": []}}, "referralId": "e-0-50d335753d7c145df3e87800-25"}, {"reasons": {"count": 0, "items": [{"summary": "This spot is popular", "type": "general", "reasonName": "globalInteractionReason"}]}, "venue": {"id": "5012e030e4b0354628f508a6", "name": "H Bus Gothaer Stra\u00dfe/Eisenacher Stra\u00dfe", "location": {"address": "Gothaer Stra\u00dfe", "crossStreet": "Eisenacher Stra\u00dfe", "lat": 52.54063972789151, "lng": 13.589622634275445, "labeledLatLngs": [{"label": "display", "lat": 52.54063972789151, "lng": 13.589622634275445}], "distance": 884, "postalCode": "12629", "cc": "DE", "city": "Berlin", "state": "Berlin", "country": "Deutschland", "formattedAddress": ["Gothaer Stra\u00dfe (Eisenacher Stra\u00dfe)", "12629 Berlin", "Deutschland"]}, "categories": [{"id": "52f2ab2ebcbc57f1066b8b4f", "name": "Bus Stop", "pluralName": "Bus Stops", "shortName": "Bus Stop", "icon": {"prefix": "https://ss3.4sqi.net/img/categories_v2/travel/busstation_", "suffix": ".png"}, "primary": true}], "photos": {"count": 0, "groups": []}}, "referralId": "e-0-5012e030e4b0354628f508a6-26"}, {"reasons": {"count": 0, "items": [{"summary": "This spot is popular", "type": "general", "reasonName": "globalInteractionReason"}]}, "venue": {"id": "4c73b1403c26ef3bdfd7e5d5", "name": "Thalia", "location": {"address": "Landsberger Chaussee 17", "lat": 52.54907501322219, "lng": 13.598885536193848, "labeledLatLngs": [{"label": "display", "lat": 52.54907501322219, "lng": 13.598885536193848}], "distance": 885, "postalCode": "16356", "cc": "DE", "city": "Ahrensfelde", "state": "Brandenburg", "country": "Deutschland", "formattedAddress": ["Landsberger Chaussee 17", "16356 Ahrensfelde", "Deutschland"]}, "categories": [{"id": "4bf58dd8d48988d114951735", "name": "Bookstore", "pluralName": "Bookstores", "shortName": "Bookstore", "icon": {"prefix": "https://ss3.4sqi.net/img/categories_v2/shops/bookstore_", "suffix": ".png"}, "primary": true}], "photos": {"count": 0, "groups": []}}, "referralId": "e-0-4c73b1403c26ef3bdfd7e5d5-27"}]