[{"reasons": {"count": 0, "items": [{"summary": "This spot is popular", "type": "general", "reasonName": "globalInteractionReason"}]}, "venue": {"id": "4c4f191b9efabe9a86702d6b", "name": "ELIXIA Vitalclub Hellersdorf", "location": {"address": "Heidenauer Str. 26", "lat": 52.53518775517027, "lng": 13.607566839658343, "labeledLatLngs": [{"label": "display", "lat": 52.53518775517027, "lng": 13.607566839658343}], "distance": 475, "postalCode": "12627", "cc": "DE", "city": "Berlin", "state": "Berlin", "country": "Deutschland", "formattedAddress": ["Heidenauer Str. 26", "12627 Berlin", "Deutschland"]}, "categories": [{"id": "4bf58dd8d48988d175941735", "name": "Gym / Fitness Center", "pluralName": "Gyms or Fitness Centers", "shortName": "Gym / Fitness", "icon": {"prefix": "https://ss3.4sqi.net/img/categories_v2/building/gym_", "suffix": ".png"}, "primary": true}], "photos": {"count": 0, "groups": []}}, "referralId": "e-0-4c4f191b9efabe9a86702d6b-0"}, {"reasons": {"count": 0, "items": [{"summary": "This spot is popular", "type": "general", "reasonName": "globalInteractionReason"}]}, "venue": {"id": "50462a30e4b0b475f6471686", "name": "BergWerk", "location": {"address": "Kurt-Weill-Gasse 7", "crossStreet": "Stendaler Str.", "lat": 52.537724205357534, "lng": 13.603606043474246, "labeledLatLngs": [{"label": "display", "lat": 52.537724205357534, "lng": 13.603606043474246}], "distance": 853, "postalCode": "12627", "cc": "DE", "city": "Berlin", "state": "Berlin", "country": "Deutschland", "formattedAddress": ["Kurt-Weill-Gasse 7 (Stendaler Str.)", "12627 Berlin", "Deutschland"]}, "categories": [{"id": "50328a4b91d4c4b30a586d6b", "name": "Rock Climbing Spot", "pluralName": "Rock Climbing Spots", "shortName": "Rock Climbing", "icon": {"prefix": "https://ss3.4sqi.net/img/categories_v2/parks_outdoors/rockclimbing_", "suffix": ".png"}, "primary": true}], "photos": {"count": 0, "groups": []}}, "referralId": "e-0-50462a30e4b0b475f6471686-1"}, {"reasons": {"count": 0, "items": [{"summary": "This spot is popular", "type": "general", "reasonName": "globalInteractionReason"}]}, "venue": {"id": "4d96f81dc19fb60c666f8a65", "name": "real", "location": {"address": "Stendaler Str. 24", "lat": 52.53824358696982, "lng": 13.60502496516479, "labeledLatLngs": [{"label": "display", "lat": 52.53824358696982, "lng": 13.60502496516479}], "distance": 816, "postalCode": "12627", "cc": "DE", "city": "Hellersdorf", "state": "Berlin", "country": "Deutschland", "formattedAddress": ["Stendaler Str. 24", "12627 Hellersdorf", "Deutschland"]}, "categories": [{"id": "52f2ab2ebcbc57f1066b8b42", "name": "Big Box Store", "pluralName": "Big Box Stores", "shortName": "Big Box Store", "icon": {"prefix": "https://ss3.4sqi.net/img/categories_v2/shops/default_", "suffix": ".png"}, "primary": true}], "photos": {"count": 0, "groups": []}, "venuePage": {"id": "562589196"}}, "referralId": "e-0-4d96f81dc19fb60c666f8a65-2"}, {"reasons": {"count": 0, "items": [{"summary": "This spot is popular", "type": "general", "reasonName": "globalInteractionReason"}]}, "venue": {"id": "55fbdddc498e3e59b544206e", "name": "EDEKA Schaaf", "location": {"address": "Riesaer Str. 102", "lat": 52.5302409, "lng": 13.6208334, "labeledLatLngs": [{"label": "display", "lat": 52.5302409, "lng": 13.6208334}], "distance": 580, "postalCode": "12627", "cc": "DE", "city": "Berlin", "state": "Berlin", "country": "Deutschland", "formattedAddress": ["Riesaer Str. 102", "12627 Berlin", "Deutschland"]}, "categories": [{"id": "52f2ab2ebcbc57f1066b8b46", "name": "Supermarket", "pluralName": "Supermarkets", "shortName": "Supermarket", "icon": {"prefix": "https://ss3.4sqi.net/img/categories_v2/shops/food_grocery_", "suffix": ".png"}, "primary": true}], "photos": {"count": 0, "groups": []}, "venuePage": {"id": "554161780"}}, "referralId": "e-0-55fbdddc498e3e59b544206e-3"}, {"reasons": {"count": 0, "items": [{"summary": "This spot is popular", "type": "general", "reasonName": "globalInteractionReason"}]}, "venue": {"id": "4e576aa618382ada066c8316", "name": "Lidl", "location": {"address": "Mark-Twain-Stra\u00dfe 2", "lat": 52.5334361, "lng": 13.6107546, "labeledLatLngs": [{"label": "display", "lat": 52.5334361, "lng": 13.6107546}], "distance": 206, "postalCode": "12627", "cc": "DE", "city": "Berlin", "state": "Berlin", "country": "Deutschland", "formattedAddress": ["Mark-Twain-Stra\u00dfe 2", "12627 Berlin-Marzahn-Hellersdorf", "Deutschland"]}, "categories": [{"id": "52f2ab2ebcbc57f1066b8b46", "name": "Supermarket", "pluralName": "Supermarkets", "shortName": "Supermarket", "icon": {"prefix": "https://ss3.4sqi.net/img/categories_v2/shops/food_grocery_", "suffix": ".png"}, "primary": true}], "photos": {"count": 0, "groups": []}, "venuePage": {"id": "575267196"}}, "referralId": "e-0-4e576aa618382ada066c8316-4"}, {"reasons": {"count": 0, "items": [{"summary": "This spot is popular", "type": "general", "reasonName": "globalInteractionReason"}]}, "venue": {"id": "4ede470e29c2b9122cf32a1e", "name": "Rossmann", "location": {"address": "Janusz-Korczak-Stra\u00dfe 27", "lat": 52.53853389456454, "lng": 13.603935898745984, "labeledLatLngs": [{"label": "display", "lat": 52.53853389456454, "lng": 13.603935898745984}], "distance": 892, "postalCode": "12627", "cc": "DE", "city": "Berlin", "state": "Berlin", "country": "Deutschland", "formattedAddress": ["Janusz-Korczak-Stra\u00dfe 27", "12627 Berlin", "Deutschland"]}, "categories": [{"id": "5745c2e4498e11e7bccabdbd", "name": "Drugstore", "pluralName": "Drugstores", "shortName": "Drugstore", "icon": {"prefix": "https://ss3.4sqi.net/img/categories_v2/shops/pharmacy_", "suffix": ".png"}, "primary": true}], "photos": {"count": 0, "groups": []}}, "referralId": "e-0-4ede470e29c2b9122cf32a1e-5"}, {"reasons": {"count": 0, "items": [{"summary": "This spot is popular", "type": "general", "reasonName": "globalInteractionReason"}]}, "venue": {"id": "4d93030e90202d434fd5cf7e", "name": "La Paz", "location": {"address": "Kurt-Weill-Gasse 7", "lat": 52.537752358190325, "lng": 13.60311929232302, "labeledLatLngs": [{"label": "display", "lat": 52.537752358190325, "lng": 13.60311929232302}], "distance": 881, "postalCode": "12627", "cc": "DE", "city": "Berlin", "state": "Berlin", "country": "Deutschland", "formattedAddress": ["Kurt-Weill-Gasse 7", "12627 Berlin", "Deutschland"]}, "categories": [{"id": "4bf58dd8d48988d1c1941735", "name": "Mexican Restaurant", "pluralName": "Mexican Restaurants", "shortName": "Mexican", "icon": {"prefix": "https://ss3.4sqi.net/img/categories_v2/food/mexican_", "suffix": ".png"}, "primary": true}], "photos": {"count": 0, "groups": []}}, "referralId": "e-0-4d93030e90202d434fd5cf7e-6"}, {"reasons": {"count": 0, "items": [{"summary": "This spot is popular", "type": "general", "reasonName": "globalInteractionReason"}]}, "venue": {"id": "4dbeae6693a08f9274f11d12", "name": "Saturn", "location": {"address": "Stendalerstr. 24", "lat": 52.53748187825381, "lng": 13.605126410481768, "labeledLatLngs": [{"label": "display", "lat": 52.53748187825381, "lng": 13.605126410481768}], "distance": 755, "postalCode": "12627", "cc": "DE", "city": "Hellersdorf", "state": "Berlin", "country": "Deutschland", "formattedAddress": ["Stendalerstr. 24", "12627 Hellersdorf", "Deutschland"]}, "categories": [{"id": "4bf58dd8d48988d122951735", "name": "Electronics Store", "pluralName": "Electronics Stores", "shortName": "Electronics", "icon": {"prefix": "https://ss3.4sqi.net/img/categories_v2/shops/technology_", "suffix": ".png"}, "primary": true}], "photos": {"count": 0, "groups": []}}, "referralId": "e-0-4dbeae6693a08f9274f11d12-7"}, {"reasons": {"count": 0, "items": [{"summary": "This spot is popular", "type": "general", "reasonName": "globalInteractionReason"}]}, "venue": {"id": "4e78935e1f6ecf8d369929d4", "name": "Marktplatz Center", "location": {"address": "Stendaler Str. 24", "lat": 52.5376838096101, "lng": 13.60495349150882, "labeledLatLngs": [{"label": "display", "lat": 52.5376838096101, "lng": 13.60495349150882}], "distance": 778, "postalCode": "12627", "cc": "DE", "city": "Berlin", "state": "Berlin", "country": "Deutschland", "formattedAddress": ["Stendaler Str. 24", "12627 Berlin", "Deutschland"]}, "categories": [{"id": "4bf58dd8d48988d1fd941735", "name": "Shopping Mall", "pluralName": "Shopping Malls", "shortName": "Mall", "icon": {"prefix": "https://ss3.4sqi.net/img/categories_v2/shops/mall_", "suffix": ".png"}, "primary": true}], "photos": {"count": 0, "groups": []}}, "referralId": "e-0-4e78935e1f6ecf8d369929d4-8"}, {"reasons": {"count": 0, "items": [{"summary": "This spot is popular", "type": "general", "reasonName": "globalInteractionReason"}]}, "venue": {"id": "4e0a24aad22d658532b87593", "name": "Restaurant Lippenstift", "location": {"address": "Heidenauer Str. 17", "lat": 52.53506877285348, "lng": 13.607637179043737, "labeledLatLngs": [{"label": "display", "lat": 52.53506877285348, "lng": 13.607637179043737}], "distance": 465, "postalCode": "12627", "cc": "DE", "city": "Berlin", "state": "Berlin", "country": "Deutschland", "formattedAddress": ["Heidenauer Str. 17", "12627 Berlin", "Deutschland"]}, "categories": [{"id": "4bf58dd8d48988d10d941735", "name": "German Restaurant", "pluralName": "German Restaurants", "shortName": "German", "icon": {"prefix": "https://ss3.4sqi.net/img/categories_v2/food/german_", "suffix": ".png"}, "primary": true}], "photos": {"count": 0, "groups": []}}, "referralId": "e-0-4e0a24aad22d658532b87593-9"}, {"reasons": {"count": 0, "items": [{"summary": "This spot is popular", "type": "general", "reasonName": "globalInteractionReason"}]}, "venue": {"id": "522118440493eeb1e2c62043", "name": "H Riesaer Stra\u00dfe / Louis-Lewin-Stra\u00dfe", "location": {"address": "Riesaer Str.", "crossStreet": "Louis-Lewin-Str.", "lat": 52.53075177313188, "lng": 13.62081527709961, "labeledLatLngs": [{"label": "display", "lat": 52.53075177313188, "lng": 13.62081527709961}], "distance": 548, "postalCode": "12627", "cc": "DE", "city": "Berlin", "state": "Berlin", "country": "Deutschland", "formattedAddress": ["Riesaer Str. (Louis-Lewin-Str.)", "12627 Berlin", "Deutschland"]}, "categories": [{"id": "52f2ab2ebcbc57f1066b8b51", "name": "Tram Station", "pluralName": "Tram Stations", "shortName": "Tram", "icon": {"prefix": "https://ss3.4sqi.net/img/categories_v2/travel/trainstation_", "suffix": ".png"}, "primary": true}], "photos": {"count": 0, "groups": []}}, "referralId": "e-0-522118440493eeb1e2c62043-10"}, {"reasons": {"count": 0, "items": [{"summary": "This spot is popular", "type": "general", "reasonName": "globalInteractionReason"}]}, "venue": {"id": "4adcda8bf964a520e64921e3", "name": "CineStar Hellersdorf", "location": {"address": "Stendaler Str. 25", "lat": 52.537734684745935, "lng": 13.603611981602498, "labeledLatLngs": [{"label": "display", "lat": 52.537734684745935, "lng": 13.603611981602498}], "distance": 853, "postalCode": "12627", "cc": "DE", "neighborhood": "Hellersdorf", "city": "Berlin", "state": "Berlin", "country": "Deutschland", "formattedAddress": ["Stendaler Str. 25", "12627 Berlin", "Deutschland"]}, "categories": [{"id": "4bf58dd8d48988d180941735", "name": "Multiplex", "pluralName": "Multiplexes", "shortName": "Cineplex", "icon": {"prefix": "https://ss3.4sqi.net/img/categories_v2/arts_entertainment/movietheater_", "suffix": ".png"}, "primary": true}], "photos": {"count": 0, "groups": []}}, "referralId": "e-0-4adcda8bf964a520e64921e3-11"}, {"reasons": {"count": 0, "items": [{"summary": "This spot is popular", "type": "general", "reasonName": "globalInteractionReason"}]}, "venue": {"id": "4e0dd7301f6e9964ea1c72a4", "name": "YOGI-HAUS indisches Restaurant", "location": {"address": "Lyonel-Feininger-Str. 1", "lat": 52.53790448904997, "lng": 13.607232570648193, "labeledLatLngs": [{"label": "display", "lat": 52.53790448904997, "lng": 13.607232570648193}], "distance": 686, "postalCode": "12627", "cc": "DE", "city": "Berlin", "state": "Berlin", "country": "Deutschland", "formattedAddress": ["Lyonel-Feininger-Str. 1", "12627 Berlin", "Deutschland"]}, "categories": [{"id": "4bf58dd8d48988d10f941735", "name": "Indian Restaurant", "pluralName": "Indian Restaurants", "shortName": "Indian", "icon": {"prefix": "https://ss3.4sqi.net/img/categories_v2/food/indian_", "suffix": ".png"}, "primary": true}], "photos": {"count": 0, "groups": []}}, "referralId": "e-0-4e0dd7301f6e9964ea1c72a4-12"}, {"reasons": {"count": 0, "items": [{"summary": "This spot is popular", "type": "general", "reasonName": "globalInteractionReason"}]}, "venue": {"id": "4db958a2cda10f31e629bdf1", "name": "Janny's Eis", "location": {"address": "Schneeberger Str. 9", "lat": 52.53167855932515, "lng": 13.603456020355225, "labeledLatLngs": [{"label": "display", "lat": 52.53167855932515, "lng": 13.603456020355225}], "distance": 718, "postalCode": "12627", "cc": "DE", "city": "Berlin", "state": "Berlin", "country": "Deutschland", "formattedAddress": ["Schneeberger Str. 9", "12627 Berlin", "Deutschland"]}, "categories": [{"id": "4bf58dd8d48988d1c9941735", "name": "Ice Cream Shop", "pluralName": "Ice Cream Shops", "shortName": "Ice Cream", "icon": {"prefix": "https://ss3.4sqi.net/img/categories_v2/food/icecream_", "suffix": ".png"}, "primary": true}], "photos": {"count": 0, "groups": []}}, "referralId": "e-0-4db958a2cda10f31e629bdf1-13"}, {"reasons": {"count": 0, "items": [{"summary": "This spot is popular", "type": "general", "reasonName": "globalInteractionReason"}]}, "venue": {"id": "4f338e46e4b00f87aa886e3e", "name": "BackWerk", "location": {"address": "Janusz-Korszak-Str. 25", "lat": 52.53856229453936, "lng": 13.603884567966569, "labeledLatLngs": [{"label": "display", "lat": 52.53856229453936, "lng": 13.603884567966569}], "distance": 897, "postalCode": "12627", "cc": "DE", "city": "Berlin", "state": "Berlin", "country": "Deutschland", "formattedAddress": ["Janusz-Korszak-Str. 25", "12627 Berlin", "Deutschland"]}, "categories": [{"id": "4bf58dd8d48988d16a941735", "name": "Bakery", "pluralName": "Bakeries", "shortName": "Bakery", "icon": {"prefix": "https://ss3.4sqi.net/img/categories_v2/food/bakery_", "suffix": ".png"}, "primary": true}], "photos": {"count": 0, "groups": []}, "venuePage": {"id": "560106252"}}, "referralId": "e-0-4f338e46e4b00f87aa886e3e-14"}, {"reasons": {"count": 0, "items": [{"summary": "This spot is popular", "type": "general", "reasonName": "globalInteractionReason"}]}, "venue": {"id": "4d9333bc123cd7cebfc26812", "name": "CAF\u00c9 P-TWO", "location": {"address": "Hellersdorfer Stra\u00dfe 233", "lat": 52.53607585923777, "lng": 13.602296964544355, "labeledLatLngs": [{"label": "display", "lat": 52.53607585923777, "lng": 13.602296964544355}], "distance": 840, "postalCode": "12627", "cc": "DE", "city": "Berlin", "state": "Berlin", "country": "Deutschland", "formattedAddress": ["Hellersdorfer Stra\u00dfe 233", "12627 Berlin", "Deutschland"]}, "categories": [{"id": "4bf58dd8d48988d11e941735", "name": "Cocktail Bar", "pluralName": "Cocktail Bars", "shortName": "Cocktail", "icon": {"prefix": "https://ss3.4sqi.net/img/categories_v2/nightlife/cocktails_", "suffix": ".png"}, "primary": true}], "photos": {"count": 0, "groups": []}}, "referralId": "e-0-4d9333bc123cd7cebfc26812-15"}, {"reasons": {"count": 0, "items": [{"summary": "This spot is popular", "type": "general", "reasonName": "globalInteractionReason"}]}, "venue": {"id": "4eb530bfcc2143e827dc2a8c", "name": "Video World", "location": {"address": "Hellersdorfer Str. 231", "lat": 52.53588204901293, "lng": 13.601457058999653, "labeledLatLngs": [{"label": "display", "lat": 52.53588204901293, "lng": 13.601457058999653}], "distance": 886, "postalCode": "12627", "cc": "DE", "city": "Berlin", "state": "Berlin", "country": "Deutschland", "formattedAddress": ["Hellersdorfer Str. 231", "12627 Berlin", "Deutschland"]}, "categories": [{"id": "4bf58dd8d48988d126951735", "name": "Video Store", "pluralName": "Video Stores", "shortName": "Video Store", "icon": {"prefix": "https://ss3.4sqi.net/img/categories_v2/shops/video_", "suffix": ".png"}, "primary": true}], "photos": {"count": 0, "groups": []}}, "referralId": "e-0-4eb530bfcc2143e827dc2a8c-16"}]