[{"reasons": {"count": 0, "items": [{"summary": "This spot is popular", "type": "general", "reasonName": "globalInteractionReason"}]}, "venue": {"id": "4b2d0448f964a52065cc24e3", "name": "Goldhahn & Sampson", "location": {"address": "Dunckerstr. 9", "lat": 52.54219963187534, "lng": 13.420430615306818, "labeledLatLngs": [{"label": "display", "lat": 52.54219963187534, "lng": 13.420430615306818}], "distance": 195, "postalCode": "10437", "cc": "DE", "city": "Berlin", "state": "Berlin", "country": "Deutschland", "formattedAddress": ["Dunckerstr. 9", "10437 Berlin", "Deutschland"]}, "categories": [{"id": "4bf58dd8d48988d1f5941735", "name": "Gourmet Shop", "pluralName": "Gourmet Shops", "shortName": "Gourmet", "icon": {"prefix": "https://ss3.4sqi.net/img/categories_v2/shops/food_gourmet_", "suffix": ".png"}, "primary": true}], "photos": {"count": 0, "groups": []}}, "referralId": "e-0-4b2d0448f964a52065cc24e3-0"}, {"reasons": {"count": 0, "items": [{"summary": "This spot is popular", "type": "general", "reasonName": "globalInteractionReason"}]}, "venue": {"id": "54af0c2a498e85d1b90acd0f", "name": "Salt n Bone", "location": {"address": "Schliemannstr. 31", "lat": 52.54404686487403, "lng": 13.42010231458886, "labeledLatLngs": [{"label": "display", "lat": 52.54404686487403, "lng": 13.42010231458886}], "distance": 89, "postalCode": "10437", "cc": "DE", "neighborhood": "Helmholtzkiez", "city": "Berlin", "state": "Berlin", "country": "Deutschland", "formattedAddress": ["Schliemannstr. 31", "10437 Berlin", "Deutschland"]}, "categories": [{"id": "4bf58dd8d48988d155941735", "name": "Gastropub", "pluralName": "Gastropubs", "shortName": "Gastropub", "icon": {"prefix": "https://ss3.4sqi.net/img/categories_v2/food/gastropub_", "suffix": ".png"}, "primary": true}], "photos": {"count": 0, "groups": []}, "venuePage": {"id": "1358822274"}}, "referralId": "e-0-54af0c2a498e85d1b90acd0f-1"}, {"reasons": {"count": 0, "items": [{"summary": "This spot is popular", "type": "general", "reasonName": "globalInteractionReason"}]}, "venue": {"id": "577944d9498e3d8851d97c50", "name": "Hum vegan cuisine", "location": {"address": "Raumerstr. 38", "lat": 52.54365117699298, "lng": 13.41649562512907, "labeledLatLngs": [{"label": "display", "lat": 52.54365117699298, "lng": 13.41649562512907}], "distance": 163, "postalCode": "10437", "cc": "DE", "neighborhood": "Helmholtzkiez", "city": "Berlin", "state": "Berlin", "country": "Deutschland", "formattedAddress": ["Raumerstr. 38", "10437 Berlin", "Deutschland"]}, "categories": [{"id": "4bf58dd8d48988d14a941735", "name": "Vietnamese Restaurant", "pluralName": "Vietnamese Restaurants", "shortName": "Vietnamese", "icon": {"prefix": "https://ss3.4sqi.net/img/categories_v2/food/vietnamese_", "suffix": ".png"}, "primary": true}], "photos": {"count": 0, "groups": []}}, "referralId": "e-0-577944d9498e3d8851d97c50-2"}, {"reasons": {"count": 0, "items": [{"summary": "This spot is popular", "type": "general", "reasonName": "globalInteractionReason"}]}, "venue": {"id": "4df75be662845f605bb695d4", "name": "Victoria met Albert", "location": {"address": "Dunckerstr. 81", "crossStreet": "Helmholtzplatz", "lat": 52.54275011124199, "lng": 13.420867785230792, "labeledLatLngs": [{"label": "display", "lat": 52.54275011124199, "lng": 13.420867785230792}], "distance": 168, "postalCode": "10437", "cc": "DE", "city": "Berlin", "state": "Berlin", "country": "Deutschland", "formattedAddress": ["Dunckerstr. 81 (Helmholtzplatz)", "10437 Berlin", "Deutschland"]}, "categories": [{"id": "4bf58dd8d48988d104951735", "name": "Boutique", "pluralName": "Boutiques", "shortName": "Boutique", "icon": {"prefix": "https://ss3.4sqi.net/img/categories_v2/shops/apparel_boutique_", "suffix": ".png"}, "primary": true}], "photos": {"count": 0, "groups": []}}, "referralId": "e-0-4df75be662845f605bb695d4-3"}, {"reasons": {"count": 0, "items": [{"summary": "This spot is popular", "type": "general", "reasonName": "globalInteractionReason"}]}, "venue": {"id": "4adcda79f964a5208c4621e3", "name": "Wohnzimmer", "location": {"address": "Lettestr. 6", "crossStreet": "Schliemannstr.", "lat": 52.543396390064636, "lng": 13.419287620066626, "labeledLatLngs": [{"label": "display", "lat": 52.543396390064636, "lng": 13.419287620066626}], "distance": 41, "postalCode": "10437", "cc": "DE", "city": "Berlin", "state": "Berlin", "country": "Deutschland", "formattedAddress": ["Lettestr. 6 (Schliemannstr.)", "10437 Berlin", "Deutschland"]}, "categories": [{"id": "4bf58dd8d48988d16d941735", "name": "Caf\u00e9", "pluralName": "Caf\u00e9s", "shortName": "Caf\u00e9", "icon": {"prefix": "https://ss3.4sqi.net/img/categories_v2/food/cafe_", "suffix": ".png"}, "primary": true}], "photos": {"count": 0, "groups": []}}, "referralId": "e-0-4adcda79f964a5208c4621e3-4"}, {"reasons": {"count": 0, "items": [{"summary": "This spot is popular", "type": "general", "reasonName": "globalInteractionReason"}]}, "venue": {"id": "5c83b977db2aeb002cdd2841", "name": "Kajumi", "location": {"address": "Dunckerstr. 73", "lat": 52.544094, "lng": 13.421894, "labeledLatLngs": [{"label": "display", "lat": 52.544094, "lng": 13.421894}], "distance": 207, "postalCode": "10437", "cc": "DE", "city": "Berlin", "state": "Berlin", "country": "Deutschland", "formattedAddress": ["Dunckerstr. 73", "10437 Berlin", "Deutschland"]}, "categories": [{"id": "4bf58dd8d48988d1e0931735", "name": "Coffee Shop", "pluralName": "Coffee Shops", "shortName": "Coffee Shop", "icon": {"prefix": "https://ss3.4sqi.net/img/categories_v2/food/coffeeshop_", "suffix": ".png"}, "primary": true}], "photos": {"count": 0, "groups": []}}, "referralId": "e-0-5c83b977db2aeb002cdd2841-5"}, {"reasons": {"count": 0, "items": [{"summary": "This spot is popular", "type": "general", "reasonName": "globalInteractionReason"}]}, "venue": {"id": "518b8132498e7ebebf79690e", "name": "h\u00e4ppies", "location": {"address": "Dunckerstr. 85", "lat": 52.541465603578764, "lng": 13.419871504217673, "labeledLatLngs": [{"label": "display", "lat": 52.541465603578764, "lng": 13.419871504217673}], "distance": 256, "postalCode": "10437", "cc": "DE", "city": "Berlin", "state": "Berlin", "country": "Deutschland", "formattedAddress": ["Dunckerstr. 85", "10437 Berlin", "Deutschland"]}, "categories": [{"id": "4bf58dd8d48988d108941735", "name": "Dumpling Restaurant", "pluralName": "Dumpling Restaurants", "shortName": "Dumplings", "icon": {"prefix": "https://ss3.4sqi.net/img/categories_v2/food/dumplings_", "suffix": ".png"}, "primary": true}], "photos": {"count": 0, "groups": []}}, "referralId": "e-0-518b8132498e7ebebf79690e-6"}, {"reasons": {"count": 0, "items": [{"summary": "This spot is popular", "type": "general", "reasonName": "globalInteractionReason"}]}, "venue": {"id": "4be533992457a593823cab15", "name": "Pakolat", "location": {"address": "Raumerstr. 40", "lat": 52.54381372971663, "lng": 13.416153352998345, "labeledLatLngs": [{"label": "display", "lat": 52.54381372971663, "lng": 13.416153352998345}], "distance": 187, "postalCode": "10437", "cc": "DE", "city": "Berlin", "state": "Berlin", "country": "Deutschland", "formattedAddress": ["Raumerstr. 40", "10437 Berlin", "Deutschland"]}, "categories": [{"id": "4bf58dd8d48988d1e0931735", "name": "Coffee Shop", "pluralName": "Coffee Shops", "shortName": "Coffee Shop", "icon": {"prefix": "https://ss3.4sqi.net/img/categories_v2/food/coffeeshop_", "suffix": ".png"}, "primary": true}], "photos": {"count": 0, "groups": []}}, "referralId": "e-0-4be533992457a593823cab15-7"}, {"reasons": {"count": 0, "items": [{"summary": "This spot is popular", "type": "general", "reasonName": "globalInteractionReason"}]}, "venue": {"id": "581e616a4e1d9a19240c9591", "name": "h\u00f6schen", "location": {"address": "Dunckerstr. 9", "crossStreet": "Helmholtzplatz", "lat": 52.542260157110334, "lng": 13.420776128768921, "labeledLatLngs": [{"label": "display", "lat": 52.542260157110334, "lng": 13.420776128768921}], "distance": 203, "postalCode": "10437", "cc": "DE", "neighborhood": "Helmholtzkiez", "city": "Berlin", "state": "Berlin", "country": "Deutschland", "formattedAddress": ["Dunckerstr. 9 (Helmholtzplatz)", "10437 Berlin", "Deutschland"]}, "categories": [{"id": "4bf58dd8d48988d116941735", "name": "Bar", "pluralName": "Bars", "shortName": "Bar", "icon": {"prefix": "https://ss3.4sqi.net/img/categories_v2/nightlife/pub_", "suffix": ".png"}, "primary": true}], "photos": {"count": 0, "groups": []}}, "referralId": "e-0-581e616a4e1d9a19240c9591-8"}, {"reasons": {"count": 0, "items": [{"summary": "This spot is popular", "type": "general", "reasonName": "globalInteractionReason"}]}, "venue": {"id": "55a90eff498e8f5cf91f1fd9", "name": "Ushido", "location": {"address": "Lychener Str. 18", "lat": 52.54230345760376, "lng": 13.416069667398542, "labeledLatLngs": [{"label": "display", "lat": 52.54230345760376, "lng": 13.416069667398542}], "distance": 246, "postalCode": "10437", "cc": "DE", "city": "Berlin", "state": "Berlin", "country": "Deutschland", "formattedAddress": ["Lychener Str. 18", "10437 Berlin", "Deutschland"]}, "categories": [{"id": "4bf58dd8d48988d111941735", "name": "Japanese Restaurant", "pluralName": "Japanese Restaurants", "shortName": "Japanese", "icon": {"prefix": "https://ss3.4sqi.net/img/categories_v2/food/japanese_", "suffix": ".png"}, "primary": true}], "photos": {"count": 0, "groups": []}}, "referralId": "e-0-55a90eff498e8f5cf91f1fd9-9"}, {"reasons": {"count": 0, "items": [{"summary": "This spot is popular", "type": "general", "reasonName": "globalInteractionReason"}]}, "venue": {"id": "4e22dd50091a49c13e12852b", "name": "Misirlou Bar", "location": {"address": "Dunckerstr. 10", "crossStreet": "Helmholtzplatz", "lat": 52.54240865670678, "lng": 13.420687500355816, "labeledLatLngs": [{"label": "display", "lat": 52.54240865670678, "lng": 13.420687500355816}], "distance": 186, "postalCode": "10437", "cc": "DE", "city": "Berlin", "state": "Berlin", "country": "Deutschland", "formattedAddress": ["Dunckerstr. 10 (Helmholtzplatz)", "10437 Berlin", "Deutschland"]}, "categories": [{"id": "4bf58dd8d48988d116941735", "name": "Bar", "pluralName": "Bars", "shortName": "Bar", "icon": {"prefix": "https://ss3.4sqi.net/img/categories_v2/nightlife/pub_", "suffix": ".png"}, "primary": true}], "photos": {"count": 0, "groups": []}, "venuePage": {"id": "50600539"}}, "referralId": "e-0-4e22dd50091a49c13e12852b-10"}, {"reasons": {"count": 0, "items": [{"summary": "This spot is popular", "type": "general", "reasonName": "globalInteractionReason"}]}, "venue": {"id": "4b178156f964a52004c623e3", "name": "Bekarei", "location": {"address": "Dunckerstr. 23", "crossStreet": "Stargarder Str.", "lat": 52.54435463910769, "lng": 13.422632217407227, "labeledLatLngs": [{"label": "display", "lat": 52.54435463910769, "lng": 13.422632217407227}], "distance": 262, "postalCode": "10437", "cc": "DE", "city": "Berlin", "state": "Berlin", "country": "Deutschland", "formattedAddress": ["Dunckerstr. 23 (Stargarder Str.)", "10437 Berlin", "Deutschland"]}, "categories": [{"id": "4bf58dd8d48988d16a941735", "name": "Bakery", "pluralName": "Bakeries", "shortName": "Bakery", "icon": {"prefix": "https://ss3.4sqi.net/img/categories_v2/food/bakery_", "suffix": ".png"}, "primary": true}], "photos": {"count": 0, "groups": []}, "venuePage": {"id": "60206179"}}, "referralId": "e-0-4b178156f964a52004c623e3-11"}, {"reasons": {"count": 0, "items": [{"summary": "This spot is popular", "type": "general", "reasonName": "globalInteractionReason"}]}, "venue": {"id": "4e0cc5d0d1646f1517899b81", "name": "Sophak Thai Massage", "location": {"address": "Pappelallee 76", "lat": 52.543561918676424, "lng": 13.41491217809899, "labeledLatLngs": [{"label": "display", "lat": 52.543561918676424, "lng": 13.41491217809899}], "distance": 270, "postalCode": "10437", "cc": "DE", "city": "Berlin", "state": "Berlin", "country": "Deutschland", "formattedAddress": ["Pappelallee 76", "10437 Berlin", "Deutschland"]}, "categories": [{"id": "52f2ab2ebcbc57f1066b8b3c", "name": "Massage Studio", "pluralName": "Massage Studios", "shortName": "Massage Studio", "icon": {"prefix": "https://ss3.4sqi.net/img/categories_v2/shops/spa_", "suffix": ".png"}, "primary": true}], "photos": {"count": 0, "groups": []}}, "referralId": "e-0-4e0cc5d0d1646f1517899b81-12"}, {"reasons": {"count": 0, "items": [{"summary": "This spot is popular", "type": "general", "reasonName": "globalInteractionReason"}]}, "venue": {"id": "4b44db07f964a5204bfe25e3", "name": "Zia Maria", "location": {"address": "Pappelallee 32a", "lat": 52.54595611949305, "lng": 13.41762881944121, "labeledLatLngs": [{"label": "display", "lat": 52.54595611949305, "lng": 13.41762881944121}], "distance": 266, "postalCode": "10437", "cc": "DE", "city": "Berlin", "state": "Berlin", "country": "Deutschland", "formattedAddress": ["Pappelallee 32a", "10437 Berlin", "Deutschland"]}, "categories": [{"id": "4bf58dd8d48988d1ca941735", "name": "Pizza Place", "pluralName": "Pizza Places", "shortName": "Pizza", "icon": {"prefix": "https://ss3.4sqi.net/img/categories_v2/food/pizza_", "suffix": ".png"}, "primary": true}], "photos": {"count": 0, "groups": []}}, "referralId": "e-0-4b44db07f964a5204bfe25e3-13"}, {"reasons": {"count": 0, "items": [{"summary": "This spot is popular", "type": "general", "reasonName": "globalInteractionReason"}]}, "venue": {"id": "5454eda7498ee281f036eddf", "name": "Pastificio Tosatti", "location": {"address": "Schliemannstr. 14a", "lat": 52.5435, "lng": 13.419621, "labeledLatLngs": [{"label": "display", "lat": 52.5435, "lng": 13.419621}], "distance": 52, "postalCode": "10437", "cc": "DE", "neighborhood": "Helmholtzkiez", "city": "Berlin", "state": "Berlin", "country": "Deutschland", "formattedAddress": ["Schliemannstr. 14a", "10437 Berlin", "Deutschland"]}, "categories": [{"id": "4bf58dd8d48988d110941735", "name": "Italian Restaurant", "pluralName": "Italian Restaurants", "shortName": "Italian", "icon": {"prefix": "https://ss3.4sqi.net/img/categories_v2/food/italian_", "suffix": ".png"}, "primary": true}], "photos": {"count": 0, "groups": []}}, "referralId": "e-0-5454eda7498ee281f036eddf-14"}, {"reasons": {"count": 0, "items": [{"summary": "This spot is popular", "type": "general", "reasonName": "globalInteractionReason"}]}, "venue": {"id": "4af5fd2ef964a520dbff21e3", "name": "Becketts Kopf", "location": {"address": "Pappelallee 64", "lat": 52.54548368774649, "lng": 13.417096063531707, "labeledLatLngs": [{"label": "display", "lat": 52.54548368774649, "lng": 13.417096063531707}], "distance": 234, "postalCode": "10437", "cc": "DE", "city": "Berlin", "state": "Berlin", "country": "Deutschland", "formattedAddress": ["Pappelallee 64", "10437 Berlin", "Deutschland"]}, "categories": [{"id": "4bf58dd8d48988d11e941735", "name": "Cocktail Bar", "pluralName": "Cocktail Bars", "shortName": "Cocktail", "icon": {"prefix": "https://ss3.4sqi.net/img/categories_v2/nightlife/cocktails_", "suffix": ".png"}, "primary": true}], "photos": {"count": 0, "groups": []}}, "referralId": "e-0-4af5fd2ef964a520dbff21e3-15"}, {"reasons": {"count": 0, "items": [{"summary": "This spot is popular", "type": "general", "reasonName": "globalInteractionReason"}]}, "venue": {"id": "59b01c78f4b5252de07ede82", "name": "Pok\u00e9 Pelelina", "location": {"address": "Stargarder Str. 68", "lat": 52.546249985045755, "lng": 13.418940967025895, "labeledLatLngs": [{"label": "display", "lat": 52.546249985045755, "lng": 13.418940967025895}], "distance": 284, "postalCode": "10437", "cc": "DE", "neighborhood": "Prenzlauer Berg", "city": "Berlin", "state": "Berlin", "country": "Deutschland", "formattedAddress": ["Stargarder Str. 68", "10437 Berlin", "Deutschland"]}, "categories": [{"id": "52e81612bcbc57f1066b79fe", "name": "Hawaiian Restaurant", "pluralName": "Hawaiian Restaurants", "shortName": "Hawaiian", "icon": {"prefix": "https://ss3.4sqi.net/img/categories_v2/food/default_", "suffix": ".png"}, "primary": true}], "photos": {"count": 0, "groups": []}}, "referralId": "e-0-59b01c78f4b5252de07ede82-16"}, {"reasons": {"count": 0, "items": [{"summary": "This spot is popular", "type": "general", "reasonName": "globalInteractionReason"}]}, "venue": {"id": "4de93e9952b1741cdb17e0cd", "name": "Hokey Pokey", "location": {"address": "Stargarder Str. 72-73", "lat": 52.54676547402726, "lng": 13.417608402042815, "labeledLatLngs": [{"label": "display", "lat": 52.54676547402726, "lng": 13.417608402042815}], "distance": 353, "postalCode": "10437", "cc": "DE", "neighborhood": "Sch\u00f6nhauser Allee-Nord", "city": "Berlin", "state": "Berlin", "country": "Deutschland", "formattedAddress": ["Stargarder Str. 72-73", "10437 Berlin", "Deutschland"]}, "categories": [{"id": "4bf58dd8d48988d1c9941735", "name": "Ice Cream Shop", "pluralName": "Ice Cream Shops", "shortName": "Ice Cream", "icon": {"prefix": "https://ss3.4sqi.net/img/categories_v2/food/icecream_", "suffix": ".png"}, "primary": true}], "photos": {"count": 0, "groups": []}}, "referralId": "e-0-4de93e9952b1741cdb17e0cd-17"}, {"reasons": {"count": 0, "items": [{"summary": "This spot is popular", "type": "general", "reasonName": "globalInteractionReason"}]}, "venue": {"id": "52714b2e11d252b8e27b5c6f", "name": "Suzette", "location": {"address": "Pappelallee 15", "lat": 52.543356818522035, "lng": 13.414827973512976, "labeledLatLngs": [{"label": "display", "lat": 52.543356818522035, "lng": 13.414827973512976}], "distance": 278, "postalCode": "10437", "cc": "DE", "city": "Berlin", "state": "Berlin", "country": "Deutschland", "formattedAddress": ["Pappelallee 15", "10437 Berlin", "Deutschland"]}, "categories": [{"id": "52e81612bcbc57f1066b79f2", "name": "Creperie", "pluralName": "Creperies", "shortName": "Creperie", "icon": {"prefix": "https://ss3.4sqi.net/img/categories_v2/food/creperie_", "suffix": ".png"}, "primary": true}], "photos": {"count": 0, "groups": []}, "venuePage": {"id": "76940988"}}, "referralId": "e-0-52714b2e11d252b8e27b5c6f-18"}, {"reasons": {"count": 0, "items": [{"summary": "This spot is popular", "type": "general", "reasonName": "globalInteractionReason"}]}, "venue": {"id": "4b5aeda1f964a520b0da28e3", "name": "Signore Batistin", "location": {"address": "Stargarder Stra\u00dfe 16", "lat": 52.546101, "lng": 13.418705, "labeledLatLngs": [{"label": "display", "lat": 52.546101, "lng": 13.418705}], "distance": 268, "postalCode": "10437", "cc": "DE", "city": "Berlin", "state": "Berlin", "country": "Deutschland", "formattedAddress": ["Stargarder Stra\u00dfe 16", "10437 Berlin", "Deutschland"]}, "categories": [{"id": "4bf58dd8d48988d146941735", "name": "Deli / Bodega", "pluralName": "Delis / Bodegas", "shortName": "Deli / Bodega", "icon": {"prefix": "https://ss3.4sqi.net/img/categories_v2/food/deli_", "suffix": ".png"}, "primary": true}], "photos": {"count": 0, "groups": []}}, "referralId": "e-0-4b5aeda1f964a520b0da28e3-19"}, {"reasons": {"count": 0, "items": [{"summary": "This spot is popular", "type": "general", "reasonName": "globalInteractionReason"}]}, "venue": {"id": "51f02bc1498ed5e8bd0f1672", "name": "Lecker Song", "location": {"address": "Schliemannstr. 19", "lat": 52.544249, "lng": 13.42011, "labeledLatLngs": [{"label": "display", "lat": 52.544249, "lng": 13.42011}], "distance": 102, "postalCode": "10437", "cc": "DE", "city": "Berlin", "state": "Berlin", "country": "Deutschland", "formattedAddress": ["Schliemannstr. 19", "10437 Berlin", "Deutschland"]}, "categories": [{"id": "4bf58dd8d48988d1f5931735", "name": "Dim Sum Restaurant", "pluralName": "Dim Sum Restaurants", "shortName": "Dim Sum", "icon": {"prefix": "https://ss3.4sqi.net/img/categories_v2/food/dimsum_", "suffix": ".png"}, "primary": true}], "photos": {"count": 0, "groups": []}}, "referralId": "e-0-51f02bc1498ed5e8bd0f1672-20"}, {"reasons": {"count": 0, "items": [{"summary": "This spot is popular", "type": "general", "reasonName": "globalInteractionReason"}]}, "venue": {"id": "4aeaa27ff964a520fbbb21e3", "name": "Caf\u00e9 Liebling", "location": {"address": "Raumerstr. 36a", "crossStreet": "Dunckerstr.", "lat": 52.54209866252614, "lng": 13.420647382736206, "labeledLatLngs": [{"label": "display", "lat": 52.54209866252614, "lng": 13.420647382736206}], "distance": 212, "postalCode": "10437", "cc": "DE", "city": "Berlin", "state": "Berlin", "country": "Deutschland", "formattedAddress": ["Raumerstr. 36a (Dunckerstr.)", "10437 Berlin", "Deutschland"]}, "categories": [{"id": "4bf58dd8d48988d16d941735", "name": "Caf\u00e9", "pluralName": "Caf\u00e9s", "shortName": "Caf\u00e9", "icon": {"prefix": "https://ss3.4sqi.net/img/categories_v2/food/cafe_", "suffix": ".png"}, "primary": true}], "photos": {"count": 0, "groups": []}, "venuePage": {"id": "528631201"}}, "referralId": "e-0-4aeaa27ff964a520fbbb21e3-21"}, {"reasons": {"count": 0, "items": [{"summary": "This spot is popular", "type": "general", "reasonName": "globalInteractionReason"}]}, "venue": {"id": "4af28718f964a520d7e721e3", "name": "Fr\u00e4ulein Dickes", "location": {"address": "Stargarder Str. 60", "crossStreet": "Schliemannstr.", "lat": 52.545261669938675, "lng": 13.421142883356502, "labeledLatLngs": [{"label": "display", "lat": 52.545261669938675, "lng": 13.421142883356502}], "distance": 231, "postalCode": "10437", "cc": "DE", "city": "Berlin", "state": "Berlin", "country": "Deutschland", "formattedAddress": ["Stargarder Str. 60 (Schliemannstr.)", "10437 Berlin", "Deutschland"]}, "categories": [{"id": "4bf58dd8d48988d16d941735", "name": "Caf\u00e9", "pluralName": "Caf\u00e9s", "shortName": "Caf\u00e9", "icon": {"prefix": "https://ss3.4sqi.net/img/categories_v2/food/cafe_", "suffix": ".png"}, "primary": true}], "photos": {"count": 0, "groups": []}}, "referralId": "e-0-4af28718f964a520d7e721e3-22"}, {"reasons": {"count": 0, "items": [{"summary": "This spot is popular", "type": "general", "reasonName": "globalInteractionReason"}]}, "venue": {"id": "4afdbfd8f964a520872a22e3", "name": "Sasaya", "location": {"address": "Lychener Str. 50", "lat": 52.544309738166525, "lng": 13.418225103137415, "labeledLatLngs": [{"label": "display", "lat": 52.544309738166525, "lng": 13.418225103137415}], "distance": 83, "postalCode": "10437", "cc": "DE", "city": "Berlin", "state": "Berlin", "country": "Deutschland", "formattedAddress": ["Lychener Str. 50", "10437 Berlin", "Deutschland"]}, "categories": [{"id": "4bf58dd8d48988d111941735", "name": "Japanese Restaurant", "pluralName": "Japanese Restaurants", "shortName": "Japanese", "icon": {"prefix": "https://ss3.4sqi.net/img/categories_v2/food/japanese_", "suffix": ".png"}, "primary": true}], "photos": {"count": 0, "groups": []}}, "referralId": "e-0-4afdbfd8f964a520872a22e3-23"}, {"reasons": {"count": 0, "items": [{"summary": "This spot is popular", "type": "general", "reasonName": "globalInteractionReason"}]}, "venue": {"id": "4fbfe24be4b0519068103eb6", "name": "La K\u00e4serie", "location": {"address": "Lychener Str. 6", "lat": 52.541523533430656, "lng": 13.415084461337107, "labeledLatLngs": [{"label": "display", "lat": 52.541523533430656, "lng": 13.415084461337107}], "distance": 353, "postalCode": "10437", "cc": "DE", "city": "Berlin", "state": "Berlin", "country": "Deutschland", "formattedAddress": ["Lychener Str. 6", "10437 Berlin", "Deutschland"]}, "categories": [{"id": "4bf58dd8d48988d11e951735", "name": "Cheese Shop", "pluralName": "Cheese Shops", "shortName": "Cheese Shop", "icon": {"prefix": "https://ss3.4sqi.net/img/categories_v2/shops/food_cheese_", "suffix": ".png"}, "primary": true}], "photos": {"count": 0, "groups": []}}, "referralId": "e-0-4fbfe24be4b0519068103eb6-24"}, {"reasons": {"count": 0, "items": [{"summary": "This spot is popular", "type": "general", "reasonName": "globalInteractionReason"}]}, "venue": {"id": "4adcda7ef964a520db4721e3", "name": "Helmholtzplatz", "location": {"address": "Raumerstr.", "crossStreet": "Lychener Str.", "lat": 52.54308556459545, "lng": 13.418769836425781, "labeledLatLngs": [{"label": "display", "lat": 52.54308556459545, "lng": 13.418769836425781}], "distance": 68, "postalCode": "10437", "cc": "DE", "city": "Berlin", "state": "Berlin", "country": "Deutschland", "formattedAddress": ["Raumerstr. (Lychener Str.)", "10437 Berlin", "Deutschland"]}, "categories": [{"id": "4bf58dd8d48988d164941735", "name": "Plaza", "pluralName": "Plazas", "shortName": "Plaza", "icon": {"prefix": "https://ss3.4sqi.net/img/categories_v2/parks_outdoors/plaza_", "suffix": ".png"}, "primary": true}], "photos": {"count": 0, "groups": []}}, "referralId": "e-0-4adcda7ef964a520db4721e3-25"}, {"reasons": {"count": 0, "items": [{"summary": "This spot is popular", "type": "general", "reasonName": "globalInteractionReason"}]}, "venue": {"id": "5ca3a5c9598e64002c13c42d", "name": "BR\u00c4UGIER BrewPub", "location": {"address": "Stubbenkammerstr. 6", "lat": 52.54215282039202, "lng": 13.423850798790227, "labeledLatLngs": [{"label": "display", "lat": 52.54215282039202, "lng": 13.423850798790227}], "distance": 375, "postalCode": "10437", "cc": "DE", "city": "Berlin", "state": "Berlin", "country": "Deutschland", "formattedAddress": ["Stubbenkammerstr. 6", "10437 Berlin", "Deutschland"]}, "categories": [{"id": "56aa371ce4b08b9a8d57356c", "name": "Beer Bar", "pluralName": "Beer Bars", "shortName": "Beer Bar", "icon": {"prefix": "https://ss3.4sqi.net/img/categories_v2/nightlife/pub_", "suffix": ".png"}, "primary": true}], "photos": {"count": 0, "groups": []}, "venuePage": {"id": "540999516"}}, "referralId": "e-0-5ca3a5c9598e64002c13c42d-26"}, {"reasons": {"count": 0, "items": [{"summary": "This spot is popular", "type": "general", "reasonName": "globalInteractionReason"}]}, "venue": {"id": "4fcfa2eae4b05e014d3050a2", "name": "Osmans T\u00f6chter", "location": {"address": "Pappelallee 15", "lat": 52.54316300819961, "lng": 13.414681008538409, "labeledLatLngs": [{"label": "display", "lat": 52.54316300819961, "lng": 13.414681008538409}], "distance": 292, "postalCode": "10437", "cc": "DE", "neighborhood": "Helmholtzkiez", "city": "Berlin", "state": "Berlin", "country": "Deutschland", "formattedAddress": ["Pappelallee 15", "10437 Berlin", "Deutschland"]}, "categories": [{"id": "4f04af1f2fb6e1c99f3db0bb", "name": "Turkish Restaurant", "pluralName": "Turkish Restaurants", "shortName": "Turkish", "icon": {"prefix": "https://ss3.4sqi.net/img/categories_v2/food/turkish_", "suffix": ".png"}, "primary": true}], "photos": {"count": 0, "groups": []}}, "referralId": "e-0-4fcfa2eae4b05e014d3050a2-27"}, {"reasons": {"count": 0, "items": [{"summary": "This spot is popular", "type": "general", "reasonName": "globalInteractionReason"}]}, "venue": {"id": "4af18fb8f964a5205fe121e3", "name": "Maria Bonita", "location": {"address": "Danziger Str. 33", "lat": 52.540366, "lng": 13.418131, "labeledLatLngs": [{"label": "display", "lat": 52.540366, "lng": 13.418131}], "distance": 373, "postalCode": "10435", "cc": "DE", "city": "Berlin", "state": "Berlin", "country": "Deutschland", "formattedAddress": ["Danziger Str. 33", "10435 Berlin", "Deutschland"]}, "categories": [{"id": "4bf58dd8d48988d1c1941735", "name": "Mexican Restaurant", "pluralName": "Mexican Restaurants", "shortName": "Mexican", "icon": {"prefix": "https://ss3.4sqi.net/img/categories_v2/food/mexican_", "suffix": ".png"}, "primary": true}], "photos": {"count": 0, "groups": []}}, "referralId": "e-0-4af18fb8f964a5205fe121e3-28"}, {"reasons": {"count": 0, "items": [{"summary": "This spot is popular", "type": "general", "reasonName": "globalInteractionReason"}]}, "venue": {"id": "5053569be4b02204c1e360c1", "name": "BadFish", "location": {"address": "Stargarder Str. 14", "lat": 52.54668740995205, "lng": 13.417764298661544, "labeledLatLngs": [{"label": "display", "lat": 52.54668740995205, "lng": 13.417764298661544}], "distance": 342, "postalCode": "10439", "cc": "DE", "city": "Berlin", "state": "Berlin", "country": "Deutschland", "formattedAddress": ["Stargarder Str. 14", "10439 Berlin", "Deutschland"]}, "categories": [{"id": "4bf58dd8d48988d116941735", "name": "Bar", "pluralName": "Bars", "shortName": "Bar", "icon": {"prefix": "https://ss3.4sqi.net/img/categories_v2/nightlife/pub_", "suffix": ".png"}, "primary": true}], "photos": {"count": 0, "groups": []}, "venuePage": {"id": "39225621"}}, "referralId": "e-0-5053569be4b02204c1e360c1-29"}, {"reasons": {"count": 0, "items": [{"summary": "This spot is popular", "type": "general", "reasonName": "globalInteractionReason"}]}, "venue": {"id": "554b952d498eeefb080fef21", "name": "Bierlinie", "location": {"address": "Schliemannstr. 2", "lat": 52.54088497927016, "lng": 13.416760615897996, "labeledLatLngs": [{"label": "display", "lat": 52.54088497927016, "lng": 13.416760615897996}], "distance": 344, "postalCode": "10437", "cc": "DE", "city": "Berlin", "state": "Berlin", "country": "Deutschland", "formattedAddress": ["Schliemannstr. 2", "10437 Prenzlauer Berg", "Deutschland"]}, "categories": [{"id": "5370f356bcbc57f1066c94c2", "name": "Beer Store", "pluralName": "Beer Stores", "shortName": "Beer Store", "icon": {"prefix": "https://ss3.4sqi.net/img/categories_v2/nightlife/beergarden_", "suffix": ".png"}, "primary": true}], "photos": {"count": 0, "groups": []}, "venuePage": {"id": "557069257"}}, "referralId": "e-0-554b952d498eeefb080fef21-30"}, {"reasons": {"count": 0, "items": [{"summary": "This spot is popular", "type": "general", "reasonName": "globalInteractionReason"}]}, "venue": {"id": "4b893b9df964a520c62432e3", "name": "Dirty Velvet", "location": {"address": "Lychener Str. 39", "lat": 52.543724, "lng": 13.417337, "labeledLatLngs": [{"label": "display", "lat": 52.543724, "lng": 13.417337}], "distance": 106, "postalCode": "10437", "cc": "DE", "neighborhood": "Helmholtzkiez", "city": "Berlin", "state": "Berlin", "country": "Deutschland", "formattedAddress": ["Lychener Str. 39", "10437 Berlin", "Deutschland"]}, "categories": [{"id": "4bf58dd8d48988d116941735", "name": "Bar", "pluralName": "Bars", "shortName": "Bar", "icon": {"prefix": "https://ss3.4sqi.net/img/categories_v2/nightlife/pub_", "suffix": ".png"}, "primary": true}], "photos": {"count": 0, "groups": []}}, "referralId": "e-0-4b893b9df964a520c62432e3-31"}, {"reasons": {"count": 0, "items": [{"summary": "This spot is popular", "type": "general", "reasonName": "globalInteractionReason"}]}, "venue": {"id": "5bd4b4742be425002c4c7d35", "name": "Kokio", "location": {"address": "Hagenauer Str. 9", "lat": 52.539875, "lng": 13.41632, "labeledLatLngs": [{"label": "display", "lat": 52.539875, "lng": 13.41632}], "distance": 459, "postalCode": "10435", "cc": "DE", "city": "Berlin", "state": "Berlin", "country": "Deutschland", "formattedAddress": ["Hagenauer Str. 9", "10435 Berlin", "Deutschland"]}, "categories": [{"id": "4bf58dd8d48988d113941735", "name": "Korean Restaurant", "pluralName": "Korean Restaurants", "shortName": "Korean", "icon": {"prefix": "https://ss3.4sqi.net/img/categories_v2/food/korean_", "suffix": ".png"}, "primary": true}], "photos": {"count": 0, "groups": []}}, "referralId": "e-0-5bd4b4742be425002c4c7d35-32"}, {"reasons": {"count": 0, "items": [{"summary": "This spot is popular", "type": "general", "reasonName": "globalInteractionReason"}]}, "venue": {"id": "5a984687c0cacb5d67359a74", "name": "Caravaggi", "location": {"address": "Lettestra\u00dfe 3", "lat": 52.542869, "lng": 13.420122, "labeledLatLngs": [{"label": "display", "lat": 52.542869, "lng": 13.420122}], "distance": 122, "postalCode": "10437", "cc": "DE", "city": "Berlin", "state": "Berlin", "country": "Deutschland", "formattedAddress": ["Lettestra\u00dfe 3", "10437 Berlin", "Deutschland"]}, "categories": [{"id": "4bf58dd8d48988d110941735", "name": "Italian Restaurant", "pluralName": "Italian Restaurants", "shortName": "Italian", "icon": {"prefix": "https://ss3.4sqi.net/img/categories_v2/food/italian_", "suffix": ".png"}, "primary": true}], "photos": {"count": 0, "groups": []}}, "referralId": "e-0-5a984687c0cacb5d67359a74-33"}, {"reasons": {"count": 0, "items": [{"summary": "This spot is popular", "type": "general", "reasonName": "globalInteractionReason"}]}, "venue": {"id": "570a611e498e59fb697b8052", "name": "Hedwig", "location": {"address": "Raumerstr. 8", "lat": 52.5430234228502, "lng": 13.417964662903191, "labeledLatLngs": [{"label": "display", "lat": 52.5430234228502, "lng": 13.417964662903191}], "distance": 98, "postalCode": "10437", "cc": "DE", "city": "Berlin", "state": "Berlin", "country": "Deutschland", "formattedAddress": ["Raumerstr. 8", "10437 Berlin", "Deutschland"]}, "categories": [{"id": "4bf58dd8d48988d1c9941735", "name": "Ice Cream Shop", "pluralName": "Ice Cream Shops", "shortName": "Ice Cream", "icon": {"prefix": "https://ss3.4sqi.net/img/categories_v2/food/icecream_", "suffix": ".png"}, "primary": true}], "photos": {"count": 0, "groups": []}}, "referralId": "e-0-570a611e498e59fb697b8052-34"}, {"reasons": {"count": 0, "items": [{"summary": "This spot is popular", "type": "general", "reasonName": "globalInteractionReason"}]}, "venue": {"id": "55b0d184498ec2c7ef77e14c", "name": "Zum Starken August", "location": {"address": "Sch\u00f6nhauser Allee 56", "lat": 52.54370868802825, "lng": 13.412740230560303, "labeledLatLngs": [{"label": "display", "lat": 52.54370868802825, "lng": 13.412740230560303}], "distance": 417, "postalCode": "10437", "cc": "DE", "city": "Berlin", "state": "Berlin", "country": "Deutschland", "formattedAddress": ["Sch\u00f6nhauser Allee 56", "10437 Berlin", "Deutschland"]}, "categories": [{"id": "4bf58dd8d48988d116941735", "name": "Bar", "pluralName": "Bars", "shortName": "Bar", "icon": {"prefix": "https://ss3.4sqi.net/img/categories_v2/nightlife/pub_", "suffix": ".png"}, "primary": true}], "photos": {"count": 0, "groups": []}}, "referralId": "e-0-55b0d184498ec2c7ef77e14c-35"}, {"reasons": {"count": 0, "items": [{"summary": "This spot is popular", "type": "general", "reasonName": "globalInteractionReason"}]}, "venue": {"id": "5cfc2925286fda002c4622bd", "name": "Moloko", "location": {"address": "Lycherstra\u00dfe 5-6", "lat": 52.54382, "lng": 13.417691, "labeledLatLngs": [{"label": "display", "lat": 52.54382, "lng": 13.417691}], "distance": 83, "postalCode": "10437", "cc": "DE", "city": "Berlin", "state": "Berlin", "country": "Deutschland", "formattedAddress": ["Lycherstra\u00dfe 5-6", "10437 Berlin", "Deutschland"]}, "categories": [{"id": "4bf58dd8d48988d116941735", "name": "Bar", "pluralName": "Bars", "shortName": "Bar", "icon": {"prefix": "https://ss3.4sqi.net/img/categories_v2/nightlife/pub_", "suffix": ".png"}, "primary": true}], "photos": {"count": 0, "groups": []}}, "referralId": "e-0-5cfc2925286fda002c4622bd-36"}, {"reasons": {"count": 0, "items": [{"summary": "This spot is popular", "type": "general", "reasonName": "globalInteractionReason"}]}, "venue": {"id": "4f7c6674e4b076d3e797c674", "name": "BUCHBOX!", "location": {"address": "Lettestr. 5", "lat": 52.54330665081859, "lng": 13.419347069075506, "labeledLatLngs": [{"label": "display", "lat": 52.54330665081859, "lng": 13.419347069075506}], "distance": 52, "postalCode": "10437", "cc": "DE", "city": "Berlin", "state": "Berlin", "country": "Deutschland", "formattedAddress": ["Lettestr. 5", "10437 Berlin", "Deutschland"]}, "categories": [{"id": "4bf58dd8d48988d114951735", "name": "Bookstore", "pluralName": "Bookstores", "shortName": "Bookstore", "icon": {"prefix": "https://ss3.4sqi.net/img/categories_v2/shops/bookstore_", "suffix": ".png"}, "primary": true}], "photos": {"count": 0, "groups": []}}, "referralId": "e-0-4f7c6674e4b076d3e797c674-37"}, {"reasons": {"count": 0, "items": [{"summary": "This spot is popular", "type": "general", "reasonName": "globalInteractionReason"}]}, "venue": {"id": "4b3c9883f964a5206b8525e3", "name": "Al Hamra", "location": {"address": "Raumerstr. 16", "lat": 52.54178686339695, "lng": 13.42126218085173, "labeledLatLngs": [{"label": "display", "lat": 52.54178686339695, "lng": 13.42126218085173}], "distance": 265, "postalCode": "10437", "cc": "DE", "city": "Berlin", "state": "Berlin", "country": "Deutschland", "formattedAddress": ["Raumerstr. 16", "10437 Berlin", "Deutschland"]}, "categories": [{"id": "4bf58dd8d48988d115941735", "name": "Middle Eastern Restaurant", "pluralName": "Middle Eastern Restaurants", "shortName": "Middle Eastern", "icon": {"prefix": "https://ss3.4sqi.net/img/categories_v2/food/middleeastern_", "suffix": ".png"}, "primary": true}], "photos": {"count": 0, "groups": []}, "venuePage": {"id": "146792028"}}, "referralId": "e-0-4b3c9883f964a5206b8525e3-38"}, {"reasons": {"count": 0, "items": [{"summary": "This spot is popular", "type": "general", "reasonName": "globalInteractionReason"}]}, "venue": {"id": "55771844498eb08a2079f2a7", "name": "Lorch & S\u00f6hne", "location": {"address": "Danziger Str. 25", "lat": 52.54037670566916, "lng": 13.417087259925681, "labeledLatLngs": [{"label": "display", "lat": 52.54037670566916, "lng": 13.417087259925681}], "distance": 388, "postalCode": "10435", "cc": "DE", "neighborhood": "Helmholtzkiez", "city": "Berlin", "state": "Berlin", "country": "Deutschland", "formattedAddress": ["Danziger Str. 25", "10435 Berlin", "Deutschland"]}, "categories": [{"id": "4bf58dd8d48988d16d941735", "name": "Caf\u00e9", "pluralName": "Caf\u00e9s", "shortName": "Caf\u00e9", "icon": {"prefix": "https://ss3.4sqi.net/img/categories_v2/food/cafe_", "suffix": ".png"}, "primary": true}], "photos": {"count": 0, "groups": []}}, "referralId": "e-0-55771844498eb08a2079f2a7-39"}, {"reasons": {"count": 0, "items": [{"summary": "This spot is popular", "type": "general", "reasonName": "globalInteractionReason"}]}, "venue": {"id": "5af5e4aa829b0c002ba3f8a0", "name": "Anh Dao", "location": {"address": "Danziger Stra\u00dfe 42", "lat": 52.540176, "lng": 13.419122, "labeledLatLngs": [{"label": "display", "lat": 52.540176, "lng": 13.419122}], "distance": 391, "postalCode": "10435", "cc": "DE", "city": "Berlin", "state": "Berlin", "country": "Deutschland", "formattedAddress": ["Danziger Stra\u00dfe 42", "10435 Berlin", "Deutschland"]}, "categories": [{"id": "4bf58dd8d48988d14a941735", "name": "Vietnamese Restaurant", "pluralName": "Vietnamese Restaurants", "shortName": "Vietnamese", "icon": {"prefix": "https://ss3.4sqi.net/img/categories_v2/food/vietnamese_", "suffix": ".png"}, "primary": true}], "photos": {"count": 0, "groups": []}}, "referralId": "e-0-5af5e4aa829b0c002ba3f8a0-40"}, {"reasons": {"count": 0, "items": [{"summary": "This spot is popular", "type": "general", "reasonName": "globalInteractionReason"}]}, "venue": {"id": "4c377b4adfb0e21ebfddaca8", "name": "Fischfabrik", "location": {"address": "Danziger Str. 24", "crossStreet": "Schliemannstr.", "lat": 52.539986940532955, "lng": 13.41709895968961, "labeledLatLngs": [{"label": "display", "lat": 52.539986940532955, "lng": 13.41709895968961}], "distance": 430, "postalCode": "10435", "cc": "DE", "city": "Berlin", "state": "Berlin", "country": "Deutschland", "formattedAddress": ["Danziger Str. 24 (Schliemannstr.)", "10435 Berlin", "Deutschland"]}, "categories": [{"id": "4bf58dd8d48988d1ce941735", "name": "Seafood Restaurant", "pluralName": "Seafood Restaurants", "shortName": "Seafood", "icon": {"prefix": "https://ss3.4sqi.net/img/categories_v2/food/seafood_", "suffix": ".png"}, "primary": true}], "photos": {"count": 0, "groups": []}}, "referralId": "e-0-4c377b4adfb0e21ebfddaca8-41"}, {"reasons": {"count": 0, "items": [{"summary": "This spot is popular", "type": "general", "reasonName": "globalInteractionReason"}]}, "venue": {"id": "52c4840d11d221d9ea8d6277", "name": "Trattoria Zoe", "location": {"address": "Senefelderstr. 10", "crossStreet": "Stubbenkammerstr.", "lat": 52.541842, "lng": 13.423225, "labeledLatLngs": [{"label": "display", "lat": 52.541842, "lng": 13.423225}], "distance": 357, "postalCode": "10437", "cc": "DE", "city": "Berlin", "state": "Berlin", "country": "Deutschland", "formattedAddress": ["Senefelderstr. 10 (Stubbenkammerstr.)", "10437 Berlin", "Deutschland"]}, "categories": [{"id": "55a5a1ebe4b013909087cb7f", "name": "Trattoria/Osteria", "pluralName": "Trattorias/Osterias", "shortName": "Trattoria/Osteria", "icon": {"prefix": "https://ss3.4sqi.net/img/categories_v2/food/italian_", "suffix": ".png"}, "primary": true}], "photos": {"count": 0, "groups": []}}, "referralId": "e-0-52c4840d11d221d9ea8d6277-42"}, {"reasons": {"count": 0, "items": [{"summary": "This spot is popular", "type": "general", "reasonName": "globalInteractionReason"}]}, "venue": {"id": "565c1237498eccbbe5a6aa68", "name": "Takumi NINE", "location": {"address": "Raumerstr. 1", "crossStreet": "Pappelallee", "lat": 52.54382, "lng": 13.415724, "labeledLatLngs": [{"label": "display", "lat": 52.54382, "lng": 13.415724}], "distance": 216, "postalCode": "10437", "cc": "DE", "neighborhood": "Helmholtzkiez", "city": "Berlin", "state": "Berlin", "country": "Deutschland", "formattedAddress": ["Raumerstr. 1 (Pappelallee)", "10437 Berlin", "Deutschland"]}, "categories": [{"id": "55a59bace4b013909087cb24", "name": "Ramen Restaurant", "pluralName": "Ramen Restaurants", "shortName": "Ramen", "icon": {"prefix": "https://ss3.4sqi.net/img/categories_v2/food/ramen_", "suffix": ".png"}, "primary": true}], "photos": {"count": 0, "groups": []}}, "referralId": "e-0-565c1237498eccbbe5a6aa68-43"}, {"reasons": {"count": 0, "items": [{"summary": "This spot is popular", "type": "general", "reasonName": "globalInteractionReason"}]}, "venue": {"id": "5b2d5cd966f3cd00397d8ea3", "name": "Dr. Maury", "location": {"address": "Sch\u00f6nhauser 62", "lat": 52.54571779653821, "lng": 13.412921661343049, "labeledLatLngs": [{"label": "display", "lat": 52.54571779653821, "lng": 13.412921661343049}], "distance": 463, "cc": "DE", "city": "Berlin", "state": "Berlin", "country": "Deutschland", "formattedAddress": ["Sch\u00f6nhauser 62", "Berlin", "Deutschland"]}, "categories": [{"id": "4bf58dd8d48988d123941735", "name": "Wine Bar", "pluralName": "Wine Bars", "shortName": "Wine Bar", "icon": {"prefix": "https://ss3.4sqi.net/img/categories_v2/food/winery_", "suffix": ".png"}, "primary": true}], "photos": {"count": 0, "groups": []}}, "referralId": "e-0-5b2d5cd966f3cd00397d8ea3-44"}, {"reasons": {"count": 0, "items": [{"summary": "This spot is popular", "type": "general", "reasonName": "globalInteractionReason"}]}, "venue": {"id": "4d84cc015e70224b01141409", "name": "Kochhaus", "location": {"address": "Sch\u00f6nhauser Allee 46", "lat": 52.54143285682619, "lng": 13.41248700530223, "labeledLatLngs": [{"label": "display", "lat": 52.54143285682619, "lng": 13.41248700530223}], "distance": 502, "postalCode": "10437", "cc": "DE", "neighborhood": "Prenzlauer Berg, Berlin", "city": "Berlin", "state": "Berlin", "country": "Deutschland", "formattedAddress": ["Sch\u00f6nhauser Allee 46", "10437 Berlin", "Deutschland"]}, "categories": [{"id": "4bf58dd8d48988d1f5941735", "name": "Gourmet Shop", "pluralName": "Gourmet Shops", "shortName": "Gourmet", "icon": {"prefix": "https://ss3.4sqi.net/img/categories_v2/shops/food_gourmet_", "suffix": ".png"}, "primary": true}], "photos": {"count": 0, "groups": []}}, "referralId": "e-0-4d84cc015e70224b01141409-45"}, {"reasons": {"count": 0, "items": [{"summary": "This spot is popular", "type": "general", "reasonName": "globalInteractionReason"}]}, "venue": {"id": "4b0d7a5df964a520394923e3", "name": "Pizza Nostra", "location": {"address": "Lychener Str. 2", "crossStreet": "Danziger Str.", "lat": 52.540985, "lng": 13.414694, "labeledLatLngs": [{"label": "display", "lat": 52.540985, "lng": 13.414694}], "distance": 414, "cc": "DE", "city": "Berlin", "state": "Berlin", "country": "Deutschland", "formattedAddress": ["Lychener Str. 2 (Danziger Str.)", "Berlin", "Deutschland"]}, "categories": [{"id": "4bf58dd8d48988d1ca941735", "name": "Pizza Place", "pluralName": "Pizza Places", "shortName": "Pizza", "icon": {"prefix": "https://ss3.4sqi.net/img/categories_v2/food/pizza_", "suffix": ".png"}, "primary": true}], "photos": {"count": 0, "groups": []}}, "referralId": "e-0-4b0d7a5df964a520394923e3-46"}, {"reasons": {"count": 0, "items": [{"summary": "This spot is popular", "type": "general", "reasonName": "globalInteractionReason"}]}, "venue": {"id": "5527c483498ea157a1b1a740", "name": "Friedl R\u00f6sterei & Kekse", "location": {"address": "Pappelallee 35", "lat": 52.546363202401665, "lng": 13.418019888019916, "labeledLatLngs": [{"label": "display", "lat": 52.546363202401665, "lng": 13.418019888019916}], "distance": 303, "postalCode": "10437", "cc": "DE", "city": "Berlin", "state": "Berlin", "country": "Deutschland", "formattedAddress": ["Pappelallee 35", "10437 Berlin", "Deutschland"]}, "categories": [{"id": "4bf58dd8d48988d16a941735", "name": "Bakery", "pluralName": "Bakeries", "shortName": "Bakery", "icon": {"prefix": "https://ss3.4sqi.net/img/categories_v2/food/bakery_", "suffix": ".png"}, "primary": true}], "photos": {"count": 0, "groups": []}}, "referralId": "e-0-5527c483498ea157a1b1a740-47"}, {"reasons": {"count": 0, "items": [{"summary": "This spot is popular", "type": "general", "reasonName": "globalInteractionReason"}]}, "venue": {"id": "4f85abf310812d9ad28b5a03", "name": "La Kritzeria", "location": {"address": "Stubbenkammerstr. 3", "lat": 52.54191870395446, "lng": 13.42452689933416, "labeledLatLngs": [{"label": "display", "lat": 52.54191870395446, "lng": 13.42452689933416}], "distance": 428, "postalCode": "10437", "cc": "DE", "city": "Berlin", "state": "Berlin", "country": "Deutschland", "formattedAddress": ["Stubbenkammerstr. 3", "10437 Berlin", "Deutschland"]}, "categories": [{"id": "4bf58dd8d48988d117951735", "name": "Candy Store", "pluralName": "Candy Stores", "shortName": "Candy Store", "icon": {"prefix": "https://ss3.4sqi.net/img/categories_v2/shops/candystore_", "suffix": ".png"}, "primary": true}], "photos": {"count": 0, "groups": []}, "venuePage": {"id": "385408856"}}, "referralId": "e-0-4f85abf310812d9ad28b5a03-48"}, {"reasons": {"count": 0, "items": [{"summary": "This spot is popular", "type": "general", "reasonName": "globalInteractionReason"}]}, "venue": {"id": "4b2b45c7f964a5207fb524e3", "name": "Kutzner & Kutzner", "location": {"address": "Sch\u00f6nhauser Allee 65", "crossStreet": "Gaudystr.", "lat": 52.54628748628879, "lng": 13.41309057477672, "labeledLatLngs": [{"label": "display", "lat": 52.54628748628879, "lng": 13.41309057477672}], "distance": 488, "postalCode": "10437", "cc": "DE", "city": "Berlin", "state": "Berlin", "country": "Deutschland", "formattedAddress": ["Sch\u00f6nhauser Allee 65 (Gaudystr.)", "10437 Berlin", "Deutschland"]}, "categories": [{"id": "52f2ab2ebcbc57f1066b8b45", "name": "Organic Grocery", "pluralName": "Organic Groceries", "shortName": "Organic Grocery", "icon": {"prefix": "https://ss3.4sqi.net/img/categories_v2/shops/food_grocery_", "suffix": ".png"}, "primary": true}], "photos": {"count": 0, "groups": []}}, "referralId": "e-0-4b2b45c7f964a5207fb524e3-49"}, {"reasons": {"count": 0, "items": [{"summary": "This spot is popular", "type": "general", "reasonName": "globalInteractionReason"}]}, "venue": {"id": "56fd0500498e4f56df2da93a", "name": "OAK & ICE", "location": {"address": "Sch\u00f6nhauser Allee 52", "lat": 52.54286062146601, "lng": 13.412397943671383, "labeledLatLngs": [{"label": "display", "lat": 52.54286062146601, "lng": 13.412397943671383}], "distance": 450, "postalCode": "10437", "cc": "DE", "city": "Berlin", "state": "Berlin", "country": "Deutschland", "formattedAddress": ["Sch\u00f6nhauser Allee 52", "10437 Berlin", "Deutschland"]}, "categories": [{"id": "4bf58dd8d48988d1c9941735", "name": "Ice Cream Shop", "pluralName": "Ice Cream Shops", "shortName": "Ice Cream", "icon": {"prefix": "https://ss3.4sqi.net/img/categories_v2/food/icecream_", "suffix": ".png"}, "primary": true}], "photos": {"count": 0, "groups": []}, "venuePage": {"id": "173227555"}}, "referralId": "e-0-56fd0500498e4f56df2da93a-50"}, {"reasons": {"count": 0, "items": [{"summary": "This spot is popular", "type": "general", "reasonName": "globalInteractionReason"}]}, "venue": {"id": "5a5ca954fc9e94066537331d", "name": "Tilda", "location": {"address": "Raumerstr. 7", "crossStreet": "Helmholtzplatz", "lat": 52.5429469102725, "lng": 13.4177827835083, "labeledLatLngs": [{"label": "display", "lat": 52.5429469102725, "lng": 13.4177827835083}], "distance": 112, "postalCode": "10437", "cc": "DE", "city": "Berlin", "state": "Berlin", "country": "Deutschland", "formattedAddress": ["Raumerstr. 7 (Helmholtzplatz)", "10437 Berlin", "Deutschland"]}, "categories": [{"id": "4bf58dd8d48988d16d941735", "name": "Caf\u00e9", "pluralName": "Caf\u00e9s", "shortName": "Caf\u00e9", "icon": {"prefix": "https://ss3.4sqi.net/img/categories_v2/food/cafe_", "suffix": ".png"}, "primary": true}], "photos": {"count": 0, "groups": []}}, "referralId": "e-0-5a5ca954fc9e94066537331d-51"}, {"reasons": {"count": 0, "items": [{"summary": "This spot is popular", "type": "general", "reasonName": "globalInteractionReason"}]}, "venue": {"id": "4b01c059f964a520244522e3", "name": "Zweistrom", "location": {"address": "Kollwitzstr. 104", "lat": 52.5393128298324, "lng": 13.421396575082154, "labeledLatLngs": [{"label": "display", "lat": 52.5393128298324, "lng": 13.421396575082154}], "distance": 515, "postalCode": "10435", "cc": "DE", "city": "Berlin", "state": "Berlin", "country": "Deutschland", "formattedAddress": ["Kollwitzstr. 104", "10435 Berlin", "Deutschland"]}, "categories": [{"id": "4bf58dd8d48988d10b941735", "name": "Falafel Restaurant", "pluralName": "Falafel Restaurants", "shortName": "Falafel", "icon": {"prefix": "https://ss3.4sqi.net/img/categories_v2/food/falafel_", "suffix": ".png"}, "primary": true}], "photos": {"count": 0, "groups": []}}, "referralId": "e-0-4b01c059f964a520244522e3-52"}, {"reasons": {"count": 0, "items": [{"summary": "This spot is popular", "type": "general", "reasonName": "globalInteractionReason"}]}, "venue": {"id": "4b0fc4cef964a520ba6423e3", "name": "Suicide Sue", "location": {"address": "Dunckerstr. 2", "lat": 52.540462, "lng": 13.419114, "labeledLatLngs": [{"label": "display", "lat": 52.540462, "lng": 13.419114}], "distance": 359, "postalCode": "10437", "cc": "DE", "city": "Berlin", "state": "Berlin", "country": "Deutschland", "formattedAddress": ["Dunckerstr. 2", "10437 Berlin", "Deutschland"]}, "categories": [{"id": "4bf58dd8d48988d16d941735", "name": "Caf\u00e9", "pluralName": "Caf\u00e9s", "shortName": "Caf\u00e9", "icon": {"prefix": "https://ss3.4sqi.net/img/categories_v2/food/cafe_", "suffix": ".png"}, "primary": true}], "photos": {"count": 0, "groups": []}}, "referralId": "e-0-4b0fc4cef964a520ba6423e3-53"}, {"reasons": {"count": 0, "items": [{"summary": "This spot is popular", "type": "general", "reasonName": "globalInteractionReason"}]}, "venue": {"id": "5471f736498ea09f2bcf22bb", "name": "Liquid Garden", "location": {"address": "Stargarder Str. 72", "lat": 52.54680914983472, "lng": 13.41750318547853, "labeledLatLngs": [{"label": "display", "lat": 52.54680914983472, "lng": 13.41750318547853}], "distance": 359, "postalCode": "10437", "cc": "DE", "city": "Berlin", "state": "Berlin", "country": "Deutschland", "formattedAddress": ["Stargarder Str. 72", "10437 Berlin", "Deutschland"]}, "categories": [{"id": "4bf58dd8d48988d112941735", "name": "Juice Bar", "pluralName": "Juice Bars", "shortName": "Juice Bar", "icon": {"prefix": "https://ss3.4sqi.net/img/categories_v2/food/juicebar_", "suffix": ".png"}, "primary": true}], "photos": {"count": 0, "groups": []}}, "referralId": "e-0-5471f736498ea09f2bcf22bb-54"}, {"reasons": {"count": 0, "items": [{"summary": "This spot is popular", "type": "general", "reasonName": "globalInteractionReason"}]}, "venue": {"id": "581f455269b32f21331d716b", "name": "Mrs Robinson's", "location": {"address": "Pappelallee 29", "lat": 52.54543117576079, "lng": 13.417085178151915, "labeledLatLngs": [{"label": "display", "lat": 52.54543117576079, "lng": 13.417085178151915}], "distance": 229, "postalCode": "10437", "cc": "DE", "neighborhood": "Helmholtzkiez", "city": "Berlin", "state": "Berlin", "country": "Deutschland", "formattedAddress": ["Pappelallee 29", "10437 Berlin", "Deutschland"]}, "categories": [{"id": "4bf58dd8d48988d142941735", "name": "Asian Restaurant", "pluralName": "Asian Restaurants", "shortName": "Asian", "icon": {"prefix": "https://ss3.4sqi.net/img/categories_v2/food/asian_", "suffix": ".png"}, "primary": true}], "photos": {"count": 0, "groups": []}}, "referralId": "e-0-581f455269b32f21331d716b-55"}, {"reasons": {"count": 0, "items": [{"summary": "This spot is popular", "type": "general", "reasonName": "globalInteractionReason"}]}, "venue": {"id": "53d95fce498e8e0d4b39488c", "name": "CAF\u00c9 gestern, heute & morgen", "location": {"address": "Gaudystr. 1", "crossStreet": "Sch\u00f6nhauser Allee", "lat": 52.546792, "lng": 13.412589, "labeledLatLngs": [{"label": "display", "lat": 52.546792, "lng": 13.412589}], "distance": 549, "postalCode": "10437", "cc": "DE", "city": "Berlin", "state": "Berlin", "country": "Deutschland", "formattedAddress": ["Gaudystr. 1 (Sch\u00f6nhauser Allee)", "10437 Berlin", "Deutschland"]}, "categories": [{"id": "4bf58dd8d48988d16d941735", "name": "Caf\u00e9", "pluralName": "Caf\u00e9s", "shortName": "Caf\u00e9", "icon": {"prefix": "https://ss3.4sqi.net/img/categories_v2/food/cafe_", "suffix": ".png"}, "primary": true}], "photos": {"count": 0, "groups": []}}, "referralId": "e-0-53d95fce498e8e0d4b39488c-56"}, {"reasons": {"count": 0, "items": [{"summary": "This spot is popular", "type": "general", "reasonName": "globalInteractionReason"}]}, "venue": {"id": "50bcfaa1e4b0de82eb92e1bb", "name": "Falafel Aladdin", "location": {"address": "Stargarder Str. 50", "lat": 52.543959892355346, "lng": 13.42430591583252, "labeledLatLngs": [{"label": "display", "lat": 52.543959892355346, "lng": 13.42430591583252}], "distance": 366, "postalCode": "10437", "cc": "DE", "city": "Berlin", "state": "Berlin", "country": "Deutschland", "formattedAddress": ["Stargarder Str. 50", "10437 Berlin", "Deutschland"]}, "categories": [{"id": "4bf58dd8d48988d10b941735", "name": "Falafel Restaurant", "pluralName": "Falafel Restaurants", "shortName": "Falafel", "icon": {"prefix": "https://ss3.4sqi.net/img/categories_v2/food/falafel_", "suffix": ".png"}, "primary": true}], "photos": {"count": 0, "groups": []}}, "referralId": "e-0-50bcfaa1e4b0de82eb92e1bb-57"}, {"reasons": {"count": 0, "items": [{"summary": "This spot is popular", "type": "general", "reasonName": "globalInteractionReason"}]}, "venue": {"id": "4adcda8df964a520784a21e3", "name": "Ausland", "location": {"address": "Lychener Str. 60", "lat": 52.54486043741404, "lng": 13.419425280749445, "labeledLatLngs": [{"label": "display", "lat": 52.54486043741404, "lng": 13.419425280749445}], "distance": 134, "postalCode": "10437", "cc": "DE", "city": "Berlin", "state": "Berlin", "country": "Deutschland", "formattedAddress": ["Lychener Str. 60", "10437 Berlin", "Deutschland"]}, "categories": [{"id": "4bf58dd8d48988d1e5931735", "name": "Music Venue", "pluralName": "Music Venues", "shortName": "Music Venue", "icon": {"prefix": "https://ss3.4sqi.net/img/categories_v2/arts_entertainment/musicvenue_", "suffix": ".png"}, "primary": true}], "photos": {"count": 0, "groups": []}}, "referralId": "e-0-4adcda8df964a520784a21e3-58"}, {"reasons": {"count": 0, "items": [{"summary": "This spot is popular", "type": "general", "reasonName": "globalInteractionReason"}]}, "venue": {"id": "4b07c14af964a520cbff22e3", "name": "Der Aussteiger", "location": {"address": "Danziger Strasse 41", "lat": 52.54017571703758, "lng": 13.418877943306525, "labeledLatLngs": [{"label": "display", "lat": 52.54017571703758, "lng": 13.418877943306525}], "distance": 391, "cc": "DE", "city": "Berlin", "state": "Berlin", "country": "Deutschland", "formattedAddress": ["Danziger Strasse 41", "Berlin", "Deutschland"]}, "categories": [{"id": "52f2ab2ebcbc57f1066b8b22", "name": "Outdoor Supply Store", "pluralName": "Outdoor Supply Stores", "shortName": "Outdoor Supplies", "icon": {"prefix": "https://ss3.4sqi.net/img/categories_v2/shops/default_", "suffix": ".png"}, "primary": true}], "photos": {"count": 0, "groups": []}}, "referralId": "e-0-4b07c14af964a520cbff22e3-59"}, {"reasons": {"count": 0, "items": [{"summary": "This spot is popular", "type": "general", "reasonName": "globalInteractionReason"}]}, "venue": {"id": "59ea4f124ce0665bc89be33a", "name": "Southern Vittles", "location": {"address": "Lychener Str. 6", "lat": 52.541301840711284, "lng": 13.41489644693032, "labeledLatLngs": [{"label": "display", "lat": 52.541301840711284, "lng": 13.41489644693032}], "distance": 380, "postalCode": "10437", "cc": "DE", "city": "Berlin", "state": "Berlin", "country": "Deutschland", "formattedAddress": ["Lychener Str. 6", "10437 Berlin", "Deutschland"]}, "categories": [{"id": "4bf58dd8d48988d14f941735", "name": "Southern / Soul Food Restaurant", "pluralName": "Southern / Soul Food Restaurants", "shortName": "Southern / Soul", "icon": {"prefix": "https://ss3.4sqi.net/img/categories_v2/food/southern_", "suffix": ".png"}, "primary": true}], "photos": {"count": 0, "groups": []}}, "referralId": "e-0-59ea4f124ce0665bc89be33a-60"}, {"reasons": {"count": 0, "items": [{"summary": "This spot is popular", "type": "general", "reasonName": "globalInteractionReason"}]}, "venue": {"id": "52570f7311d27f925e6b81a2", "name": "Monterey Bar", "location": {"address": "Danziger Str. 61", "lat": 52.53963049460394, "lng": 13.422444462776184, "labeledLatLngs": [{"label": "display", "lat": 52.53963049460394, "lng": 13.422444462776184}], "distance": 511, "postalCode": "10435", "cc": "DE", "city": "Berlin", "state": "Berlin", "country": "Deutschland", "formattedAddress": ["Danziger Str. 61", "10435 Berlin", "Deutschland"]}, "categories": [{"id": "56aa371ce4b08b9a8d57356c", "name": "Beer Bar", "pluralName": "Beer Bars", "shortName": "Beer Bar", "icon": {"prefix": "https://ss3.4sqi.net/img/categories_v2/nightlife/pub_", "suffix": ".png"}, "primary": true}], "photos": {"count": 0, "groups": []}, "venuePage": {"id": "72402800"}}, "referralId": "e-0-52570f7311d27f925e6b81a2-61"}, {"reasons": {"count": 0, "items": [{"summary": "This spot is popular", "type": "general", "reasonName": "globalInteractionReason"}]}, "venue": {"id": "5c714d25872f7d0039a39153", "name": "SPRO Scones Bakery & Coffee", "location": {"address": "Sch\u00f6nhauser Allee 50A", "lat": 52.542423, "lng": 13.412743, "labeledLatLngs": [{"label": "display", "lat": 52.542423, "lng": 13.412743}], "distance": 440, "postalCode": "10437", "cc": "DE", "city": "Berlin", "state": "Berlin", "country": "Deutschland", "formattedAddress": ["Sch\u00f6nhauser Allee 50A", "10437 Berlin", "Deutschland"]}, "categories": [{"id": "4bf58dd8d48988d16a941735", "name": "Bakery", "pluralName": "Bakeries", "shortName": "Bakery", "icon": {"prefix": "https://ss3.4sqi.net/img/categories_v2/food/bakery_", "suffix": ".png"}, "primary": true}], "photos": {"count": 0, "groups": []}}, "referralId": "e-0-5c714d25872f7d0039a39153-62"}, {"reasons": {"count": 0, "items": [{"summary": "This spot is popular", "type": "general", "reasonName": "globalInteractionReason"}]}, "venue": {"id": "5a6dd12028374e56b2733adb", "name": "Zeit f\u00fcr Brot", "location": {"address": "Sch\u00f6nhauser Allee 144", "crossStreet": "Eberswalder Str.", "lat": 52.54115904393887, "lng": 13.411777183842078, "labeledLatLngs": [{"label": "display", "lat": 52.54115904393887, "lng": 13.411777183842078}], "distance": 559, "postalCode": "10435", "cc": "DE", "neighborhood": "Sch\u00f6nhauser Allee-Nord", "city": "Berlin", "state": "Berlin", "country": "Deutschland", "formattedAddress": ["Sch\u00f6nhauser Allee 144 (Eberswalder Str.)", "10435 Berlin", "Deutschland"]}, "categories": [{"id": "4bf58dd8d48988d16a941735", "name": "Bakery", "pluralName": "Bakeries", "shortName": "Bakery", "icon": {"prefix": "https://ss3.4sqi.net/img/categories_v2/food/bakery_", "suffix": ".png"}, "primary": true}], "photos": {"count": 0, "groups": []}}, "referralId": "e-0-5a6dd12028374e56b2733adb-63"}, {"reasons": {"count": 0, "items": [{"summary": "This spot is popular", "type": "general", "reasonName": "globalInteractionReason"}]}, "venue": {"id": "5afff400012358002cd4f92f", "name": "Kaffee.Bar", "location": {"address": "Stargarder Str. 55a", "lat": 52.54462786807113, "lng": 13.422829466378403, "labeledLatLngs": [{"label": "display", "lat": 52.54462786807113, "lng": 13.422829466378403}], "distance": 285, "postalCode": "10437", "cc": "DE", "city": "Berlin", "state": "Berlin", "country": "Deutschland", "formattedAddress": ["Stargarder Str. 55a", "10437 Berlin", "Deutschland"]}, "categories": [{"id": "4bf58dd8d48988d16d941735", "name": "Caf\u00e9", "pluralName": "Caf\u00e9s", "shortName": "Caf\u00e9", "icon": {"prefix": "https://ss3.4sqi.net/img/categories_v2/food/cafe_", "suffix": ".png"}, "primary": true}], "photos": {"count": 0, "groups": []}, "venuePage": {"id": "557962149"}}, "referralId": "e-0-5afff400012358002cd4f92f-64"}, {"reasons": {"count": 0, "items": [{"summary": "This spot is popular", "type": "general", "reasonName": "globalInteractionReason"}]}, "venue": {"id": "596227ec625a6632c606caef", "name": "Cookies & Co.", "location": {"address": "Senefelderstra\u00dfe 4", "lat": 52.540323, "lng": 13.422044, "labeledLatLngs": [{"label": "display", "lat": 52.540323, "lng": 13.422044}], "distance": 430, "postalCode": "10437", "cc": "DE", "city": "Berlin", "state": "Berlin", "country": "Deutschland", "formattedAddress": ["Senefelderstra\u00dfe 4", "10437 Berlin", "Deutschland"]}, "categories": [{"id": "4bf58dd8d48988d16d941735", "name": "Caf\u00e9", "pluralName": "Caf\u00e9s", "shortName": "Caf\u00e9", "icon": {"prefix": "https://ss3.4sqi.net/img/categories_v2/food/cafe_", "suffix": ".png"}, "primary": true}], "photos": {"count": 0, "groups": []}}, "referralId": "e-0-596227ec625a6632c606caef-65"}, {"reasons": {"count": 0, "items": [{"summary": "This spot is popular", "type": "general", "reasonName": "globalInteractionReason"}]}, "venue": {"id": "4b18388cf964a5200acf23e3", "name": "Le Midi", "location": {"address": "Greifenhagener Str. 17", "lat": 52.547169424024155, "lng": 13.415257964432527, "labeledLatLngs": [{"label": "display", "lat": 52.547169424024155, "lng": 13.415257964432527}], "distance": 459, "postalCode": "10437", "cc": "DE", "city": "Berlin", "state": "Berlin", "country": "Deutschland", "formattedAddress": ["Greifenhagener Str. 17", "10437 Berlin", "Deutschland"]}, "categories": [{"id": "4bf58dd8d48988d16d941735", "name": "Caf\u00e9", "pluralName": "Caf\u00e9s", "shortName": "Caf\u00e9", "icon": {"prefix": "https://ss3.4sqi.net/img/categories_v2/food/cafe_", "suffix": ".png"}, "primary": true}], "photos": {"count": 0, "groups": []}}, "referralId": "e-0-4b18388cf964a5200acf23e3-66"}, {"reasons": {"count": 0, "items": [{"summary": "This spot is popular", "type": "general", "reasonName": "globalInteractionReason"}]}, "venue": {"id": "55f6ad00498ec2e383922df6", "name": "Zweistromland", "location": {"address": "Danziger Str. 18", "crossStreet": "Hagenauer Str.", "lat": 52.54029281898408, "lng": 13.415819406509398, "labeledLatLngs": [{"label": "display", "lat": 52.54029281898408, "lng": 13.415819406509398}], "distance": 432, "postalCode": "10435", "cc": "DE", "city": "Berlin", "state": "Berlin", "country": "Deutschland", "formattedAddress": ["Danziger Str. 18 (Hagenauer Str.)", "10435 Berlin", "Deutschland"]}, "categories": [{"id": "4bf58dd8d48988d10b941735", "name": "Falafel Restaurant", "pluralName": "Falafel Restaurants", "shortName": "Falafel", "icon": {"prefix": "https://ss3.4sqi.net/img/categories_v2/food/falafel_", "suffix": ".png"}, "primary": true}], "photos": {"count": 0, "groups": []}}, "referralId": "e-0-55f6ad00498ec2e383922df6-67"}, {"reasons": {"count": 0, "items": [{"summary": "This spot is popular", "type": "general", "reasonName": "globalInteractionReason"}]}, "venue": {"id": "4f81d25ee4b0bf6ccaccc801", "name": "Thai Aroma", "location": {"address": "Dunkerstrasse 18", "crossStreet": "Stargarder Str. oder Raumerstr", "lat": 52.54357587893825, "lng": 13.42169108903656, "labeledLatLngs": [{"label": "display", "lat": 52.54357587893825, "lng": 13.42169108903656}], "distance": 188, "postalCode": "10437", "cc": "DE", "neighborhood": "Helmholtzkiez, Berlin", "city": "Berlin", "state": "Berlin", "country": "Deutschland", "formattedAddress": ["Dunkerstrasse 18 (Stargarder Str. oder Raumerstr)", "10437 Berlin", "Deutschland"]}, "categories": [{"id": "4bf58dd8d48988d149941735", "name": "Thai Restaurant", "pluralName": "Thai Restaurants", "shortName": "Thai", "icon": {"prefix": "https://ss3.4sqi.net/img/categories_v2/food/thai_", "suffix": ".png"}, "primary": true}], "photos": {"count": 0, "groups": []}}, "referralId": "e-0-4f81d25ee4b0bf6ccaccc801-68"}, {"reasons": {"count": 0, "items": [{"summary": "This spot is popular", "type": "general", "reasonName": "globalInteractionReason"}]}, "venue": {"id": "4b48eb5bf964a5205b5d26e3", "name": "Mamay", "location": {"address": "Sch\u00f6nhauser Allee 61", "lat": 52.54557148072443, "lng": 13.413206934928894, "labeledLatLngs": [{"label": "display", "lat": 52.54557148072443, "lng": 13.413206934928894}], "distance": 439, "postalCode": "10437", "cc": "DE", "city": "Berlin", "state": "Berlin", "country": "Deutschland", "formattedAddress": ["Sch\u00f6nhauser Allee 61", "10437 Berlin", "Deutschland"]}, "categories": [{"id": "4bf58dd8d48988d14a941735", "name": "Vietnamese Restaurant", "pluralName": "Vietnamese Restaurants", "shortName": "Vietnamese", "icon": {"prefix": "https://ss3.4sqi.net/img/categories_v2/food/vietnamese_", "suffix": ".png"}, "primary": true}], "photos": {"count": 0, "groups": []}}, "referralId": "e-0-4b48eb5bf964a5205b5d26e3-69"}, {"reasons": {"count": 0, "items": [{"summary": "This spot is popular", "type": "general", "reasonName": "globalInteractionReason"}]}, "venue": {"id": "4d5425f3f9f9b60c9b222be6", "name": "Spielplatz Helmholtzplatz", "location": {"address": "Helmholtzplatz", "crossStreet": "Raumerstr.", "lat": 52.54311396378938, "lng": 13.418469696449945, "labeledLatLngs": [{"label": "display", "lat": 52.54311396378938, "lng": 13.418469696449945}], "distance": 70, "postalCode": "10437", "cc": "DE", "city": "Berlin", "state": "Berlin", "country": "Deutschland", "formattedAddress": ["Helmholtzplatz (Raumerstr.)", "10437 Berlin", "Deutschland"]}, "categories": [{"id": "4bf58dd8d48988d1e7941735", "name": "Playground", "pluralName": "Playgrounds", "shortName": "Playground", "icon": {"prefix": "https://ss3.4sqi.net/img/categories_v2/parks_outdoors/playground_", "suffix": ".png"}, "primary": true}], "photos": {"count": 0, "groups": []}}, "referralId": "e-0-4d5425f3f9f9b60c9b222be6-70"}, {"reasons": {"count": 0, "items": [{"summary": "This spot is popular", "type": "general", "reasonName": "globalInteractionReason"}]}, "venue": {"id": "4aff1a38f964a5203e3422e3", "name": "Kr\u00fcger", "location": {"address": "Lychener Str. 26", "lat": 52.542886306139245, "lng": 13.41664549369068, "labeledLatLngs": [{"label": "display", "lat": 52.542886306139245, "lng": 13.41664549369068}], "distance": 177, "postalCode": "10437", "cc": "DE", "city": "Berlin", "state": "Berlin", "country": "Deutschland", "formattedAddress": ["Lychener Str. 26", "10437 Berlin", "Deutschland"]}, "categories": [{"id": "4bf58dd8d48988d116941735", "name": "Bar", "pluralName": "Bars", "shortName": "Bar", "icon": {"prefix": "https://ss3.4sqi.net/img/categories_v2/nightlife/pub_", "suffix": ".png"}, "primary": true}], "photos": {"count": 0, "groups": []}}, "referralId": "e-0-4aff1a38f964a5203e3422e3-71"}, {"reasons": {"count": 0, "items": [{"summary": "This spot is popular", "type": "general", "reasonName": "globalInteractionReason"}]}, "venue": {"id": "5dc73056c976fd00088aa430", "name": "Burgermeister", "location": {"address": "Sch\u00f6nhauser Allee 45", "crossStreet": "Danziger Str.", "lat": 52.540833, "lng": 13.41253, "labeledLatLngs": [{"label": "display", "lat": 52.540833, "lng": 13.41253}], "distance": 536, "postalCode": "10435", "cc": "DE", "city": "Berlin", "state": "Berlin", "country": "Deutschland", "formattedAddress": ["Sch\u00f6nhauser Allee 45 (Danziger Str.)", "10435 Berlin", "Deutschland"]}, "categories": [{"id": "4bf58dd8d48988d16c941735", "name": "Burger Joint", "pluralName": "Burger Joints", "shortName": "Burgers", "icon": {"prefix": "https://ss3.4sqi.net/img/categories_v2/food/burger_", "suffix": ".png"}, "primary": true}], "photos": {"count": 0, "groups": []}}, "referralId": "e-0-5dc73056c976fd00088aa430-72"}, {"reasons": {"count": 0, "items": [{"summary": "This spot is popular", "type": "general", "reasonName": "globalInteractionReason"}]}, "venue": {"id": "5bb0fca99fca56002cfecc11", "name": "R\u00fcyam Gem\u00fcse Kebap", "location": {"lat": 52.540562992251395, "lng": 13.412208178078075, "labeledLatLngs": [{"label": "display", "lat": 52.540562992251395, "lng": 13.412208178078075}], "distance": 571, "cc": "DE", "neighborhood": "Kollwitzkiez", "city": "Berlin", "state": "Berlin", "country": "Deutschland", "formattedAddress": ["Berlin", "Deutschland"]}, "categories": [{"id": "5283c7b4e4b094cb91ec88d8", "name": "Doner Restaurant", "pluralName": "Doner Restaurants", "shortName": "Doner", "icon": {"prefix": "https://ss3.4sqi.net/img/categories_v2/food/turkish_", "suffix": ".png"}, "primary": true}], "photos": {"count": 0, "groups": []}}, "referralId": "e-0-5bb0fca99fca56002cfecc11-73"}, {"reasons": {"count": 0, "items": [{"summary": "This spot is popular", "type": "general", "reasonName": "globalInteractionReason"}]}, "venue": {"id": "4faea556e4b0ec82893bbb05", "name": "Nothaft", "location": {"address": "Sch\u00f6nhauser Allee 43a", "crossStreet": "Danziger Str.", "lat": 52.540269136969584, "lng": 13.412257663002183, "labeledLatLngs": [{"label": "display", "lat": 52.540269136969584, "lng": 13.412257663002183}], "distance": 589, "postalCode": "10435", "cc": "DE", "city": "Berlin", "state": "Berlin", "country": "Deutschland", "formattedAddress": ["Sch\u00f6nhauser Allee 43a (Danziger Str.)", "10435 Berlin", "Deutschland"]}, "categories": [{"id": "4bf58dd8d48988d16d941735", "name": "Caf\u00e9", "pluralName": "Caf\u00e9s", "shortName": "Caf\u00e9", "icon": {"prefix": "https://ss3.4sqi.net/img/categories_v2/food/cafe_", "suffix": ".png"}, "primary": true}], "photos": {"count": 0, "groups": []}, "venuePage": {"id": "103365601"}}, "referralId": "e-0-4faea556e4b0ec82893bbb05-74"}, {"reasons": {"count": 0, "items": [{"summary": "This spot is popular", "type": "general", "reasonName": "globalInteractionReason"}]}, "venue": {"id": "54198830498e1a6158ad411f", "name": "Jute B\u00e4ckerei", "location": {"address": "Sch\u00f6nhauser Allee 52 a", "lat": 52.543033829514314, "lng": 13.412314631650354, "labeledLatLngs": [{"label": "display", "lat": 52.543033829514314, "lng": 13.412314631650354}], "distance": 452, "postalCode": "10437", "cc": "DE", "city": "Berlin", "state": "Berlin", "country": "Deutschland", "formattedAddress": ["Sch\u00f6nhauser Allee 52 a", "10437 Berlin", "Deutschland"]}, "categories": [{"id": "4bf58dd8d48988d16a941735", "name": "Bakery", "pluralName": "Bakeries", "shortName": "Bakery", "icon": {"prefix": "https://ss3.4sqi.net/img/categories_v2/food/bakery_", "suffix": ".png"}, "primary": true}], "photos": {"count": 0, "groups": []}}, "referralId": "e-0-54198830498e1a6158ad411f-75"}, {"reasons": {"count": 0, "items": [{"summary": "This spot is popular", "type": "general", "reasonName": "globalInteractionReason"}]}, "venue": {"id": "59353278c5b11c6c16fec87d", "name": "Haferkater", "location": {"address": "Eberswalder Str. 26", "lat": 52.541151282054216, "lng": 13.411323991030672, "labeledLatLngs": [{"label": "display", "lat": 52.541151282054216, "lng": 13.411323991030672}], "distance": 586, "postalCode": "10437", "cc": "DE", "city": "Berlin", "state": "Berlin", "country": "Deutschland", "formattedAddress": ["Eberswalder Str. 26", "10437 Berlin", "Deutschland"]}, "categories": [{"id": "4bf58dd8d48988d143941735", "name": "Breakfast Spot", "pluralName": "Breakfast Spots", "shortName": "Breakfast", "icon": {"prefix": "https://ss3.4sqi.net/img/categories_v2/food/breakfast_", "suffix": ".png"}, "primary": true}], "photos": {"count": 0, "groups": []}}, "referralId": "e-0-59353278c5b11c6c16fec87d-76"}, {"reasons": {"count": 0, "items": [{"summary": "This spot is popular", "type": "general", "reasonName": "globalInteractionReason"}]}, "venue": {"id": "518667b5498e8e931c3c1394", "name": "Goldschmied Schmuck Schmiede", "location": {"address": "Raumerstr. 32", "lat": 52.54172420112961, "lng": 13.422179776562032, "labeledLatLngs": [{"label": "display", "lat": 52.54172420112961, "lng": 13.422179776562032}], "distance": 311, "postalCode": "10437", "cc": "DE", "city": "Berlin", "state": "Berlin", "country": "Deutschland", "formattedAddress": ["Raumerstr. 32", "10437 Berlin", "Deutschland"]}, "categories": [{"id": "4bf58dd8d48988d111951735", "name": "Jewelry Store", "pluralName": "Jewelry Stores", "shortName": "Jewelry", "icon": {"prefix": "https://ss3.4sqi.net/img/categories_v2/shops/jewelry_", "suffix": ".png"}, "primary": true}], "photos": {"count": 0, "groups": []}, "venuePage": {"id": "77383161"}}, "referralId": "e-0-518667b5498e8e931c3c1394-77"}, {"reasons": {"count": 0, "items": [{"summary": "This spot is popular", "type": "general", "reasonName": "globalInteractionReason"}]}, "venue": {"id": "5561ca5a498ead268cfceb54", "name": "neo1", "location": {"address": "Lettestr. 1", "crossStreet": "Dunckerstr.", "lat": 52.542814780451295, "lng": 13.420620560646057, "labeledLatLngs": [{"label": "display", "lat": 52.542814780451295, "lng": 13.420620560646057}], "distance": 151, "postalCode": "10437", "cc": "DE", "city": "Berlin", "state": "Berlin", "country": "Deutschland", "formattedAddress": ["Lettestr. 1 (Dunckerstr.)", "10437 Berlin", "Deutschland"]}, "categories": [{"id": "4bf58dd8d48988d16d941735", "name": "Caf\u00e9", "pluralName": "Caf\u00e9s", "shortName": "Caf\u00e9", "icon": {"prefix": "https://ss3.4sqi.net/img/categories_v2/food/cafe_", "suffix": ".png"}, "primary": true}], "photos": {"count": 0, "groups": []}}, "referralId": "e-0-5561ca5a498ead268cfceb54-78"}, {"reasons": {"count": 0, "items": [{"summary": "This spot is popular", "type": "general", "reasonName": "globalInteractionReason"}]}, "venue": {"id": "50335ae3e4b068ac48ade2a0", "name": "Berlin on Bike", "location": {"address": "Knaackstr. 97", "lat": 52.53980914191299, "lng": 13.413384233903482, "labeledLatLngs": [{"label": "display", "lat": 52.53980914191299, "lng": 13.413384233903482}], "distance": 571, "postalCode": "10435", "cc": "DE", "city": "Berlin", "state": "Berlin", "country": "Deutschland", "formattedAddress": ["Knaackstr. 97", "10435 Berlin", "Deutschland"]}, "categories": [{"id": "4e4c9077bd41f78e849722f9", "name": "Bike Rental / Bike Share", "pluralName": "Bike Rentals / Bike Shares", "shortName": "Bike", "icon": {"prefix": "https://ss3.4sqi.net/img/categories_v2/shops/bikeshop_", "suffix": ".png"}, "primary": true}], "photos": {"count": 0, "groups": []}, "venuePage": {"id": "125048064"}}, "referralId": "e-0-50335ae3e4b068ac48ade2a0-79"}, {"reasons": {"count": 0, "items": [{"summary": "This spot is popular", "type": "general", "reasonName": "globalInteractionReason"}]}, "venue": {"id": "4b11a46df964a520328123e3", "name": "Die Bar", "location": {"address": "Greifenhagener Str. 54", "lat": 52.547833, "lng": 13.415339, "labeledLatLngs": [{"label": "display", "lat": 52.547833, "lng": 13.415339}], "distance": 520, "postalCode": "10437", "cc": "DE", "city": "Berlin", "state": "Berlin", "country": "Deutschland", "formattedAddress": ["Greifenhagener Str. 54", "10437 Berlin", "Deutschland"]}, "categories": [{"id": "4bf58dd8d48988d11e941735", "name": "Cocktail Bar", "pluralName": "Cocktail Bars", "shortName": "Cocktail", "icon": {"prefix": "https://ss3.4sqi.net/img/categories_v2/nightlife/cocktails_", "suffix": ".png"}, "primary": true}], "photos": {"count": 0, "groups": []}}, "referralId": "e-0-4b11a46df964a520328123e3-80"}, {"reasons": {"count": 0, "items": [{"summary": "This spot is popular", "type": "general", "reasonName": "globalInteractionReason"}]}, "venue": {"id": "4be5de69d4f7c9b6d10e2620", "name": "Doors", "location": {"address": "Knaackstr. 94", "lat": 52.539912375406814, "lng": 13.414565044680781, "labeledLatLngs": [{"label": "display", "lat": 52.539912375406814, "lng": 13.414565044680781}], "distance": 513, "postalCode": "10435", "cc": "DE", "city": "Berlin", "state": "Berlin", "country": "Deutschland", "formattedAddress": ["Knaackstr. 94", "10435 Berlin", "Deutschland"]}, "categories": [{"id": "4bf58dd8d48988d116941735", "name": "Bar", "pluralName": "Bars", "shortName": "Bar", "icon": {"prefix": "https://ss3.4sqi.net/img/categories_v2/nightlife/pub_", "suffix": ".png"}, "primary": true}], "photos": {"count": 0, "groups": []}}, "referralId": "e-0-4be5de69d4f7c9b6d10e2620-81"}, {"reasons": {"count": 0, "items": [{"summary": "This spot is popular", "type": "general", "reasonName": "globalInteractionReason"}]}, "venue": {"id": "4b867844f964a5206a8b31e3", "name": "Der Fischladen", "location": {"address": "Sch\u00f6nhauser Allee 128", "lat": 52.54599, "lng": 13.41256, "labeledLatLngs": [{"label": "display", "lat": 52.54599, "lng": 13.41256}], "distance": 500, "postalCode": "10437", "cc": "DE", "neighborhood": "Sch\u00f6nhauser Allee-Nord", "city": "Berlin", "state": "Berlin", "country": "Deutschland", "formattedAddress": ["Sch\u00f6nhauser Allee 128", "10437 Berlin", "Deutschland"]}, "categories": [{"id": "4bf58dd8d48988d1ce941735", "name": "Seafood Restaurant", "pluralName": "Seafood Restaurants", "shortName": "Seafood", "icon": {"prefix": "https://ss3.4sqi.net/img/categories_v2/food/seafood_", "suffix": ".png"}, "primary": true}], "photos": {"count": 0, "groups": []}}, "referralId": "e-0-4b867844f964a5206a8b31e3-82"}, {"reasons": {"count": 0, "items": [{"summary": "This spot is popular", "type": "general", "reasonName": "globalInteractionReason"}]}, "venue": {"id": "52876b5411d2728dfe41dcc9", "name": "Museum in der Kulturbrauerei", "location": {"address": "Knaackstr. 97", "lat": 52.54024691416204, "lng": 13.413872059432169, "labeledLatLngs": [{"label": "display", "lat": 52.54024691416204, "lng": 13.413872059432169}], "distance": 513, "postalCode": "10435", "cc": "DE", "city": "Berlin", "state": "Berlin", "country": "Deutschland", "formattedAddress": ["Knaackstr. 97", "10435 Berlin", "Deutschland"]}, "categories": [{"id": "4bf58dd8d48988d190941735", "name": "History Museum", "pluralName": "History Museums", "shortName": "History Museum", "icon": {"prefix": "https://ss3.4sqi.net/img/categories_v2/arts_entertainment/museum_history_", "suffix": ".png"}, "primary": true}], "photos": {"count": 0, "groups": []}}, "referralId": "e-0-52876b5411d2728dfe41dcc9-83"}, {"reasons": {"count": 0, "items": [{"summary": "This spot is popular", "type": "general", "reasonName": "globalInteractionReason"}]}, "venue": {"id": "560984da498e263b8162eb13", "name": "Blackbeards", "location": {"address": "Pappelallee 55", "lat": 52.546853, "lng": 13.418332, "labeledLatLngs": [{"label": "display", "lat": 52.546853, "lng": 13.418332}], "distance": 354, "postalCode": "10437", "cc": "DE", "city": "Berlin", "state": "Berlin", "country": "Deutschland", "formattedAddress": ["Pappelallee 55", "10437 Berlin", "Deutschland"]}, "categories": [{"id": "4bf58dd8d48988d16c941735", "name": "Burger Joint", "pluralName": "Burger Joints", "shortName": "Burgers", "icon": {"prefix": "https://ss3.4sqi.net/img/categories_v2/food/burger_", "suffix": ".png"}, "primary": true}], "photos": {"count": 0, "groups": []}}, "referralId": "e-0-560984da498e263b8162eb13-84"}, {"reasons": {"count": 0, "items": [{"summary": "This spot is popular", "type": "general", "reasonName": "globalInteractionReason"}]}, "venue": {"id": "5443e763498edf77dae81625", "name": "Minty", "location": {"address": "Sch\u00f6nhauser Allee 134", "lat": 52.54439034405498, "lng": 13.412349759782176, "labeledLatLngs": [{"label": "display", "lat": 52.54439034405498, "lng": 13.412349759782176}], "distance": 450, "cc": "DE", "city": "Berlin", "state": "Berlin", "country": "Deutschland", "formattedAddress": ["Sch\u00f6nhauser Allee 134", "Berlin", "Deutschland"]}, "categories": [{"id": "4bf58dd8d48988d14a941735", "name": "Vietnamese Restaurant", "pluralName": "Vietnamese Restaurants", "shortName": "Vietnamese", "icon": {"prefix": "https://ss3.4sqi.net/img/categories_v2/food/vietnamese_", "suffix": ".png"}, "primary": true}], "photos": {"count": 0, "groups": []}}, "referralId": "e-0-5443e763498edf77dae81625-85"}, {"reasons": {"count": 0, "items": [{"summary": "This spot is popular", "type": "general", "reasonName": "globalInteractionReason"}]}, "venue": {"id": "4b196aa8f964a520f4dc23e3", "name": "Zaika", "location": {"address": "Wichertstr. 57", "crossStreet": "Gudvanger Str.", "lat": 52.548138, "lng": 13.422789, "labeledLatLngs": [{"label": "display", "lat": 52.548138, "lng": 13.422789}], "distance": 560, "postalCode": "10439", "cc": "DE", "city": "Berlin", "state": "Berlin", "country": "Deutschland", "formattedAddress": ["Wichertstr. 57 (Gudvanger Str.)", "10439 Berlin", "Deutschland"]}, "categories": [{"id": "4bf58dd8d48988d10f941735", "name": "Indian Restaurant", "pluralName": "Indian Restaurants", "shortName": "Indian", "icon": {"prefix": "https://ss3.4sqi.net/img/categories_v2/food/indian_", "suffix": ".png"}, "primary": true}], "photos": {"count": 0, "groups": []}}, "referralId": "e-0-4b196aa8f964a520f4dc23e3-86"}, {"reasons": {"count": 0, "items": [{"summary": "This spot is popular", "type": "general", "reasonName": "globalInteractionReason"}]}, "venue": {"id": "4b4a2959f964a520e37c26e3", "name": "'A Magica", "location": {"address": "Greifenhagener Str. 54", "lat": 52.547985, "lng": 13.415465, "labeledLatLngs": [{"label": "display", "lat": 52.547985, "lng": 13.415465}], "distance": 531, "postalCode": "10437", "cc": "DE", "city": "Berlin", "state": "Berlin", "country": "Deutschland", "formattedAddress": ["Greifenhagener Str. 54", "10437 Berlin", "Deutschland"]}, "categories": [{"id": "4bf58dd8d48988d1ca941735", "name": "Pizza Place", "pluralName": "Pizza Places", "shortName": "Pizza", "icon": {"prefix": "https://ss3.4sqi.net/img/categories_v2/food/pizza_", "suffix": ".png"}, "primary": true}], "photos": {"count": 0, "groups": []}}, "referralId": "e-0-4b4a2959f964a520e37c26e3-87"}, {"reasons": {"count": 0, "items": [{"summary": "This spot is popular", "type": "general", "reasonName": "globalInteractionReason"}]}, "venue": {"id": "576d9a9e498eeb2c045eae4c", "name": "Asteria", "location": {"address": "Sch\u00f6nhauser Allee 143", "lat": 52.5415876638317, "lng": 13.41202236442795, "labeledLatLngs": [{"label": "display", "lat": 52.5415876638317, "lng": 13.41202236442795}], "distance": 521, "cc": "DE", "neighborhood": "Sch\u00f6nhauser Allee-Nord", "city": "Berlin", "state": "Berlin", "country": "Deutschland", "formattedAddress": ["Sch\u00f6nhauser Allee 143", "Berlin", "Deutschland"]}, "categories": [{"id": "4bf58dd8d48988d10e941735", "name": "Greek Restaurant", "pluralName": "Greek Restaurants", "shortName": "Greek", "icon": {"prefix": "https://ss3.4sqi.net/img/categories_v2/food/greek_", "suffix": ".png"}, "primary": true}], "photos": {"count": 0, "groups": []}}, "referralId": "e-0-576d9a9e498eeb2c045eae4c-88"}, {"reasons": {"count": 0, "items": [{"summary": "This spot is popular", "type": "general", "reasonName": "globalInteractionReason"}]}, "venue": {"id": "4b059890f964a520a0df22e3", "name": "Delizie D'Italia", "location": {"address": "Kollwitzstr. 100", "lat": 52.53915611505613, "lng": 13.421155682207546, "labeledLatLngs": [{"label": "display", "lat": 52.53915611505613, "lng": 13.421155682207546}], "distance": 527, "postalCode": "10435", "cc": "DE", "city": "Berlin", "state": "Berlin", "country": "Deutschland", "formattedAddress": ["Kollwitzstr. 100", "10435 Berlin", "Deutschland"]}, "categories": [{"id": "4bf58dd8d48988d110941735", "name": "Italian Restaurant", "pluralName": "Italian Restaurants", "shortName": "Italian", "icon": {"prefix": "https://ss3.4sqi.net/img/categories_v2/food/italian_", "suffix": ".png"}, "primary": true}], "photos": {"count": 0, "groups": []}}, "referralId": "e-0-4b059890f964a520a0df22e3-89"}, {"reasons": {"count": 0, "items": [{"summary": "This spot is popular", "type": "general", "reasonName": "globalInteractionReason"}]}, "venue": {"id": "575174f7498ef99e3c3913c0", "name": "Mo's Coffee", "location": {"address": "Stargarder Str. 45", "lat": 52.543444432574134, "lng": 13.425362706184387, "labeledLatLngs": [{"label": "display", "lat": 52.543444432574134, "lng": 13.425362706184387}], "distance": 437, "postalCode": "10437", "cc": "DE", "city": "Berlin", "state": "Berlin", "country": "Deutschland", "formattedAddress": ["Stargarder Str. 45", "10437 Berlin", "Deutschland"]}, "categories": [{"id": "4bf58dd8d48988d16d941735", "name": "Caf\u00e9", "pluralName": "Caf\u00e9s", "shortName": "Caf\u00e9", "icon": {"prefix": "https://ss3.4sqi.net/img/categories_v2/food/cafe_", "suffix": ".png"}, "primary": true}], "photos": {"count": 0, "groups": []}}, "referralId": "e-0-575174f7498ef99e3c3913c0-90"}, {"reasons": {"count": 0, "items": [{"summary": "This spot is popular", "type": "general", "reasonName": "globalInteractionReason"}]}, "venue": {"id": "4bd4528eb221c9b6134edbd0", "name": "Spielplatz am Humannplatz", "location": {"address": "Stahlheimer Str.", "crossStreet": "Rodenbergstr.", "lat": 52.54904272576531, "lng": 13.421953896660204, "labeledLatLngs": [{"label": "display", "lat": 52.54904272576531, "lng": 13.421953896660204}], "distance": 630, "postalCode": "10439", "cc": "DE", "city": "Berlin", "state": "Berlin", "country": "Deutschland", "formattedAddress": ["Stahlheimer Str. (Rodenbergstr.)", "10439 Berlin", "Deutschland"]}, "categories": [{"id": "4bf58dd8d48988d1e7941735", "name": "Playground", "pluralName": "Playgrounds", "shortName": "Playground", "icon": {"prefix": "https://ss3.4sqi.net/img/categories_v2/parks_outdoors/playground_", "suffix": ".png"}, "primary": true}], "photos": {"count": 0, "groups": []}}, "referralId": "e-0-4bd4528eb221c9b6134edbd0-91"}, {"reasons": {"count": 0, "items": [{"summary": "This spot is popular", "type": "general", "reasonName": "globalInteractionReason"}]}, "venue": {"id": "4adcda7df964a520914721e3", "name": "Zeiss-Gro\u00dfplanetarium", "location": {"address": "Prenzlauer Allee 80", "crossStreet": "Diesterwegstr.", "lat": 52.542954, "lng": 13.428055, "labeledLatLngs": [{"label": "display", "lat": 52.542954, "lng": 13.428055}], "distance": 624, "postalCode": "10405", "cc": "DE", "city": "Berlin", "state": "Berlin", "country": "Deutschland", "formattedAddress": ["Prenzlauer Allee 80 (Diesterwegstr.)", "10405 Berlin", "Deutschland"]}, "categories": [{"id": "4bf58dd8d48988d192941735", "name": "Planetarium", "pluralName": "Planetariums", "shortName": "Planetarium", "icon": {"prefix": "https://ss3.4sqi.net/img/categories_v2/arts_entertainment/museum_planetarium_", "suffix": ".png"}, "primary": true}], "photos": {"count": 0, "groups": []}, "venuePage": {"id": "72906030"}}, "referralId": "e-0-4adcda7df964a520914721e3-92"}, {"reasons": {"count": 0, "items": [{"summary": "This spot is popular", "type": "general", "reasonName": "globalInteractionReason"}]}, "venue": {"id": "4b621fa0f964a520fb362ae3", "name": "CORE", "location": {"address": "Pappelallee 84", "lat": 52.542338716980254, "lng": 13.413706150465487, "labeledLatLngs": [{"label": "display", "lat": 52.542338716980254, "lng": 13.413706150465487}], "distance": 383, "postalCode": "10437", "cc": "DE", "city": "Berlin", "state": "Berlin", "country": "Deutschland", "formattedAddress": ["Pappelallee 84", "10437 Berlin", "Deutschland"]}, "categories": [{"id": "4bf58dd8d48988d113941735", "name": "Korean Restaurant", "pluralName": "Korean Restaurants", "shortName": "Korean", "icon": {"prefix": "https://ss3.4sqi.net/img/categories_v2/food/korean_", "suffix": ".png"}, "primary": true}], "photos": {"count": 0, "groups": []}}, "referralId": "e-0-4b621fa0f964a520fb362ae3-93"}, {"reasons": {"count": 0, "items": [{"summary": "This spot is popular", "type": "general", "reasonName": "globalInteractionReason"}]}, "venue": {"id": "57212d4a498ef736dde75099", "name": "Birra - Italian Craft Beer", "location": {"address": "Prenzlauer Allee 198", "lat": 52.53862401663207, "lng": 13.423833782819282, "labeledLatLngs": [{"label": "display", "lat": 52.53862401663207, "lng": 13.423833782819282}], "distance": 655, "postalCode": "10405", "cc": "DE", "city": "Berlin", "state": "Berlin", "country": "Deutschland", "formattedAddress": ["Prenzlauer Allee 198", "10405 Berlin", "Deutschland"]}, "categories": [{"id": "56aa371ce4b08b9a8d57356c", "name": "Beer Bar", "pluralName": "Beer Bars", "shortName": "Beer Bar", "icon": {"prefix": "https://ss3.4sqi.net/img/categories_v2/nightlife/pub_", "suffix": ".png"}, "primary": true}], "photos": {"count": 0, "groups": []}}, "referralId": "e-0-57212d4a498ef736dde75099-94"}, {"reasons": {"count": 0, "items": [{"summary": "This spot is popular", "type": "general", "reasonName": "globalInteractionReason"}]}, "venue": {"id": "4efeaf0af9abd5b38f7f00a8", "name": "Konditorei Krautzig", "location": {"address": "Sch\u00f6nhauser Allee 126", "lat": 52.546301261612605, "lng": 13.413970413342586, "labeledLatLngs": [{"label": "display", "lat": 52.546301261612605, "lng": 13.413970413342586}], "distance": 442, "postalCode": "10437", "cc": "DE", "city": "Berlin", "state": "Berlin", "country": "Deutschland", "formattedAddress": ["Sch\u00f6nhauser Allee 126", "10437 Berlin", "Deutschland"]}, "categories": [{"id": "4bf58dd8d48988d16a941735", "name": "Bakery", "pluralName": "Bakeries", "shortName": "Bakery", "icon": {"prefix": "https://ss3.4sqi.net/img/categories_v2/food/bakery_", "suffix": ".png"}, "primary": true}], "photos": {"count": 0, "groups": []}}, "referralId": "e-0-4efeaf0af9abd5b38f7f00a8-95"}, {"reasons": {"count": 0, "items": [{"summary": "This spot is popular", "type": "general", "reasonName": "globalInteractionReason"}]}, "venue": {"id": "538ffc06498e2cb938159ccd", "name": "Backstube SowohlAlsAuch", "location": {"address": "Sredzkistr. 53", "crossStreet": "Kollwitzstr.", "lat": 52.538119835602814, "lng": 13.420464992523192, "labeledLatLngs": [{"label": "display", "lat": 52.538119835602814, "lng": 13.420464992523192}], "distance": 629, "postalCode": "10405", "cc": "DE", "city": "Berlin", "state": "Berlin", "country": "Deutschland", "formattedAddress": ["Sredzkistr. 53 (Kollwitzstr.)", "10405 Berlin", "Deutschland"]}, "categories": [{"id": "4bf58dd8d48988d16a941735", "name": "Bakery", "pluralName": "Bakeries", "shortName": "Bakery", "icon": {"prefix": "https://ss3.4sqi.net/img/categories_v2/food/bakery_", "suffix": ".png"}, "primary": true}], "photos": {"count": 0, "groups": []}}, "referralId": "e-0-538ffc06498e2cb938159ccd-96"}, {"reasons": {"count": 0, "items": [{"summary": "This spot is popular", "type": "general", "reasonName": "globalInteractionReason"}]}, "venue": {"id": "4adcda73f964a520554521e3", "name": "Cocktail Bar X", "location": {"address": "Raumerstr. 17a", "lat": 52.54158810155329, "lng": 13.421900505301739, "labeledLatLngs": [{"label": "display", "lat": 52.54158810155329, "lng": 13.421900505301739}], "distance": 309, "postalCode": "10437", "cc": "DE", "city": "Berlin", "state": "Berlin", "country": "Deutschland", "formattedAddress": ["Raumerstr. 17a", "10437 Berlin", "Deutschland"]}, "categories": [{"id": "4bf58dd8d48988d11e941735", "name": "Cocktail Bar", "pluralName": "Cocktail Bars", "shortName": "Cocktail", "icon": {"prefix": "https://ss3.4sqi.net/img/categories_v2/nightlife/cocktails_", "suffix": ".png"}, "primary": true}], "photos": {"count": 0, "groups": []}}, "referralId": "e-0-4adcda73f964a520554521e3-97"}, {"reasons": {"count": 0, "items": [{"summary": "This spot is popular", "type": "general", "reasonName": "globalInteractionReason"}]}, "venue": {"id": "5b8ad835a0215b002c504103", "name": "Neopriv\u00e9e", "location": {"address": "Sch\u00f6nhauser Allee 42", "lat": 52.539975, "lng": 13.413211, "labeledLatLngs": [{"label": "display", "lat": 52.539975, "lng": 13.413211}], "distance": 565, "postalCode": "10435", "cc": "DE", "neighborhood": "Kollwitzkiez", "city": "Berlin", "state": "Berlin", "country": "Deutschland", "formattedAddress": ["Sch\u00f6nhauser Allee 42", "10435 Berlin", "Deutschland"]}, "categories": [{"id": "54541900498ea6ccd0202697", "name": "Health & Beauty Service", "pluralName": "Health & Beauty Services", "shortName": "Health & Beauty", "icon": {"prefix": "https://ss3.4sqi.net/img/categories_v2/shops/salon_barber_", "suffix": ".png"}, "primary": true}], "photos": {"count": 0, "groups": []}}, "referralId": "e-0-5b8ad835a0215b002c504103-98"}, {"reasons": {"count": 0, "items": [{"summary": "This spot is popular", "type": "general", "reasonName": "globalInteractionReason"}]}, "venue": {"id": "4f8c75d2e4b0b1c4b29898f0", "name": "Les Valseuses", "location": {"address": "Eberswalder Str. 28", "lat": 52.54127330169977, "lng": 13.410824596357996, "labeledLatLngs": [{"label": "display", "lat": 52.54127330169977, "lng": 13.410824596357996}], "distance": 609, "postalCode": "10437", "cc": "DE", "city": "Berlin", "state": "Berlin", "country": "Deutschland", "formattedAddress": ["Eberswalder Str. 28", "10437 Berlin", "Deutschland"]}, "categories": [{"id": "4bf58dd8d48988d10c941735", "name": "French Restaurant", "pluralName": "French Restaurants", "shortName": "French", "icon": {"prefix": "https://ss3.4sqi.net/img/categories_v2/food/french_", "suffix": ".png"}, "primary": true}], "photos": {"count": 0, "groups": []}, "venuePage": {"id": "83297790"}}, "referralId": "e-0-4f8c75d2e4b0b1c4b29898f0-99"}]