[{"reasons": {"count": 0, "items": [{"summary": "This spot is popular", "type": "general", "reasonName": "globalInteractionReason"}]}, "venue": {"id": "4c5b0a45b05c1b8d92bcd9b1", "name": "Sushi and Friends", "location": {"address": "Sterndamm 57", "lat": 52.44793691597922, "lng": 13.507331832580006, "labeledLatLngs": [{"label": "display", "lat": 52.44793691597922, "lng": 13.507331832580006}], "distance": 498, "postalCode": "12487", "cc": "DE", "city": "Berlin", "state": "Berlin", "country": "Deutschland", "formattedAddress": ["Sterndamm 57", "12487 Berlin", "Deutschland"]}, "categories": [{"id": "4bf58dd8d48988d1d2941735", "name": "Sushi Restaurant", "pluralName": "Sushi Restaurants", "shortName": "Sushi", "icon": {"prefix": "https://ss3.4sqi.net/img/categories_v2/food/sushi_", "suffix": ".png"}, "primary": true}], "photos": {"count": 0, "groups": []}}, "referralId": "e-0-4c5b0a45b05c1b8d92bcd9b1-0"}, {"reasons": {"count": 0, "items": [{"summary": "This spot is popular", "type": "general", "reasonName": "globalInteractionReason"}]}, "venue": {"id": "4adcda8cf964a520034a21e3", "name": "Astra Filmpalast", "location": {"address": "Sterndamm 69", "lat": 52.44661347332707, "lng": 13.506915210363738, "labeledLatLngs": [{"label": "display", "lat": 52.44661347332707, "lng": 13.506915210363738}], "distance": 355, "postalCode": "12487", "cc": "DE", "city": "Berlin", "state": "Berlin", "country": "Deutschland", "formattedAddress": ["Sterndamm 69", "12487 Berlin", "Deutschland"]}, "categories": [{"id": "4bf58dd8d48988d17f941735", "name": "Movie Theater", "pluralName": "Movie Theaters", "shortName": "Movie Theater", "icon": {"prefix": "https://ss3.4sqi.net/img/categories_v2/arts_entertainment/movietheater_", "suffix": ".png"}, "primary": true}], "photos": {"count": 0, "groups": []}}, "referralId": "e-0-4adcda8cf964a520034a21e3-1"}, {"reasons": {"count": 0, "items": [{"summary": "This spot is popular", "type": "general", "reasonName": "globalInteractionReason"}]}, "venue": {"id": "4b71b619f964a520d7572de3", "name": "fosca", "location": {"address": "Sterndamm 85", "lat": 52.44478091892592, "lng": 13.50467366188598, "labeledLatLngs": [{"label": "display", "lat": 52.44478091892592, "lng": 13.50467366188598}], "distance": 103, "cc": "DE", "city": "Berlin", "state": "Berlin", "country": "Deutschland", "formattedAddress": ["Sterndamm 85", "Berlin", "Deutschland"]}, "categories": [{"id": "4bf58dd8d48988d11b941735", "name": "Pub", "pluralName": "Pubs", "shortName": "Pub", "icon": {"prefix": "https://ss3.4sqi.net/img/categories_v2/nightlife/pub_", "suffix": ".png"}, "primary": true}], "photos": {"count": 0, "groups": []}}, "referralId": "e-0-4b71b619f964a520d7572de3-2"}, {"reasons": {"count": 0, "items": [{"summary": "This spot is popular", "type": "general", "reasonName": "globalInteractionReason"}]}, "venue": {"id": "4c83de118ce59c74e6be82b0", "name": "Taverna Odyssee", "location": {"address": "Sterndamm 59", "lat": 52.44783247934649, "lng": 13.507388978728047, "labeledLatLngs": [{"label": "display", "lat": 52.44783247934649, "lng": 13.507388978728047}], "distance": 489, "postalCode": "12487", "cc": "DE", "city": "Berlin", "state": "Berlin", "country": "Deutschland", "formattedAddress": ["Sterndamm 59", "12487 Berlin", "Deutschland"]}, "categories": [{"id": "53d6c1b0e4b02351e88a83d2", "name": "Taverna", "pluralName": "Tavernas", "shortName": "Tavernas", "icon": {"prefix": "https://ss3.4sqi.net/img/categories_v2/food/greek_", "suffix": ".png"}, "primary": true}], "photos": {"count": 0, "groups": []}}, "referralId": "e-0-4c83de118ce59c74e6be82b0-3"}, {"reasons": {"count": 0, "items": [{"summary": "This spot is popular", "type": "general", "reasonName": "globalInteractionReason"}]}, "venue": {"id": "4d860e6e81fdb1f746a51dc0", "name": "Blaue Lagune", "location": {"address": "Sterndamm 65", "lat": 52.447195602338134, "lng": 13.507071505189344, "labeledLatLngs": [{"label": "display", "lat": 52.447195602338134, "lng": 13.507071505189344}], "distance": 417, "postalCode": "12487", "cc": "DE", "city": "Berlin", "state": "Berlin", "country": "Deutschland", "formattedAddress": ["Sterndamm 65", "12487 Berlin", "Deutschland"]}, "categories": [{"id": "4bf58dd8d48988d1d0941735", "name": "Dessert Shop", "pluralName": "Dessert Shops", "shortName": "Desserts", "icon": {"prefix": "https://ss3.4sqi.net/img/categories_v2/food/dessert_", "suffix": ".png"}, "primary": true}], "photos": {"count": 0, "groups": []}}, "referralId": "e-0-4d860e6e81fdb1f746a51dc0-4"}, {"reasons": {"count": 0, "items": [{"summary": "This spot is popular", "type": "general", "reasonName": "globalInteractionReason"}]}, "venue": {"id": "5ac60aeb535d6f0d68951310", "name": "REWE", "location": {"address": "Sterndamm 140", "lat": 52.439757427137096, "lng": 13.499319663497658, "labeledLatLngs": [{"label": "display", "lat": 52.439757427137096, "lng": 13.499319663497658}], "distance": 565, "postalCode": "12487", "cc": "DE", "city": "Berlin", "state": "Berlin", "country": "Deutschland", "formattedAddress": ["Sterndamm 140", "12487 Berlin", "Deutschland"]}, "categories": [{"id": "52f2ab2ebcbc57f1066b8b46", "name": "Supermarket", "pluralName": "Supermarkets", "shortName": "Supermarket", "icon": {"prefix": "https://ss3.4sqi.net/img/categories_v2/shops/food_grocery_", "suffix": ".png"}, "primary": true}], "photos": {"count": 0, "groups": []}, "venuePage": {"id": "580766368"}}, "referralId": "e-0-5ac60aeb535d6f0d68951310-5"}, {"reasons": {"count": 0, "items": [{"summary": "This spot is popular", "type": "general", "reasonName": "globalInteractionReason"}]}, "venue": {"id": "590d95b0e96d0c49bc4324ff", "name": "REWE", "location": {"address": "Sterndamm 29-35", "lat": 52.45068263145597, "lng": 13.508599172522963, "labeledLatLngs": [{"label": "display", "lat": 52.45068263145597, "lng": 13.508599172522963}], "distance": 812, "postalCode": "12487", "cc": "DE", "city": "Berlin", "state": "Berlin", "country": "Deutschland", "formattedAddress": ["Sterndamm 29-35", "12487 Berlin", "Deutschland"]}, "categories": [{"id": "4bf58dd8d48988d186941735", "name": "Liquor Store", "pluralName": "Liquor Stores", "shortName": "Liquor Store", "icon": {"prefix": "https://ss3.4sqi.net/img/categories_v2/shops/food_liquor_", "suffix": ".png"}, "primary": true}], "photos": {"count": 0, "groups": []}, "venuePage": {"id": "559113490"}}, "referralId": "e-0-590d95b0e96d0c49bc4324ff-6"}, {"reasons": {"count": 0, "items": [{"summary": "This spot is popular", "type": "general", "reasonName": "globalInteractionReason"}]}, "venue": {"id": "50a6b84ee4b0e1dc42e957fb", "name": "Don Giovanni", "location": {"address": "Winckelmannstra\u00dfe 37", "lat": 52.442538996059604, "lng": 13.506385038513153, "labeledLatLngs": [{"label": "display", "lat": 52.442538996059604, "lng": 13.506385038513153}], "distance": 219, "postalCode": "12487", "cc": "DE", "city": "Berlin", "state": "Berlin", "country": "Deutschland", "formattedAddress": ["Winckelmannstra\u00dfe 37", "12487 Berlin", "Deutschland"]}, "categories": [{"id": "4bf58dd8d48988d1ca941735", "name": "Pizza Place", "pluralName": "Pizza Places", "shortName": "Pizza", "icon": {"prefix": "https://ss3.4sqi.net/img/categories_v2/food/pizza_", "suffix": ".png"}, "primary": true}], "photos": {"count": 0, "groups": []}}, "referralId": "e-0-50a6b84ee4b0e1dc42e957fb-7"}, {"reasons": {"count": 0, "items": [{"summary": "This spot is popular", "type": "general", "reasonName": "globalInteractionReason"}]}, "venue": {"id": "508a06e1e4b00ac3c6099389", "name": "H Sterndamm / K\u00f6nigsheideweg", "location": {"address": "Sterndamm", "crossStreet": "K\u00f6nigsheideweg", "lat": 52.44684239422583, "lng": 13.506724834442139, "labeledLatLngs": [{"label": "display", "lat": 52.44684239422583, "lng": 13.506724834442139}], "distance": 371, "postalCode": "12487", "cc": "DE", "city": "Berlin", "state": "Berlin", "country": "Deutschland", "formattedAddress": ["Sterndamm (K\u00f6nigsheideweg)", "12487 Berlin", "Deutschland"]}, "categories": [{"id": "52f2ab2ebcbc57f1066b8b51", "name": "Tram Station", "pluralName": "Tram Stations", "shortName": "Tram", "icon": {"prefix": "https://ss3.4sqi.net/img/categories_v2/travel/trainstation_", "suffix": ".png"}, "primary": true}], "photos": {"count": 0, "groups": []}}, "referralId": "e-0-508a06e1e4b00ac3c6099389-8"}, {"reasons": {"count": 0, "items": [{"summary": "This spot is popular", "type": "general", "reasonName": "globalInteractionReason"}]}, "venue": {"id": "4ea597a65c5cd12b36f5a1b8", "name": "Sportfreunde Johannisthal", "location": {"address": "Segelfliegerdamm 47a", "lat": 52.44186803055691, "lng": 13.508711025000057, "labeledLatLngs": [{"label": "display", "lat": 52.44186803055691, "lng": 13.508711025000057}], "distance": 389, "postalCode": "12487", "cc": "DE", "city": "Berlin", "state": "Berlin", "country": "Deutschland", "formattedAddress": ["Segelfliegerdamm 47a", "12487 Berlin", "Deutschland"]}, "categories": [{"id": "4cce455aebf7b749d5e191f5", "name": "Soccer Field", "pluralName": "Soccer Fields", "shortName": "Soccer Field", "icon": {"prefix": "https://ss3.4sqi.net/img/categories_v2/arts_entertainment/stadium_soccer_", "suffix": ".png"}, "primary": true}], "photos": {"count": 0, "groups": []}}, "referralId": "e-0-4ea597a65c5cd12b36f5a1b8-9"}, {"reasons": {"count": 0, "items": [{"summary": "This spot is popular", "type": "general", "reasonName": "globalInteractionReason"}]}, "venue": {"id": "4e0f4d97c65ba20da228e44e", "name": "Kaiser's", "location": {"address": "Sterndamm 140", "lat": 52.43986630937391, "lng": 13.500600830563082, "labeledLatLngs": [{"label": "display", "lat": 52.43986630937391, "lng": 13.500600830563082}], "distance": 509, "postalCode": "12487", "cc": "DE", "neighborhood": "Johannisthal", "city": "Berlin", "state": "Berlin", "country": "Deutschland", "formattedAddress": ["Sterndamm 140", "12487 Berlin", "Deutschland"]}, "categories": [{"id": "52f2ab2ebcbc57f1066b8b46", "name": "Supermarket", "pluralName": "Supermarkets", "shortName": "Supermarket", "icon": {"prefix": "https://ss3.4sqi.net/img/categories_v2/shops/food_grocery_", "suffix": ".png"}, "primary": true}], "photos": {"count": 0, "groups": []}}, "referralId": "e-0-4e0f4d97c65ba20da228e44e-10"}, {"reasons": {"count": 0, "items": [{"summary": "This spot is popular", "type": "general", "reasonName": "globalInteractionReason"}]}, "venue": {"id": "51a8da367dd2e8ef968d697e", "name": "NETTO", "location": {"address": "Segelfliegerdamm 89", "lat": 52.4394583, "lng": 13.50675277, "labeledLatLngs": [{"label": "display", "lat": 52.4394583, "lng": 13.50675277}], "distance": 529, "postalCode": "12487", "cc": "DE", "city": "Johannisthal", "state": "Berlin", "country": "Deutschland", "formattedAddress": ["Segelfliegerdamm 89", "12487 Berlin-Johannisthal", "Deutschland"]}, "categories": [{"id": "52f2ab2ebcbc57f1066b8b46", "name": "Supermarket", "pluralName": "Supermarkets", "shortName": "Supermarket", "icon": {"prefix": "https://ss3.4sqi.net/img/categories_v2/shops/food_grocery_", "suffix": ".png"}, "primary": true}], "photos": {"count": 0, "groups": []}, "venuePage": {"id": "541527240"}}, "referralId": "e-0-51a8da367dd2e8ef968d697e-11"}, {"reasons": {"count": 0, "items": [{"summary": "This spot is popular", "type": "general", "reasonName": "globalInteractionReason"}]}, "venue": {"id": "4f0610fd6da1a1d64aa7e610", "name": "Packstation 177", "location": {"address": "Sterndamm 140", "lat": 52.43992163775359, "lng": 13.499740362167358, "labeledLatLngs": [{"label": "display", "lat": 52.43992163775359, "lng": 13.499740362167358}], "distance": 533, "postalCode": "12487", "cc": "DE", "city": "Berlin", "state": "Berlin", "country": "Deutschland", "formattedAddress": ["Sterndamm 140", "12487 Berlin", "Deutschland"]}, "categories": [{"id": "52f2ab2ebcbc57f1066b8b1f", "name": "Shipping Store", "pluralName": "Shipping Stores", "shortName": "Shipping Store", "icon": {"prefix": "https://ss3.4sqi.net/img/categories_v2/shops/default_", "suffix": ".png"}, "primary": true}], "photos": {"count": 0, "groups": []}}, "referralId": "e-0-4f0610fd6da1a1d64aa7e610-12"}, {"reasons": {"count": 0, "items": [{"summary": "This spot is popular", "type": "general", "reasonName": "globalInteractionReason"}]}, "venue": {"id": "4dff8793d164f31b7bd191c4", "name": "Johannisthaler Park", "location": {"address": "Engelhardstra\u00dfe 7", "lat": 52.44800266602827, "lng": 13.5094092383362, "labeledLatLngs": [{"label": "display", "lat": 52.44800266602827, "lng": 13.5094092383362}], "distance": 580, "postalCode": "12487", "cc": "DE", "city": "Berlin", "state": "Berlin", "country": "Deutschland", "formattedAddress": ["Engelhardstra\u00dfe 7", "12487 Berlin", "Deutschland"]}, "categories": [{"id": "4bf58dd8d48988d163941735", "name": "Park", "pluralName": "Parks", "shortName": "Park", "icon": {"prefix": "https://ss3.4sqi.net/img/categories_v2/parks_outdoors/park_", "suffix": ".png"}, "primary": true}], "photos": {"count": 0, "groups": []}}, "referralId": "e-0-4dff8793d164f31b7bd191c4-13"}, {"reasons": {"count": 0, "items": [{"summary": "This spot is popular", "type": "general", "reasonName": "globalInteractionReason"}]}, "venue": {"id": "55ee7ef4498e64d24a622c08", "name": "Johannistaler Flugfeld", "location": {"lat": 52.44139517286225, "lng": 13.512665759363783, "labeledLatLngs": [{"label": "display", "lat": 52.44139517286225, "lng": 13.512665759363783}], "distance": 647, "cc": "DE", "country": "Deutschland", "formattedAddress": ["Deutschland"]}, "categories": [{"id": "52e81612bcbc57f1066b7a13", "name": "Nature Preserve", "pluralName": "Nature Preserves", "shortName": "Preserve", "icon": {"prefix": "https://ss3.4sqi.net/img/categories_v2/parks_outdoors/naturepreserve_", "suffix": ".png"}, "primary": true}], "photos": {"count": 0, "groups": []}}, "referralId": "e-0-55ee7ef4498e64d24a622c08-14"}, {"reasons": {"count": 0, "items": [{"summary": "This spot is popular", "type": "general", "reasonName": "globalInteractionReason"}]}, "venue": {"id": "573f6afc498eaddb02f7cb99", "name": "IBB Hotel Blue", "location": {"address": "Gross-Berliner Damm 71", "lat": 52.44630511603931, "lng": 13.51521644657562, "labeledLatLngs": [{"label": "display", "lat": 52.44630511603931, "lng": 13.51521644657562}], "distance": 801, "cc": "DE", "city": "Berlin K\u00f6penick", "state": "Berlin", "country": "Deutschland", "formattedAddress": ["Gross-Berliner Damm 71", "Berlin-K\u00f6penick", "Deutschland"]}, "categories": [{"id": "4bf58dd8d48988d1fa931735", "name": "Hotel", "pluralName": "Hotels", "shortName": "Hotel", "icon": {"prefix": "https://ss3.4sqi.net/img/categories_v2/travel/hotel_", "suffix": ".png"}, "primary": true}], "photos": {"count": 0, "groups": []}}, "referralId": "e-0-573f6afc498eaddb02f7cb99-15"}, {"reasons": {"count": 0, "items": [{"summary": "This spot is popular", "type": "general", "reasonName": "globalInteractionReason"}]}, "venue": {"id": "4c08f7f5009a0f4763dfe6bf", "name": "Getr\u00e4nke Hoffmann", "location": {"address": "Pietschkerstr. 14", "lat": 52.450647766189526, "lng": 13.50941245767217, "labeledLatLngs": [{"label": "display", "lat": 52.450647766189526, "lng": 13.50941245767217}], "distance": 831, "postalCode": "12487", "cc": "DE", "city": "Berlin", "state": "Berlin", "country": "Deutschland", "formattedAddress": ["Pietschkerstr. 14", "12487 Berlin", "Deutschland"]}, "categories": [{"id": "4bf58dd8d48988d186941735", "name": "Liquor Store", "pluralName": "Liquor Stores", "shortName": "Liquor Store", "icon": {"prefix": "https://ss3.4sqi.net/img/categories_v2/shops/food_liquor_", "suffix": ".png"}, "primary": true}], "photos": {"count": 0, "groups": []}}, "referralId": "e-0-4c08f7f5009a0f4763dfe6bf-16"}, {"reasons": {"count": 0, "items": [{"summary": "This spot is popular", "type": "general", "reasonName": "globalInteractionReason"}]}, "venue": {"id": "4d498dd948a06dcb52ed70a2", "name": "Netto Marken-Discount", "location": {"address": "Sterndamm 33", "lat": 52.45112268, "lng": 13.50872614, "labeledLatLngs": [{"label": "display", "lat": 52.45112268, "lng": 13.50872614}], "distance": 861, "postalCode": "12487", "cc": "DE", "city": "Johannisthal", "state": "Berlin", "country": "Deutschland", "formattedAddress": ["Sterndamm 33", "12487 Johannisthal", "Deutschland"]}, "categories": [{"id": "52f2ab2ebcbc57f1066b8b46", "name": "Supermarket", "pluralName": "Supermarkets", "shortName": "Supermarket", "icon": {"prefix": "https://ss3.4sqi.net/img/categories_v2/shops/food_grocery_", "suffix": ".png"}, "primary": true}], "photos": {"count": 0, "groups": []}, "venuePage": {"id": "541029561"}}, "referralId": "e-0-4d498dd948a06dcb52ed70a2-17"}]