[{"reasons": {"count": 0, "items": [{"summary": "This spot is popular", "type": "general", "reasonName": "globalInteractionReason"}]}, "venue": {"id": "4adcda8ef964a520b24a21e3", "name": "Wochenmarkt Karl-August-Platz", "location": {"address": "Karl-August-Platz", "crossStreet": "Weimarer Str.", "lat": 52.50865, "lng": 13.311159, "labeledLatLngs": [{"label": "display", "lat": 52.50865, "lng": 13.311159}], "distance": 192, "postalCode": "10625", "cc": "DE", "neighborhood": "Charlottenburg", "city": "Berlin", "state": "Berlin", "country": "Deutschland", "formattedAddress": ["Karl-August-Platz (Weimarer Str.)", "10625 Berlin", "Deutschland"]}, "categories": [{"id": "4bf58dd8d48988d1fa941735", "name": "Farmers Market", "pluralName": "Farmers Markets", "shortName": "Farmer's Market", "icon": {"prefix": "https://ss3.4sqi.net/img/categories_v2/shops/food_farmersmarket_", "suffix": ".png"}, "primary": true}], "photos": {"count": 0, "groups": []}}, "referralId": "e-0-4adcda8ef964a520b24a21e3-0"}, {"reasons": {"count": 0, "items": [{"summary": "This spot is popular", "type": "general", "reasonName": "globalInteractionReason"}]}, "venue": {"id": "4ddce7c8887775ea9c4ab99c", "name": "Mezem", "location": {"address": "Kantstr. 124", "crossStreet": "10625", "lat": 52.50642735060616, "lng": 13.311357987051466, "labeledLatLngs": [{"label": "display", "lat": 52.50642735060616, "lng": 13.311357987051466}], "distance": 261, "postalCode": "10625", "cc": "DE", "city": "Berlin", "state": "Berlin", "country": "Deutschland", "formattedAddress": ["Kantstr. 124 (10625)", "10625 Berlin", "Deutschland"]}, "categories": [{"id": "4bf58dd8d48988d1c0941735", "name": "Mediterranean Restaurant", "pluralName": "Mediterranean Restaurants", "shortName": "Mediterranean", "icon": {"prefix": "https://ss3.4sqi.net/img/categories_v2/food/mediterranean_", "suffix": ".png"}, "primary": true}], "photos": {"count": 0, "groups": []}}, "referralId": "e-0-4ddce7c8887775ea9c4ab99c-1"}, {"reasons": {"count": 0, "items": [{"summary": "This spot is popular", "type": "general", "reasonName": "globalInteractionReason"}]}, "venue": {"id": "4c519c1dcad99c74e32430c3", "name": "Lon-Men\u2019s Noodle House", "location": {"address": "Kantstr. 33", "lat": 52.50629582801855, "lng": 13.31644892692566, "labeledLatLngs": [{"label": "display", "lat": 52.50629582801855, "lng": 13.31644892692566}], "distance": 273, "postalCode": "10625", "cc": "DE", "city": "Berlin", "state": "Berlin", "country": "Deutschland", "formattedAddress": ["Kantstr. 33", "10625 Berlin", "Deutschland"]}, "categories": [{"id": "4bf58dd8d48988d1d1941735", "name": "Noodle House", "pluralName": "Noodle Houses", "shortName": "Noodles", "icon": {"prefix": "https://ss3.4sqi.net/img/categories_v2/food/ramen_", "suffix": ".png"}, "primary": true}], "photos": {"count": 0, "groups": []}}, "referralId": "e-0-4c519c1dcad99c74e32430c3-2"}, {"reasons": {"count": 0, "items": [{"summary": "This spot is popular", "type": "general", "reasonName": "globalInteractionReason"}]}, "venue": {"id": "4cd9500415d8b60c55566a0e", "name": "Mitte Meer", "location": {"address": "Kantstr. 42", "lat": 52.506367842033306, "lng": 13.31271074971485, "labeledLatLngs": [{"label": "display", "lat": 52.506367842033306, "lng": 13.31271074971485}], "distance": 219, "postalCode": "10625", "cc": "DE", "city": "Berlin", "state": "Berlin", "country": "Deutschland", "formattedAddress": ["Kantstr. 42", "10625 Berlin", "Deutschland"]}, "categories": [{"id": "4bf58dd8d48988d1f5941735", "name": "Gourmet Shop", "pluralName": "Gourmet Shops", "shortName": "Gourmet", "icon": {"prefix": "https://ss3.4sqi.net/img/categories_v2/shops/food_gourmet_", "suffix": ".png"}, "primary": true}], "photos": {"count": 0, "groups": []}}, "referralId": "e-0-4cd9500415d8b60c55566a0e-3"}, {"reasons": {"count": 0, "items": [{"summary": "This spot is popular", "type": "general", "reasonName": "globalInteractionReason"}]}, "venue": {"id": "4c59eb072091a5933d1e5ed0", "name": "Union Jack - The Whiskey Pub", "location": {"address": "Schl\u00fcterstr. 15", "lat": 52.50807842351863, "lng": 13.317868494769204, "labeledLatLngs": [{"label": "display", "lat": 52.50807842351863, "lng": 13.317868494769204}], "distance": 269, "postalCode": "10625", "cc": "DE", "city": "Berlin", "state": "Berlin", "country": "Deutschland", "formattedAddress": ["Schl\u00fcterstr. 15", "10625 Berlin", "Deutschland"]}, "categories": [{"id": "4bf58dd8d48988d122941735", "name": "Whisky Bar", "pluralName": "Whisky Bars", "shortName": "Whisky Bar", "icon": {"prefix": "https://ss3.4sqi.net/img/categories_v2/nightlife/whiskey_", "suffix": ".png"}, "primary": true}], "photos": {"count": 0, "groups": []}}, "referralId": "e-0-4c59eb072091a5933d1e5ed0-4"}, {"reasons": {"count": 0, "items": [{"summary": "This spot is popular", "type": "general", "reasonName": "globalInteractionReason"}]}, "venue": {"id": "57eac061498e054f88dda280", "name": "Son Kitchen", "location": {"address": "Kantstra\u00dfe 46", "lat": 52.50646241584248, "lng": 13.31168185520665, "labeledLatLngs": [{"label": "display", "lat": 52.50646241584248, "lng": 13.31168185520665}], "distance": 245, "postalCode": "10625", "cc": "DE", "city": "Berlin", "state": "Berlin", "country": "Deutschland", "formattedAddress": ["Kantstra\u00dfe 46", "10625 Berlin", "Deutschland"]}, "categories": [{"id": "4bf58dd8d48988d113941735", "name": "Korean Restaurant", "pluralName": "Korean Restaurants", "shortName": "Korean", "icon": {"prefix": "https://ss3.4sqi.net/img/categories_v2/food/korean_", "suffix": ".png"}, "primary": true}], "photos": {"count": 0, "groups": []}}, "referralId": "e-0-57eac061498e054f88dda280-5"}, {"reasons": {"count": 0, "items": [{"summary": "This spot is popular", "type": "general", "reasonName": "globalInteractionReason"}]}, "venue": {"id": "55894001498e344d61f2834e", "name": "La Piadina", "location": {"address": "Kantstr. 130", "lat": 52.50625596634038, "lng": 13.313354990109868, "labeledLatLngs": [{"label": "display", "lat": 52.50625596634038, "lng": 13.313354990109868}], "distance": 219, "cc": "DE", "city": "Berlin", "state": "Berlin", "country": "Deutschland", "formattedAddress": ["Kantstr. 130", "Berlin", "Deutschland"]}, "categories": [{"id": "52e81612bcbc57f1066b79f1", "name": "Bistro", "pluralName": "Bistros", "shortName": "Bistro", "icon": {"prefix": "https://ss3.4sqi.net/img/categories_v2/food/default_", "suffix": ".png"}, "primary": true}], "photos": {"count": 0, "groups": []}}, "referralId": "e-0-55894001498e344d61f2834e-6"}, {"reasons": {"count": 0, "items": [{"summary": "This spot is popular", "type": "general", "reasonName": "globalInteractionReason"}]}, "venue": {"id": "577df32c498e861ea267132c", "name": "893 Ry\u014dtei", "location": {"address": "Kantstr. 135", "lat": 52.505975, "lng": 13.31696, "labeledLatLngs": [{"label": "display", "lat": 52.505975, "lng": 13.31696}], "distance": 322, "postalCode": "10625", "cc": "DE", "city": "Berlin", "state": "Berlin", "country": "Deutschland", "formattedAddress": ["Kantstr. 135", "10625 Berlin", "Deutschland"]}, "categories": [{"id": "4bf58dd8d48988d142941735", "name": "Asian Restaurant", "pluralName": "Asian Restaurants", "shortName": "Asian", "icon": {"prefix": "https://ss3.4sqi.net/img/categories_v2/food/asian_", "suffix": ".png"}, "primary": true}], "photos": {"count": 0, "groups": []}}, "referralId": "e-0-577df32c498e861ea267132c-7"}, {"reasons": {"count": 0, "items": [{"summary": "This spot is popular", "type": "general", "reasonName": "globalInteractionReason"}]}, "venue": {"id": "4e5e1306ae60a1cb36d84b6e", "name": "Furusato", "location": {"address": "Leibnizstr. 35", "lat": 52.5066895251598, "lng": 13.313973841721666, "labeledLatLngs": [{"label": "display", "lat": 52.5066895251598, "lng": 13.313973841721666}], "distance": 168, "postalCode": "10625", "cc": "DE", "city": "Berlin", "state": "Berlin", "country": "Deutschland", "formattedAddress": ["Leibnizstr. 35", "10625 Berlin", "Deutschland"]}, "categories": [{"id": "4bf58dd8d48988d113941735", "name": "Korean Restaurant", "pluralName": "Korean Restaurants", "shortName": "Korean", "icon": {"prefix": "https://ss3.4sqi.net/img/categories_v2/food/korean_", "suffix": ".png"}, "primary": true}], "photos": {"count": 0, "groups": []}}, "referralId": "e-0-4e5e1306ae60a1cb36d84b6e-8"}, {"reasons": {"count": 0, "items": [{"summary": "This spot is popular", "type": "general", "reasonName": "globalInteractionReason"}]}, "venue": {"id": "4c53171f06901b8d397a8849", "name": "Restaurant Biscotti", "location": {"address": "Pestalozzistrasse 88", "lat": 52.507745767353335, "lng": 13.311113023779724, "labeledLatLngs": [{"label": "display", "lat": 52.507745767353335, "lng": 13.311113023779724}], "distance": 195, "cc": "DE", "city": "Berlin", "state": "Berlin", "country": "Deutschland", "formattedAddress": ["Pestalozzistrasse 88", "Berlin", "Deutschland"]}, "categories": [{"id": "4bf58dd8d48988d110941735", "name": "Italian Restaurant", "pluralName": "Italian Restaurants", "shortName": "Italian", "icon": {"prefix": "https://ss3.4sqi.net/img/categories_v2/food/italian_", "suffix": ".png"}, "primary": true}], "photos": {"count": 0, "groups": []}}, "referralId": "e-0-4c53171f06901b8d397a8849-9"}, {"reasons": {"count": 0, "items": [{"summary": "This spot is popular", "type": "general", "reasonName": "globalInteractionReason"}]}, "venue": {"id": "55362f77498e189b2802cf25", "name": "Waffle Brothers", "location": {"address": "Kantstr. 119", "lat": 52.50655104765713, "lng": 13.309838055798608, "labeledLatLngs": [{"label": "display", "lat": 52.50655104765713, "lng": 13.309838055798608}], "distance": 330, "cc": "DE", "city": "Berlin", "state": "Berlin", "country": "Deutschland", "formattedAddress": ["Kantstr. 119", "Berlin", "Deutschland"]}, "categories": [{"id": "52e81612bcbc57f1066b7a0a", "name": "Pie Shop", "pluralName": "Pie Shops", "shortName": "Pie Shop", "icon": {"prefix": "https://ss3.4sqi.net/img/categories_v2/food/pieshop_", "suffix": ".png"}, "primary": true}], "photos": {"count": 0, "groups": []}}, "referralId": "e-0-55362f77498e189b2802cf25-10"}, {"reasons": {"count": 0, "items": [{"summary": "This spot is popular", "type": "general", "reasonName": "globalInteractionReason"}]}, "venue": {"id": "4b8ed2f8f964a520493933e3", "name": "Ristorante Pascarella", "location": {"address": "Schl\u00fcterstr. 69", "crossStreet": "Pestalozzistr.", "lat": 52.507643315302765, "lng": 13.317969484758093, "labeledLatLngs": [{"label": "display", "lat": 52.507643315302765, "lng": 13.317969484758093}], "distance": 282, "postalCode": "10625", "cc": "DE", "city": "Berlin", "state": "Berlin", "country": "Deutschland", "formattedAddress": ["Schl\u00fcterstr. 69 (Pestalozzistr.)", "10625 Berlin", "Deutschland"]}, "categories": [{"id": "4bf58dd8d48988d110941735", "name": "Italian Restaurant", "pluralName": "Italian Restaurants", "shortName": "Italian", "icon": {"prefix": "https://ss3.4sqi.net/img/categories_v2/food/italian_", "suffix": ".png"}, "primary": true}], "photos": {"count": 0, "groups": []}}, "referralId": "e-0-4b8ed2f8f964a520493933e3-11"}, {"reasons": {"count": 0, "items": [{"summary": "This spot is popular", "type": "general", "reasonName": "globalInteractionReason"}]}, "venue": {"id": "5ab67298fd9d732167fae0b0", "name": "Reeham Coffee", "location": {"address": "Schl\u00fcterstr. 12", "crossStreet": "Goethestr.", "lat": 52.50866787327402, "lng": 13.3179269464631, "labeledLatLngs": [{"label": "display", "lat": 52.50866787327402, "lng": 13.3179269464631}], "distance": 277, "postalCode": "10625", "cc": "DE", "neighborhood": "Charlottenburg", "city": "Berlin", "state": "Berlin", "country": "Deutschland", "formattedAddress": ["Schl\u00fcterstr. 12 (Goethestr.)", "10625 Berlin", "Deutschland"]}, "categories": [{"id": "4bf58dd8d48988d1e0931735", "name": "Coffee Shop", "pluralName": "Coffee Shops", "shortName": "Coffee Shop", "icon": {"prefix": "https://ss3.4sqi.net/img/categories_v2/food/coffeeshop_", "suffix": ".png"}, "primary": true}], "photos": {"count": 0, "groups": []}}, "referralId": "e-0-5ab67298fd9d732167fae0b0-12"}, {"reasons": {"count": 0, "items": [{"summary": "This spot is popular", "type": "general", "reasonName": "globalInteractionReason"}]}, "venue": {"id": "4adcda89f964a520a14921e3", "name": "A-Trane", "location": {"address": "Bleibtreustr. 1", "crossStreet": "Pestalozzistr.", "lat": 52.50728516736879, "lng": 13.320102095603943, "labeledLatLngs": [{"label": "display", "lat": 52.50728516736879, "lng": 13.320102095603943}], "distance": 432, "postalCode": "10625", "cc": "DE", "city": "Berlin", "state": "Berlin", "country": "Deutschland", "formattedAddress": ["Bleibtreustr. 1 (Pestalozzistr.)", "10625 Berlin", "Deutschland"]}, "categories": [{"id": "4bf58dd8d48988d1e7931735", "name": "Jazz Club", "pluralName": "Jazz Clubs", "shortName": "Jazz Club", "icon": {"prefix": "https://ss3.4sqi.net/img/categories_v2/arts_entertainment/musicvenue_jazzclub_", "suffix": ".png"}, "primary": true}], "photos": {"count": 0, "groups": []}}, "referralId": "e-0-4adcda89f964a520a14921e3-13"}, {"reasons": {"count": 0, "items": [{"summary": "This spot is popular", "type": "general", "reasonName": "globalInteractionReason"}]}, "venue": {"id": "4adcda8ff964a520e64a21e3", "name": "Aqui Espa\u00f1a", "location": {"address": "Kantstr. 34", "lat": 52.50612943963958, "lng": 13.31634807234809, "labeledLatLngs": [{"label": "display", "lat": 52.50612943963958, "lng": 13.31634807234809}], "distance": 283, "postalCode": "10625", "cc": "DE", "city": "Berlin", "state": "Berlin", "country": "Deutschland", "formattedAddress": ["Kantstr. 34", "10625 Berlin", "Deutschland"]}, "categories": [{"id": "4bf58dd8d48988d1f5941735", "name": "Gourmet Shop", "pluralName": "Gourmet Shops", "shortName": "Gourmet", "icon": {"prefix": "https://ss3.4sqi.net/img/categories_v2/shops/food_gourmet_", "suffix": ".png"}, "primary": true}], "photos": {"count": 0, "groups": []}}, "referralId": "e-0-4adcda8ff964a520e64a21e3-14"}, {"reasons": {"count": 0, "items": [{"summary": "This spot is popular", "type": "general", "reasonName": "globalInteractionReason"}]}, "venue": {"id": "4adcda88f964a5205c4921e3", "name": "KUCHI Kant", "location": {"address": "Kantstr. 30", "crossStreet": "Schl\u00fcterstr.", "lat": 52.50621419836479, "lng": 13.318248689174652, "labeledLatLngs": [{"label": "display", "lat": 52.50621419836479, "lng": 13.318248689174652}], "distance": 368, "postalCode": "10623", "cc": "DE", "city": "Berlin", "state": "Berlin", "country": "Deutschland", "formattedAddress": ["Kantstr. 30 (Schl\u00fcterstr.)", "10623 Berlin", "Deutschland"]}, "categories": [{"id": "4bf58dd8d48988d1d2941735", "name": "Sushi Restaurant", "pluralName": "Sushi Restaurants", "shortName": "Sushi", "icon": {"prefix": "https://ss3.4sqi.net/img/categories_v2/food/sushi_", "suffix": ".png"}, "primary": true}], "photos": {"count": 0, "groups": []}}, "referralId": "e-0-4adcda88f964a5205c4921e3-15"}, {"reasons": {"count": 0, "items": [{"summary": "This spot is popular", "type": "general", "reasonName": "globalInteractionReason"}]}, "venue": {"id": "4dcd840ae4cd130e164fd996", "name": "Anabelas Kitchen", "location": {"address": "Pestalozzistra\u00dfe 3", "lat": 52.50758218505683, "lng": 13.319853095444227, "labeledLatLngs": [{"label": "display", "lat": 52.50758218505683, "lng": 13.319853095444227}], "distance": 409, "postalCode": "10625", "cc": "DE", "city": "Berlin", "state": "Berlin", "country": "Deutschland", "formattedAddress": ["Pestalozzistra\u00dfe 3", "10625 Berlin", "Deutschland"]}, "categories": [{"id": "4bf58dd8d48988d1c4941735", "name": "Restaurant", "pluralName": "Restaurants", "shortName": "Restaurant", "icon": {"prefix": "https://ss3.4sqi.net/img/categories_v2/food/default_", "suffix": ".png"}, "primary": true}], "photos": {"count": 0, "groups": []}}, "referralId": "e-0-4dcd840ae4cd130e164fd996-16"}, {"reasons": {"count": 0, "items": [{"summary": "This spot is popular", "type": "general", "reasonName": "globalInteractionReason"}]}, "venue": {"id": "56b8e7b6498e53579eaf155c", "name": "Kame", "location": {"address": "Leibnizstr. 45", "lat": 52.50385597300255, "lng": 13.313506884965676, "labeledLatLngs": [{"label": "display", "lat": 52.50385597300255, "lng": 13.313506884965676}], "distance": 484, "cc": "DE", "city": "Berlin", "state": "Berlin", "country": "Deutschland", "formattedAddress": ["Leibnizstr. 45", "Berlin", "Deutschland"]}, "categories": [{"id": "4bf58dd8d48988d16a941735", "name": "Bakery", "pluralName": "Bakeries", "shortName": "Bakery", "icon": {"prefix": "https://ss3.4sqi.net/img/categories_v2/food/bakery_", "suffix": ".png"}, "primary": true}], "photos": {"count": 0, "groups": []}}, "referralId": "e-0-56b8e7b6498e53579eaf155c-17"}, {"reasons": {"count": 0, "items": [{"summary": "This spot is popular", "type": "general", "reasonName": "globalInteractionReason"}]}, "venue": {"id": "4d1b976a2dd9370497a943b5", "name": "Do De Li China Restaurant", "location": {"address": "Kantstr. 120", "lat": 52.506488740335136, "lng": 13.310322341697349, "labeledLatLngs": [{"label": "display", "lat": 52.506488740335136, "lng": 13.310322341697349}], "distance": 308, "postalCode": "10625", "cc": "DE", "city": "Berlin", "state": "Berlin", "country": "Deutschland", "formattedAddress": ["Kantstr. 120", "10625 Berlin", "Deutschland"]}, "categories": [{"id": "4bf58dd8d48988d145941735", "name": "Chinese Restaurant", "pluralName": "Chinese Restaurants", "shortName": "Chinese", "icon": {"prefix": "https://ss3.4sqi.net/img/categories_v2/food/asian_", "suffix": ".png"}, "primary": true}], "photos": {"count": 0, "groups": []}}, "referralId": "e-0-4d1b976a2dd9370497a943b5-18"}, {"reasons": {"count": 0, "items": [{"summary": "This spot is popular", "type": "general", "reasonName": "globalInteractionReason"}]}, "venue": {"id": "4c6bd5f11fb2a143f4ecf9e6", "name": "Thomas-Eck", "location": {"address": "Pestalozzistr. 25", "lat": 52.50792384711569, "lng": 13.3094065461821, "labeledLatLngs": [{"label": "display", "lat": 52.50792384711569, "lng": 13.3094065461821}], "distance": 306, "postalCode": "10627", "cc": "DE", "city": "Berlin", "state": "Berlin", "country": "Deutschland", "formattedAddress": ["Pestalozzistr. 25", "10627 Berlin", "Deutschland"]}, "categories": [{"id": "4bf58dd8d48988d10d941735", "name": "German Restaurant", "pluralName": "German Restaurants", "shortName": "German", "icon": {"prefix": "https://ss3.4sqi.net/img/categories_v2/food/german_", "suffix": ".png"}, "primary": true}], "photos": {"count": 0, "groups": []}}, "referralId": "e-0-4c6bd5f11fb2a143f4ecf9e6-19"}, {"reasons": {"count": 0, "items": [{"summary": "This spot is popular", "type": "general", "reasonName": "globalInteractionReason"}]}, "venue": {"id": "4b8137fef964a520ef9a30e3", "name": "Der Kuchenladen", "location": {"address": "Kantstr. 138", "lat": 52.506054200276175, "lng": 13.318311072009823, "labeledLatLngs": [{"label": "display", "lat": 52.506054200276175, "lng": 13.318311072009823}], "distance": 382, "postalCode": "10623", "cc": "DE", "city": "Berlin", "state": "Berlin", "country": "Deutschland", "formattedAddress": ["Kantstr. 138", "10623 Berlin", "Deutschland"]}, "categories": [{"id": "5744ccdfe4b0c0459246b4e2", "name": "Pastry Shop", "pluralName": "Pastry Shops", "shortName": "Pastry", "icon": {"prefix": "https://ss3.4sqi.net/img/categories_v2/food/dessert_", "suffix": ".png"}, "primary": true}], "photos": {"count": 0, "groups": []}}, "referralId": "e-0-4b8137fef964a520ef9a30e3-20"}, {"reasons": {"count": 0, "items": [{"summary": "This spot is popular", "type": "general", "reasonName": "globalInteractionReason"}]}, "venue": {"id": "5ac2b346c21cb14a2721cdd9", "name": "Shiso Burger", "location": {"address": "Kantstr. 51", "crossStreet": "Krumme Str.", "lat": 52.506668145094, "lng": 13.309393129343677, "labeledLatLngs": [{"label": "display", "lat": 52.506668145094, "lng": 13.309393129343677}], "distance": 349, "postalCode": "10625", "cc": "DE", "neighborhood": "Charlottenburg", "city": "Berlin", "state": "Berlin", "country": "Deutschland", "formattedAddress": ["Kantstr. 51 (Krumme Str.)", "10625 Berlin", "Deutschland"]}, "categories": [{"id": "4bf58dd8d48988d16c941735", "name": "Burger Joint", "pluralName": "Burger Joints", "shortName": "Burgers", "icon": {"prefix": "https://ss3.4sqi.net/img/categories_v2/food/burger_", "suffix": ".png"}, "primary": true}], "photos": {"count": 0, "groups": []}}, "referralId": "e-0-5ac2b346c21cb14a2721cdd9-21"}, {"reasons": {"count": 0, "items": [{"summary": "This spot is popular", "type": "general", "reasonName": "globalInteractionReason"}]}, "venue": {"id": "55f9a48e498ee737a1893058", "name": "Heno Heno", "location": {"address": "Wielandstr. 37", "lat": 52.503964035304826, "lng": 13.315577685864188, "labeledLatLngs": [{"label": "display", "lat": 52.503964035304826, "lng": 13.315577685864188}], "distance": 485, "postalCode": "10623", "cc": "DE", "city": "Berlin", "state": "Berlin", "country": "Deutschland", "formattedAddress": ["Wielandstr. 37", "10623 Berlin", "Deutschland"]}, "categories": [{"id": "4bf58dd8d48988d111941735", "name": "Japanese Restaurant", "pluralName": "Japanese Restaurants", "shortName": "Japanese", "icon": {"prefix": "https://ss3.4sqi.net/img/categories_v2/food/japanese_", "suffix": ".png"}, "primary": true}], "photos": {"count": 0, "groups": []}}, "referralId": "e-0-55f9a48e498ee737a1893058-22"}, {"reasons": {"count": 0, "items": [{"summary": "This spot is popular", "type": "general", "reasonName": "globalInteractionReason"}]}, "venue": {"id": "5072fbf6e4b025893d842ca1", "name": "Papaya", "location": {"address": "Kantstr. 122", "lat": 52.50652157079766, "lng": 13.31042706804544, "labeledLatLngs": [{"label": "display", "lat": 52.50652157079766, "lng": 13.31042706804544}], "distance": 300, "postalCode": "10625", "cc": "DE", "city": "Berlin", "state": "Berlin", "country": "Deutschland", "formattedAddress": ["Kantstr. 122", "10625 Berlin", "Deutschland"]}, "categories": [{"id": "4bf58dd8d48988d149941735", "name": "Thai Restaurant", "pluralName": "Thai Restaurants", "shortName": "Thai", "icon": {"prefix": "https://ss3.4sqi.net/img/categories_v2/food/thai_", "suffix": ".png"}, "primary": true}], "photos": {"count": 0, "groups": []}}, "referralId": "e-0-5072fbf6e4b025893d842ca1-23"}, {"reasons": {"count": 0, "items": [{"summary": "This spot is popular", "type": "general", "reasonName": "globalInteractionReason"}]}, "venue": {"id": "4bbb91b4ed7776b0289e3e51", "name": "Baba Angora", "location": {"address": "Schl\u00fcterstr. 29", "crossStreet": "Niebuhrstr.", "lat": 52.50397748686864, "lng": 13.31718921661377, "labeledLatLngs": [{"label": "display", "lat": 52.50397748686864, "lng": 13.31718921661377}], "distance": 520, "postalCode": "10629", "cc": "DE", "city": "Berlin", "state": "Berlin", "country": "Deutschland", "formattedAddress": ["Schl\u00fcterstr. 29 (Niebuhrstr.)", "10629 Berlin", "Deutschland"]}, "categories": [{"id": "5283c7b4e4b094cb91ec88d8", "name": "Doner Restaurant", "pluralName": "Doner Restaurants", "shortName": "Doner", "icon": {"prefix": "https://ss3.4sqi.net/img/categories_v2/food/turkish_", "suffix": ".png"}, "primary": true}], "photos": {"count": 0, "groups": []}}, "referralId": "e-0-4bbb91b4ed7776b0289e3e51-24"}, {"reasons": {"count": 0, "items": [{"summary": "This spot is popular", "type": "general", "reasonName": "globalInteractionReason"}]}, "venue": {"id": "4b6eaf64f964a5208ec62ce3", "name": "Karun Bistro", "location": {"address": "Pestalozzistr. 29", "lat": 52.50786951631908, "lng": 13.308000388589877, "labeledLatLngs": [{"label": "display", "lat": 52.50786951631908, "lng": 13.308000388589877}], "distance": 401, "postalCode": "10627", "cc": "DE", "city": "Berlin", "state": "Berlin", "country": "Deutschland", "formattedAddress": ["Pestalozzistr. 29", "10627 Berlin", "Deutschland"]}, "categories": [{"id": "52e81612bcbc57f1066b79f7", "name": "Persian Restaurant", "pluralName": "Persian Restaurants", "shortName": "Persian", "icon": {"prefix": "https://ss3.4sqi.net/img/categories_v2/food/middleeastern_", "suffix": ".png"}, "primary": true}], "photos": {"count": 0, "groups": []}}, "referralId": "e-0-4b6eaf64f964a5208ec62ce3-25"}, {"reasons": {"count": 0, "items": [{"summary": "This spot is popular", "type": "general", "reasonName": "globalInteractionReason"}]}, "venue": {"id": "4bbe353b9474c9b63e41d9b6", "name": "Kushinoya", "location": {"address": "Bleibtreustr. 6", "lat": 52.50537184202184, "lng": 13.31998218055456, "labeledLatLngs": [{"label": "display", "lat": 52.50537184202184, "lng": 13.31998218055456}], "distance": 518, "postalCode": "10623", "cc": "DE", "city": "Berlin", "state": "Berlin", "country": "Deutschland", "formattedAddress": ["Bleibtreustr. 6", "10623 Berlin", "Deutschland"]}, "categories": [{"id": "4bf58dd8d48988d111941735", "name": "Japanese Restaurant", "pluralName": "Japanese Restaurants", "shortName": "Japanese", "icon": {"prefix": "https://ss3.4sqi.net/img/categories_v2/food/japanese_", "suffix": ".png"}, "primary": true}], "photos": {"count": 0, "groups": []}}, "referralId": "e-0-4bbe353b9474c9b63e41d9b6-26"}, {"reasons": {"count": 0, "items": [{"summary": "This spot is popular", "type": "general", "reasonName": "globalInteractionReason"}]}, "venue": {"id": "5bf0628165cdf80039f94050", "name": "Ngokimpak", "location": {"address": "Schl\u00fcterstr. 22-23", "crossStreet": "Kantstr.", "lat": 52.50563890188135, "lng": 13.317427241520987, "labeledLatLngs": [{"label": "display", "lat": 52.50563890188135, "lng": 13.317427241520987}], "distance": 371, "postalCode": "10625", "cc": "DE", "city": "Berlin", "state": "Berlin", "country": "Deutschland", "formattedAddress": ["Schl\u00fcterstr. 22-23 (Kantstr.)", "10625 Berlin", "Deutschland"]}, "categories": [{"id": "4bf58dd8d48988d113941735", "name": "Korean Restaurant", "pluralName": "Korean Restaurants", "shortName": "Korean", "icon": {"prefix": "https://ss3.4sqi.net/img/categories_v2/food/korean_", "suffix": ".png"}, "primary": true}], "photos": {"count": 0, "groups": []}}, "referralId": "e-0-5bf0628165cdf80039f94050-27"}, {"reasons": {"count": 0, "items": [{"summary": "This spot is popular", "type": "general", "reasonName": "globalInteractionReason"}]}, "venue": {"id": "4bd6bba1cfa7b713bff327da", "name": "Deutsche Oper Berlin", "location": {"address": "Bismarckstr. 35", "crossStreet": "Richard-Wagner-Str.", "lat": 52.5120878812058, "lng": 13.308354020118713, "labeledLatLngs": [{"label": "display", "lat": 52.5120878812058, "lng": 13.308354020118713}], "distance": 573, "postalCode": "10627", "cc": "DE", "neighborhood": "Charlottenburg", "city": "Berlin", "state": "Berlin", "country": "Deutschland", "formattedAddress": ["Bismarckstr. 35 (Richard-Wagner-Str.)", "10627 Berlin", "Deutschland"]}, "categories": [{"id": "4bf58dd8d48988d136941735", "name": "Opera House", "pluralName": "Opera Houses", "shortName": "Opera House", "icon": {"prefix": "https://ss3.4sqi.net/img/categories_v2/arts_entertainment/performingarts_operahouse_", "suffix": ".png"}, "primary": true}], "photos": {"count": 0, "groups": []}}, "referralId": "e-0-4bd6bba1cfa7b713bff327da-28"}, {"reasons": {"count": 0, "items": [{"summary": "This spot is popular", "type": "general", "reasonName": "globalInteractionReason"}]}, "venue": {"id": "4bfd58fc4cf820a1ce53ecf4", "name": "Getr\u00e4nkevertrieb Ambrosetti", "location": {"address": "Schillerstr. 103", "crossStreet": "Weimarer Str.", "lat": 52.510617612507616, "lng": 13.313370308484918, "labeledLatLngs": [{"label": "display", "lat": 52.510617612507616, "lng": 13.313370308484918}], "distance": 271, "postalCode": "10625", "cc": "DE", "city": "Berlin", "state": "Berlin", "country": "Deutschland", "formattedAddress": ["Schillerstr. 103 (Weimarer Str.)", "10625 Berlin", "Deutschland"]}, "categories": [{"id": "4bf58dd8d48988d186941735", "name": "Liquor Store", "pluralName": "Liquor Stores", "shortName": "Liquor Store", "icon": {"prefix": "https://ss3.4sqi.net/img/categories_v2/shops/food_liquor_", "suffix": ".png"}, "primary": true}], "photos": {"count": 0, "groups": []}}, "referralId": "e-0-4bfd58fc4cf820a1ce53ecf4-29"}, {"reasons": {"count": 0, "items": [{"summary": "This spot is popular", "type": "general", "reasonName": "globalInteractionReason"}]}, "venue": {"id": "4b6331d8f964a520ba692ae3", "name": "NU Restaurant", "location": {"address": "Schl\u00fcterstr. 55", "crossStreet": "Niebuhrstr.", "lat": 52.504331343704884, "lng": 13.317352328401345, "labeledLatLngs": [{"label": "display", "lat": 52.504331343704884, "lng": 13.317352328401345}], "distance": 490, "postalCode": "10629", "cc": "DE", "city": "Berlin", "state": "Berlin", "country": "Deutschland", "formattedAddress": ["Schl\u00fcterstr. 55 (Niebuhrstr.)", "10629 Berlin", "Deutschland"]}, "categories": [{"id": "4bf58dd8d48988d142941735", "name": "Asian Restaurant", "pluralName": "Asian Restaurants", "shortName": "Asian", "icon": {"prefix": "https://ss3.4sqi.net/img/categories_v2/food/asian_", "suffix": ".png"}, "primary": true}], "photos": {"count": 0, "groups": []}}, "referralId": "e-0-4b6331d8f964a520ba692ae3-30"}, {"reasons": {"count": 0, "items": [{"summary": "This spot is popular", "type": "general", "reasonName": "globalInteractionReason"}]}, "venue": {"id": "4e452243a809d4ed1bc4b16b", "name": "Superhahn", "location": {"address": "Kantstra\u00dfe 55", "lat": 52.50646374538298, "lng": 13.30726504760852, "labeledLatLngs": [{"label": "display", "lat": 52.50646374538298, "lng": 13.30726504760852}], "distance": 489, "postalCode": "10623", "cc": "DE", "city": "Berlin", "state": "Berlin", "country": "Deutschland", "formattedAddress": ["Kantstra\u00dfe 55", "10623 Berlin", "Deutschland"]}, "categories": [{"id": "5283c7b4e4b094cb91ec88d8", "name": "Doner Restaurant", "pluralName": "Doner Restaurants", "shortName": "Doner", "icon": {"prefix": "https://ss3.4sqi.net/img/categories_v2/food/turkish_", "suffix": ".png"}, "primary": true}], "photos": {"count": 0, "groups": []}}, "referralId": "e-0-4e452243a809d4ed1bc4b16b-31"}, {"reasons": {"count": 0, "items": [{"summary": "This spot is popular", "type": "general", "reasonName": "globalInteractionReason"}]}, "venue": {"id": "4b715453f964a52060412de3", "name": "Bio Fein Bio", "location": {"address": "Leibnizstr.30", "lat": 52.51120687742219, "lng": 13.311980766406478, "labeledLatLngs": [{"label": "display", "lat": 52.51120687742219, "lng": 13.311980766406478}], "distance": 359, "postalCode": "10625", "cc": "DE", "neighborhood": "Charlottenburg", "city": "Berlin", "state": "Berlin", "country": "Deutschland", "formattedAddress": ["Leibnizstr.30", "10625 Berlin", "Deutschland"]}, "categories": [{"id": "4bf58dd8d48988d1e0931735", "name": "Coffee Shop", "pluralName": "Coffee Shops", "shortName": "Coffee Shop", "icon": {"prefix": "https://ss3.4sqi.net/img/categories_v2/food/coffeeshop_", "suffix": ".png"}, "primary": true}], "photos": {"count": 0, "groups": []}}, "referralId": "e-0-4b715453f964a52060412de3-32"}, {"reasons": {"count": 0, "items": [{"summary": "This spot is popular", "type": "general", "reasonName": "globalInteractionReason"}]}, "venue": {"id": "4c0d2c6a98102d7fe2c6e106", "name": "Cantinetta", "location": {"address": "Goethestr. 38", "crossStreet": "Wilmersdorfer Str.", "lat": 52.508895513060075, "lng": 13.307011663734198, "labeledLatLngs": [{"label": "display", "lat": 52.508895513060075, "lng": 13.307011663734198}], "distance": 473, "postalCode": "10627", "cc": "DE", "neighborhood": "Charlottenburg", "city": "Berlin", "state": "Berlin", "country": "Deutschland", "formattedAddress": ["Goethestr. 38 (Wilmersdorfer Str.)", "10627 Berlin", "Deutschland"]}, "categories": [{"id": "4bf58dd8d48988d110941735", "name": "Italian Restaurant", "pluralName": "Italian Restaurants", "shortName": "Italian", "icon": {"prefix": "https://ss3.4sqi.net/img/categories_v2/food/italian_", "suffix": ".png"}, "primary": true}], "photos": {"count": 0, "groups": []}}, "referralId": "e-0-4c0d2c6a98102d7fe2c6e106-33"}, {"reasons": {"count": 0, "items": [{"summary": "This spot is popular", "type": "general", "reasonName": "globalInteractionReason"}]}, "venue": {"id": "56714ed9498e49f082a12256", "name": "LimaLima", "location": {"address": "Schl\u00fcterstr. 74", "crossStreet": "Goethestr.", "lat": 52.50887999999999, "lng": 13.318160000000034, "labeledLatLngs": [{"label": "display", "lat": 52.50887999999999, "lng": 13.318160000000034}], "distance": 298, "postalCode": "10625", "cc": "DE", "city": "Berlin", "state": "Berlin", "country": "Deutschland", "formattedAddress": ["Schl\u00fcterstr. 74 (Goethestr.)", "10625 Berlin", "Deutschland"]}, "categories": [{"id": "4bf58dd8d48988d16d941735", "name": "Caf\u00e9", "pluralName": "Caf\u00e9s", "shortName": "Caf\u00e9", "icon": {"prefix": "https://ss3.4sqi.net/img/categories_v2/food/cafe_", "suffix": ".png"}, "primary": true}], "photos": {"count": 0, "groups": []}, "venuePage": {"id": "149196886"}}, "referralId": "e-0-56714ed9498e49f082a12256-34"}, {"reasons": {"count": 0, "items": [{"summary": "This spot is popular", "type": "general", "reasonName": "globalInteractionReason"}]}, "venue": {"id": "4adcda8ef964a520954a21e3", "name": "B\u00fccherbogen", "location": {"address": "Stadtbahnbogen 593", "crossStreet": "Savignyplatz", "lat": 52.505095181456156, "lng": 13.321961290189389, "labeledLatLngs": [{"label": "display", "lat": 52.505095181456156, "lng": 13.321961290189389}], "distance": 646, "postalCode": "10623", "cc": "DE", "city": "Berlin", "state": "Berlin", "country": "Deutschland", "formattedAddress": ["Stadtbahnbogen 593 (Savignyplatz)", "10623 Berlin", "Deutschland"]}, "categories": [{"id": "4bf58dd8d48988d114951735", "name": "Bookstore", "pluralName": "Bookstores", "shortName": "Bookstore", "icon": {"prefix": "https://ss3.4sqi.net/img/categories_v2/shops/bookstore_", "suffix": ".png"}, "primary": true}], "photos": {"count": 0, "groups": []}}, "referralId": "e-0-4adcda8ef964a520954a21e3-35"}, {"reasons": {"count": 0, "items": [{"summary": "This spot is popular", "type": "general", "reasonName": "globalInteractionReason"}]}, "venue": {"id": "5662b4d1498e22046910eb23", "name": "Goldhahn & Sampson", "location": {"address": "Wilmersdorfer Str. 102", "lat": 52.50389113594047, "lng": 13.307557139405183, "labeledLatLngs": [{"label": "display", "lat": 52.50389113594047, "lng": 13.307557139405183}], "distance": 644, "postalCode": "10629", "cc": "DE", "city": "Berlin", "state": "Berlin", "country": "Deutschland", "formattedAddress": ["Wilmersdorfer Str. 102", "10629 Berlin", "Deutschland"]}, "categories": [{"id": "4bf58dd8d48988d1f5941735", "name": "Gourmet Shop", "pluralName": "Gourmet Shops", "shortName": "Gourmet", "icon": {"prefix": "https://ss3.4sqi.net/img/categories_v2/shops/food_gourmet_", "suffix": ".png"}, "primary": true}], "photos": {"count": 0, "groups": []}}, "referralId": "e-0-5662b4d1498e22046910eb23-36"}, {"reasons": {"count": 0, "items": [{"summary": "This spot is popular", "type": "general", "reasonName": "globalInteractionReason"}]}, "venue": {"id": "4b67f6eef964a52054622be3", "name": "Hugendubel", "location": {"address": "Wilmersdorfer Str. 121", "lat": 52.50864875906876, "lng": 13.306157194662298, "labeledLatLngs": [{"label": "display", "lat": 52.50864875906876, "lng": 13.306157194662298}], "distance": 527, "postalCode": "10627", "cc": "DE", "city": "Berlin", "state": "Berlin", "country": "Deutschland", "formattedAddress": ["Wilmersdorfer Str. 121", "10627 Berlin", "Deutschland"]}, "categories": [{"id": "4bf58dd8d48988d114951735", "name": "Bookstore", "pluralName": "Bookstores", "shortName": "Bookstore", "icon": {"prefix": "https://ss3.4sqi.net/img/categories_v2/shops/bookstore_", "suffix": ".png"}, "primary": true}], "photos": {"count": 0, "groups": []}, "venuePage": {"id": "580008407"}}, "referralId": "e-0-4b67f6eef964a52054622be3-37"}, {"reasons": {"count": 0, "items": [{"summary": "This spot is popular", "type": "general", "reasonName": "globalInteractionReason"}]}, "venue": {"id": "4aef3ff4f964a520f0d621e3", "name": "Good Friends", "location": {"address": "Kantstr. 30", "crossStreet": "Schl\u00fcterstr.", "lat": 52.506252, "lng": 13.317946, "labeledLatLngs": [{"label": "display", "lat": 52.506252, "lng": 13.317946}], "distance": 349, "postalCode": "10623", "cc": "DE", "city": "Berlin", "state": "Berlin", "country": "Deutschland", "formattedAddress": ["Kantstr. 30 (Schl\u00fcterstr.)", "10623 Berlin", "Deutschland"]}, "categories": [{"id": "4bf58dd8d48988d145941735", "name": "Chinese Restaurant", "pluralName": "Chinese Restaurants", "shortName": "Chinese", "icon": {"prefix": "https://ss3.4sqi.net/img/categories_v2/food/asian_", "suffix": ".png"}, "primary": true}], "photos": {"count": 0, "groups": []}}, "referralId": "e-0-4aef3ff4f964a520f0d621e3-38"}, {"reasons": {"count": 0, "items": [{"summary": "This spot is popular", "type": "general", "reasonName": "globalInteractionReason"}]}, "venue": {"id": "4adcda8bf964a520de4921e3", "name": "Schillertheater", "location": {"address": "Bismarckstr. 110", "lat": 52.51188758321821, "lng": 13.31795003802138, "labeledLatLngs": [{"label": "display", "lat": 52.51188758321821, "lng": 13.31795003802138}], "distance": 493, "postalCode": "10625", "cc": "DE", "city": "Berlin", "state": "Berlin", "country": "Deutschland", "formattedAddress": ["Bismarckstr. 110", "10625 Berlin", "Deutschland"]}, "categories": [{"id": "4bf58dd8d48988d137941735", "name": "Theater", "pluralName": "Theaters", "shortName": "Theater", "icon": {"prefix": "https://ss3.4sqi.net/img/categories_v2/arts_entertainment/performingarts_theater_", "suffix": ".png"}, "primary": true}], "photos": {"count": 0, "groups": []}}, "referralId": "e-0-4adcda8bf964a520de4921e3-39"}, {"reasons": {"count": 0, "items": [{"summary": "This spot is popular", "type": "general", "reasonName": "globalInteractionReason"}]}, "venue": {"id": "5b112c153e70ff0024d0b0d1", "name": "R\u00fcya Gem\u00fcse Kebab", "location": {"lat": 52.513783, "lng": 13.317013, "labeledLatLngs": [{"label": "display", "lat": 52.513783, "lng": 13.317013}], "distance": 656, "cc": "DE", "country": "Deutschland", "formattedAddress": ["Deutschland"]}, "categories": [{"id": "5283c7b4e4b094cb91ec88d7", "name": "Kebab Restaurant", "pluralName": "Kebab Restaurants", "shortName": "Kebab", "icon": {"prefix": "https://ss3.4sqi.net/img/categories_v2/food/middleeastern_", "suffix": ".png"}, "primary": true}], "photos": {"count": 0, "groups": []}}, "referralId": "e-0-5b112c153e70ff0024d0b0d1-40"}, {"reasons": {"count": 0, "items": [{"summary": "This spot is popular", "type": "general", "reasonName": "globalInteractionReason"}]}, "venue": {"id": "57b02da1cd109fd1a67ff7bf", "name": "A Never Ever Ending Love Story", "location": {"address": "Bleibtreustr. 5", "crossStreet": "Kantstr.", "lat": 52.50623705468312, "lng": 13.320048451423645, "labeledLatLngs": [{"label": "display", "lat": 52.50623705468312, "lng": 13.320048451423645}], "distance": 470, "postalCode": "10623", "cc": "DE", "city": "Berlin", "state": "Berlin", "country": "Deutschland", "formattedAddress": ["Bleibtreustr. 5 (Kantstr.)", "10623 Berlin", "Deutschland"]}, "categories": [{"id": "4bf58dd8d48988d143941735", "name": "Breakfast Spot", "pluralName": "Breakfast Spots", "shortName": "Breakfast", "icon": {"prefix": "https://ss3.4sqi.net/img/categories_v2/food/breakfast_", "suffix": ".png"}, "primary": true}], "photos": {"count": 0, "groups": []}}, "referralId": "e-0-57b02da1cd109fd1a67ff7bf-41"}, {"reasons": {"count": 0, "items": [{"summary": "This spot is popular", "type": "general", "reasonName": "globalInteractionReason"}]}, "venue": {"id": "5618dacd498eac6e7f54ca29", "name": "Lubitsch", "location": {"address": "Bleibtreustr. 47", "lat": 52.504459005663584, "lng": 13.319873410846645, "labeledLatLngs": [{"label": "display", "lat": 52.504459005663584, "lng": 13.319873410846645}], "distance": 580, "postalCode": "10623", "cc": "DE", "city": "Berlin", "state": "Berlin", "country": "Deutschland", "formattedAddress": ["Bleibtreustr. 47", "10623 Berlin", "Deutschland"]}, "categories": [{"id": "4bf58dd8d48988d1c4941735", "name": "Restaurant", "pluralName": "Restaurants", "shortName": "Restaurant", "icon": {"prefix": "https://ss3.4sqi.net/img/categories_v2/food/default_", "suffix": ".png"}, "primary": true}], "photos": {"count": 0, "groups": []}}, "referralId": "e-0-5618dacd498eac6e7f54ca29-42"}, {"reasons": {"count": 0, "items": [{"summary": "This spot is popular", "type": "general", "reasonName": "globalInteractionReason"}]}, "venue": {"id": "4e805c41b634542476023bac", "name": "Saigon Green", "location": {"address": "Kantstr. 23", "lat": 52.50598341613768, "lng": 13.320860715045661, "labeledLatLngs": [{"label": "display", "lat": 52.50598341613768, "lng": 13.320860715045661}], "distance": 532, "postalCode": "10623", "cc": "DE", "city": "Berlin", "state": "Berlin", "country": "Deutschland", "formattedAddress": ["Kantstr. 23", "10623 Berlin", "Deutschland"]}, "categories": [{"id": "4bf58dd8d48988d14a941735", "name": "Vietnamese Restaurant", "pluralName": "Vietnamese Restaurants", "shortName": "Vietnamese", "icon": {"prefix": "https://ss3.4sqi.net/img/categories_v2/food/vietnamese_", "suffix": ".png"}, "primary": true}], "photos": {"count": 0, "groups": []}}, "referralId": "e-0-4e805c41b634542476023bac-43"}, {"reasons": {"count": 0, "items": [{"summary": "This spot is popular", "type": "general", "reasonName": "globalInteractionReason"}]}, "venue": {"id": "4dafdcef5da3f2f3d2af176a", "name": "Lutter & Wegner", "location": {"address": "Schl\u00fcterstr. 55", "lat": 52.50443797237325, "lng": 13.317357873873723, "labeledLatLngs": [{"label": "display", "lat": 52.50443797237325, "lng": 13.317357873873723}], "distance": 479, "postalCode": "10629", "cc": "DE", "city": "Berlin", "state": "Berlin", "country": "Deutschland", "formattedAddress": ["Schl\u00fcterstr. 55", "10629 Berlin", "Deutschland"]}, "categories": [{"id": "4bf58dd8d48988d10d941735", "name": "German Restaurant", "pluralName": "German Restaurants", "shortName": "German", "icon": {"prefix": "https://ss3.4sqi.net/img/categories_v2/food/german_", "suffix": ".png"}, "primary": true}], "photos": {"count": 0, "groups": []}}, "referralId": "e-0-4dafdcef5da3f2f3d2af176a-44"}, {"reasons": {"count": 0, "items": [{"summary": "This spot is popular", "type": "general", "reasonName": "globalInteractionReason"}]}, "venue": {"id": "4be1adb88dd062b5ab793e3c", "name": "Sir Savigny Hotel", "location": {"address": "Kantstra\u00dfe 144", "lat": 52.505749, "lng": 13.320722, "labeledLatLngs": [{"label": "display", "lat": 52.505749, "lng": 13.320722}], "distance": 536, "postalCode": "10623", "cc": "DE", "city": "Berlin", "state": "Berlin", "country": "Deutschland", "formattedAddress": ["Kantstra\u00dfe 144", "10623 Berlin", "Deutschland"]}, "categories": [{"id": "4bf58dd8d48988d1fa931735", "name": "Hotel", "pluralName": "Hotels", "shortName": "Hotel", "icon": {"prefix": "https://ss3.4sqi.net/img/categories_v2/travel/hotel_", "suffix": ".png"}, "primary": true}], "photos": {"count": 0, "groups": []}, "venuePage": {"id": "483284017"}}, "referralId": "e-0-4be1adb88dd062b5ab793e3c-45"}, {"reasons": {"count": 0, "items": [{"summary": "This spot is popular", "type": "general", "reasonName": "globalInteractionReason"}]}, "venue": {"id": "5679654d498e19c3c12a26c3", "name": "Manufactum Warenhaus", "location": {"address": "Hardenbergstr. 4-5", "lat": 52.51115322060605, "lng": 13.322805907441097, "labeledLatLngs": [{"label": "display", "lat": 52.51115322060605, "lng": 13.322805907441097}], "distance": 687, "postalCode": "10623", "cc": "DE", "city": "Charlottenburg", "state": "Berlin", "country": "Deutschland", "formattedAddress": ["Hardenbergstr. 4-5", "10623 Charlottenburg", "Deutschland"]}, "categories": [{"id": "4bf58dd8d48988d1f8941735", "name": "Furniture / Home Store", "pluralName": "Furniture / Home Stores", "shortName": "Furniture / Home", "icon": {"prefix": "https://ss3.4sqi.net/img/categories_v2/shops/furniture_", "suffix": ".png"}, "primary": true}], "photos": {"count": 0, "groups": []}}, "referralId": "e-0-5679654d498e19c3c12a26c3-46"}, {"reasons": {"count": 0, "items": [{"summary": "This spot is popular", "type": "general", "reasonName": "globalInteractionReason"}]}, "venue": {"id": "5b6db85da89b5a00240c7800", "name": "Hema", "location": {"address": "Wilmersdorfer Stra\u00dfe 118", "lat": 52.508058, "lng": 13.307619, "labeledLatLngs": [{"label": "display", "lat": 52.508058, "lng": 13.307619}], "distance": 425, "postalCode": "10627", "cc": "DE", "city": "Berlin", "state": "Berlin", "country": "Deutschland", "formattedAddress": ["Wilmersdorfer Stra\u00dfe 118", "10627 Berlin", "Deutschland"]}, "categories": [{"id": "4bf58dd8d48988d1f6941735", "name": "Department Store", "pluralName": "Department Stores", "shortName": "Department Store", "icon": {"prefix": "https://ss3.4sqi.net/img/categories_v2/shops/departmentstore_", "suffix": ".png"}, "primary": true}], "photos": {"count": 0, "groups": []}}, "referralId": "e-0-5b6db85da89b5a00240c7800-47"}, {"reasons": {"count": 0, "items": [{"summary": "This spot is popular", "type": "general", "reasonName": "globalInteractionReason"}]}, "venue": {"id": "4c55af2e479fc928c39b4895", "name": "Repke Sp\u00e4tzlerei", "location": {"address": "Bleibtreustr. 46", "lat": 52.50423719054426, "lng": 13.319840023285504, "labeledLatLngs": [{"label": "display", "lat": 52.50423719054426, "lng": 13.319840023285504}], "distance": 597, "postalCode": "10623", "cc": "DE", "city": "Berlin", "state": "Berlin", "country": "Deutschland", "formattedAddress": ["Bleibtreustr. 46", "10623 Berlin", "Deutschland"]}, "categories": [{"id": "56aa371ce4b08b9a8d573576", "name": "Swabian Restaurant", "pluralName": "Swabian Restaurants", "shortName": "Swabian", "icon": {"prefix": "https://ss3.4sqi.net/img/categories_v2/food/german_", "suffix": ".png"}, "primary": true}], "photos": {"count": 0, "groups": []}}, "referralId": "e-0-4c55af2e479fc928c39b4895-48"}, {"reasons": {"count": 0, "items": [{"summary": "This spot is popular", "type": "general", "reasonName": "globalInteractionReason"}]}, "venue": {"id": "56b621f1498e225f838718d1", "name": "Madame NGO", "location": {"address": "Kantstr. 30", "lat": 52.506179, "lng": 13.318847, "labeledLatLngs": [{"label": "display", "lat": 52.506179, "lng": 13.318847}], "distance": 403, "postalCode": "10623", "cc": "DE", "city": "Berlin", "state": "Berlin", "country": "Deutschland", "formattedAddress": ["Kantstr. 30", "10623 Berlin", "Deutschland"]}, "categories": [{"id": "4bf58dd8d48988d14a941735", "name": "Vietnamese Restaurant", "pluralName": "Vietnamese Restaurants", "shortName": "Vietnamese", "icon": {"prefix": "https://ss3.4sqi.net/img/categories_v2/food/vietnamese_", "suffix": ".png"}, "primary": true}], "photos": {"count": 0, "groups": []}}, "referralId": "e-0-56b621f1498e225f838718d1-49"}, {"reasons": {"count": 0, "items": [{"summary": "This spot is popular", "type": "general", "reasonName": "globalInteractionReason"}]}, "venue": {"id": "4b225ecdf964a520064624e3", "name": "Enoteca L'Angolino", "location": {"address": "Knesebeckstr. 92", "crossStreet": "Goethestra\u00dfe", "lat": 52.50835074342167, "lng": 13.322741594877213, "labeledLatLngs": [{"label": "display", "lat": 52.50835074342167, "lng": 13.322741594877213}], "distance": 599, "postalCode": "10623", "cc": "DE", "city": "Berlin", "state": "Berlin", "country": "Deutschland", "formattedAddress": ["Knesebeckstr. 92 (Goethestra\u00dfe)", "10623 Berlin", "Deutschland"]}, "categories": [{"id": "4bf58dd8d48988d110941735", "name": "Italian Restaurant", "pluralName": "Italian Restaurants", "shortName": "Italian", "icon": {"prefix": "https://ss3.4sqi.net/img/categories_v2/food/italian_", "suffix": ".png"}, "primary": true}], "photos": {"count": 0, "groups": []}, "venuePage": {"id": "582756791"}}, "referralId": "e-0-4b225ecdf964a520064624e3-50"}, {"reasons": {"count": 0, "items": [{"summary": "This spot is popular", "type": "general", "reasonName": "globalInteractionReason"}]}, "venue": {"id": "4adcda87f964a520344921e3", "name": "Dicke Wirtin", "location": {"address": "Carmerstr. 9", "crossStreet": "Savignyplatz", "lat": 52.50658451800542, "lng": 13.323349590962717, "labeledLatLngs": [{"label": "display", "lat": 52.50658451800542, "lng": 13.323349590962717}], "distance": 664, "postalCode": "10623", "cc": "DE", "city": "Berlin", "state": "Berlin", "country": "Deutschland", "formattedAddress": ["Carmerstr. 9 (Savignyplatz)", "10623 Berlin", "Deutschland"]}, "categories": [{"id": "4bf58dd8d48988d10d941735", "name": "German Restaurant", "pluralName": "German Restaurants", "shortName": "German", "icon": {"prefix": "https://ss3.4sqi.net/img/categories_v2/food/german_", "suffix": ".png"}, "primary": true}], "photos": {"count": 0, "groups": []}}, "referralId": "e-0-4adcda87f964a520344921e3-51"}, {"reasons": {"count": 0, "items": [{"summary": "This spot is popular", "type": "general", "reasonName": "globalInteractionReason"}]}, "venue": {"id": "4c0a0a91340720a118d78593", "name": "Spirit Yoga West & Spa", "location": {"address": "Goethestr. 2-3", "lat": 52.50886994056341, "lng": 13.323462602477589, "labeledLatLngs": [{"label": "display", "lat": 52.50886994056341, "lng": 13.323462602477589}], "distance": 652, "postalCode": "10623", "cc": "DE", "city": "Berlin", "state": "Berlin", "country": "Deutschland", "formattedAddress": ["Goethestr. 2-3", "10623 Berlin", "Deutschland"]}, "categories": [{"id": "4bf58dd8d48988d102941735", "name": "Yoga Studio", "pluralName": "Yoga Studios", "shortName": "Yoga Studio", "icon": {"prefix": "https://ss3.4sqi.net/img/categories_v2/shops/gym_yogastudio_", "suffix": ".png"}, "primary": true}], "photos": {"count": 0, "groups": []}}, "referralId": "e-0-4c0a0a91340720a118d78593-52"}, {"reasons": {"count": 0, "items": [{"summary": "This spot is popular", "type": "general", "reasonName": "globalInteractionReason"}]}, "venue": {"id": "4bc9a030b6c49c7490b08e91", "name": "dm-drogerie markt", "location": {"address": "Wilmersdorfer Str. 66a", "lat": 52.50608, "lng": 13.306551, "labeledLatLngs": [{"label": "display", "lat": 52.50608, "lng": 13.306551}], "distance": 551, "postalCode": "10627", "cc": "DE", "city": "Berlin", "state": "Berlin", "country": "Deutschland", "formattedAddress": ["Wilmersdorfer Str. 66a", "10627 Berlin", "Deutschland"]}, "categories": [{"id": "5745c2e4498e11e7bccabdbd", "name": "Drugstore", "pluralName": "Drugstores", "shortName": "Drugstore", "icon": {"prefix": "https://ss3.4sqi.net/img/categories_v2/shops/pharmacy_", "suffix": ".png"}, "primary": true}], "photos": {"count": 0, "groups": []}}, "referralId": "e-0-4bc9a030b6c49c7490b08e91-53"}, {"reasons": {"count": 0, "items": [{"summary": "This spot is popular", "type": "general", "reasonName": "globalInteractionReason"}]}, "venue": {"id": "598e307c9fca56393429b563", "name": "Impala Coffee", "location": {"address": "Wilmersdorfer Str. 67", "crossStreet": "Gervinusstr.", "lat": 52.50479923261686, "lng": 13.307089044959548, "labeledLatLngs": [{"label": "display", "lat": 52.50479923261686, "lng": 13.307089044959548}], "distance": 596, "postalCode": "10629", "cc": "DE", "city": "Berlin", "state": "Berlin", "country": "Deutschland", "formattedAddress": ["Wilmersdorfer Str. 67 (Gervinusstr.)", "10629 Berlin", "Deutschland"]}, "categories": [{"id": "4bf58dd8d48988d1e0931735", "name": "Coffee Shop", "pluralName": "Coffee Shops", "shortName": "Coffee Shop", "icon": {"prefix": "https://ss3.4sqi.net/img/categories_v2/food/coffeeshop_", "suffix": ".png"}, "primary": true}], "photos": {"count": 0, "groups": []}}, "referralId": "e-0-598e307c9fca56393429b563-54"}, {"reasons": {"count": 0, "items": [{"summary": "This spot is popular", "type": "general", "reasonName": "globalInteractionReason"}]}, "venue": {"id": "4b097f25f964a520451823e3", "name": "Saigon Today", "location": {"address": "Wilmersdorfer Str. 69", "lat": 52.50447108351826, "lng": 13.307390666638229, "labeledLatLngs": [{"label": "display", "lat": 52.50447108351826, "lng": 13.307390666638229}], "distance": 605, "postalCode": "10629", "cc": "DE", "city": "Berlin", "state": "Berlin", "country": "Deutschland", "formattedAddress": ["Wilmersdorfer Str. 69", "10629 Berlin", "Deutschland"]}, "categories": [{"id": "4bf58dd8d48988d14a941735", "name": "Vietnamese Restaurant", "pluralName": "Vietnamese Restaurants", "shortName": "Vietnamese", "icon": {"prefix": "https://ss3.4sqi.net/img/categories_v2/food/vietnamese_", "suffix": ".png"}, "primary": true}], "photos": {"count": 0, "groups": []}}, "referralId": "e-0-4b097f25f964a520451823e3-55"}, {"reasons": {"count": 0, "items": [{"summary": "This spot is popular", "type": "general", "reasonName": "globalInteractionReason"}]}, "venue": {"id": "52af152911d26ab24c4aba47", "name": "La t\u00eda rica", "location": {"address": "Knesebeckstr. 92", "crossStreet": "Goethestrasse", "lat": 52.508476, "lng": 13.323309, "labeledLatLngs": [{"label": "display", "lat": 52.508476, "lng": 13.323309}], "distance": 638, "postalCode": "10623", "cc": "DE", "city": "Berlin", "state": "Berlin", "country": "Deutschland", "formattedAddress": ["Knesebeckstr. 92 (Goethestrasse)", "10623 Berlin", "Deutschland"]}, "categories": [{"id": "4bf58dd8d48988d1be941735", "name": "Latin American Restaurant", "pluralName": "Latin American Restaurants", "shortName": "Latin American", "icon": {"prefix": "https://ss3.4sqi.net/img/categories_v2/food/latinamerican_", "suffix": ".png"}, "primary": true}], "photos": {"count": 0, "groups": []}, "venuePage": {"id": "504965653"}}, "referralId": "e-0-52af152911d26ab24c4aba47-56"}, {"reasons": {"count": 0, "items": [{"summary": "This spot is popular", "type": "general", "reasonName": "globalInteractionReason"}]}, "venue": {"id": "4cd7d351da85224bcf3d49ca", "name": "Schillerklause", "location": {"address": "Schillerstr. 10", "lat": 52.51111345053065, "lng": 13.318212767959649, "labeledLatLngs": [{"label": "display", "lat": 52.51111345053065, "lng": 13.318212767959649}], "distance": 436, "postalCode": "10625", "cc": "DE", "city": "Berlin", "state": "Berlin", "country": "Deutschland", "formattedAddress": ["Schillerstr. 10", "10625 Berlin", "Deutschland"]}, "categories": [{"id": "4bf58dd8d48988d155941735", "name": "Gastropub", "pluralName": "Gastropubs", "shortName": "Gastropub", "icon": {"prefix": "https://ss3.4sqi.net/img/categories_v2/food/gastropub_", "suffix": ".png"}, "primary": true}], "photos": {"count": 0, "groups": []}}, "referralId": "e-0-4cd7d351da85224bcf3d49ca-57"}, {"reasons": {"count": 0, "items": [{"summary": "This spot is popular", "type": "general", "reasonName": "globalInteractionReason"}]}, "venue": {"id": "4adcda8ef964a520b94a21e3", "name": "Autorenbuchhandlung", "location": {"address": "Else-Ury-Bogen 599-601", "crossStreet": "Savignyplatz", "lat": 52.50510516288839, "lng": 13.320829779040649, "labeledLatLngs": [{"label": "display", "lat": 52.50510516288839, "lng": 13.320829779040649}], "distance": 582, "postalCode": "10623", "cc": "DE", "city": "Berlin", "state": "Berlin", "country": "Deutschland", "formattedAddress": ["Else-Ury-Bogen 599-601 (Savignyplatz)", "10623 Berlin", "Deutschland"]}, "categories": [{"id": "4bf58dd8d48988d114951735", "name": "Bookstore", "pluralName": "Bookstores", "shortName": "Bookstore", "icon": {"prefix": "https://ss3.4sqi.net/img/categories_v2/shops/bookstore_", "suffix": ".png"}, "primary": true}], "photos": {"count": 0, "groups": []}}, "referralId": "e-0-4adcda8ef964a520b94a21e3-58"}, {"reasons": {"count": 0, "items": [{"summary": "This spot is popular", "type": "general", "reasonName": "globalInteractionReason"}]}, "venue": {"id": "5d053dbb10fe5a0023e0eaf9", "name": "The Catch", "location": {"address": "Bleibtreustra\u00dfe 41", "lat": 52.502867, "lng": 13.319718, "labeledLatLngs": [{"label": "display", "lat": 52.502867, "lng": 13.319718}], "distance": 712, "cc": "DE", "country": "Deutschland", "formattedAddress": ["Bleibtreustra\u00dfe 41", "Deutschland"]}, "categories": [{"id": "4bf58dd8d48988d1ce941735", "name": "Seafood Restaurant", "pluralName": "Seafood Restaurants", "shortName": "Seafood", "icon": {"prefix": "https://ss3.4sqi.net/img/categories_v2/food/seafood_", "suffix": ".png"}, "primary": true}], "photos": {"count": 0, "groups": []}}, "referralId": "e-0-5d053dbb10fe5a0023e0eaf9-59"}, {"reasons": {"count": 0, "items": [{"summary": "This spot is popular", "type": "general", "reasonName": "globalInteractionReason"}]}, "venue": {"id": "4b6729b1f964a520bb3e2be3", "name": "Ashoka", "location": {"address": "Grolmanstr. 51", "lat": 52.506961795417865, "lng": 13.32162681219723, "labeledLatLngs": [{"label": "display", "lat": 52.506961795417865, "lng": 13.32162681219723}], "distance": 541, "postalCode": "10623", "cc": "DE", "city": "Berlin", "state": "Berlin", "country": "Deutschland", "formattedAddress": ["Grolmanstr. 51", "10623 Berlin", "Deutschland"]}, "categories": [{"id": "4bf58dd8d48988d10f941735", "name": "Indian Restaurant", "pluralName": "Indian Restaurants", "shortName": "Indian", "icon": {"prefix": "https://ss3.4sqi.net/img/categories_v2/food/indian_", "suffix": ".png"}, "primary": true}], "photos": {"count": 0, "groups": []}}, "referralId": "e-0-4b6729b1f964a520bb3e2be3-60"}, {"reasons": {"count": 0, "items": [{"summary": "This spot is popular", "type": "general", "reasonName": "globalInteractionReason"}]}, "venue": {"id": "55b0b181498e97dbb0547ef2", "name": "KLX - Koshary Lux", "location": {"address": "Grolmanstr. 27", "crossStreet": "Otto-Ludwig-Str.", "lat": 52.504594634694435, "lng": 13.32315981388092, "labeledLatLngs": [{"label": "display", "lat": 52.504594634694435, "lng": 13.32315981388092}], "distance": 744, "postalCode": "10623", "cc": "DE", "neighborhood": "Charlottenburg", "city": "Berlin", "state": "Berlin", "country": "Deutschland", "formattedAddress": ["Grolmanstr. 27 (Otto-Ludwig-Str.)", "10623 Berlin", "Deutschland"]}, "categories": [{"id": "4bf58dd8d48988d115941735", "name": "Middle Eastern Restaurant", "pluralName": "Middle Eastern Restaurants", "shortName": "Middle Eastern", "icon": {"prefix": "https://ss3.4sqi.net/img/categories_v2/food/middleeastern_", "suffix": ".png"}, "primary": true}], "photos": {"count": 0, "groups": []}}, "referralId": "e-0-55b0b181498e97dbb0547ef2-61"}, {"reasons": {"count": 0, "items": [{"summary": "This spot is popular", "type": "general", "reasonName": "globalInteractionReason"}]}, "venue": {"id": "50129b0fe4b0748a789d415c", "name": "BioBackHaus", "location": {"address": "Knesebeckstr. 12", "crossStreet": "Goethestr.", "lat": 52.50879630998174, "lng": 13.32254016964866, "labeledLatLngs": [{"label": "display", "lat": 52.50879630998174, "lng": 13.32254016964866}], "distance": 589, "postalCode": "10623", "cc": "DE", "city": "Berlin", "state": "Berlin", "country": "Deutschland", "formattedAddress": ["Knesebeckstr. 12 (Goethestr.)", "10623 Berlin", "Deutschland"]}, "categories": [{"id": "4bf58dd8d48988d16a941735", "name": "Bakery", "pluralName": "Bakeries", "shortName": "Bakery", "icon": {"prefix": "https://ss3.4sqi.net/img/categories_v2/food/bakery_", "suffix": ".png"}, "primary": true}], "photos": {"count": 0, "groups": []}}, "referralId": "e-0-50129b0fe4b0748a789d415c-62"}, {"reasons": {"count": 0, "items": [{"summary": "This spot is popular", "type": "general", "reasonName": "globalInteractionReason"}]}, "venue": {"id": "4e49569845dd81ecad7f7701", "name": "Hamy Sophie Kinh Moi", "location": {"address": "Wilmersdorfer Str. 41-42", "lat": 52.510730844839316, "lng": 13.305447639235854, "labeledLatLngs": [{"label": "display", "lat": 52.510730844839316, "lng": 13.305447639235854}], "distance": 638, "postalCode": "10627", "cc": "DE", "city": "Berlin", "state": "Berlin", "country": "Deutschland", "formattedAddress": ["Wilmersdorfer Str. 41-42", "10627 Berlin", "Deutschland"]}, "categories": [{"id": "4bf58dd8d48988d142941735", "name": "Asian Restaurant", "pluralName": "Asian Restaurants", "shortName": "Asian", "icon": {"prefix": "https://ss3.4sqi.net/img/categories_v2/food/asian_", "suffix": ".png"}, "primary": true}], "photos": {"count": 0, "groups": []}}, "referralId": "e-0-4e49569845dd81ecad7f7701-63"}, {"reasons": {"count": 0, "items": [{"summary": "This spot is popular", "type": "general", "reasonName": "globalInteractionReason"}]}, "venue": {"id": "529df2d411d2dd5ef8726266", "name": "Flying Tiger", "location": {"address": "Wilmersdorfer Str. 117", "lat": 52.50774023966672, "lng": 13.306664228439331, "labeledLatLngs": [{"label": "display", "lat": 52.50774023966672, "lng": 13.306664228439331}], "distance": 492, "postalCode": "10627", "cc": "DE", "city": "Berlin", "state": "Berlin", "country": "Deutschland", "formattedAddress": ["Wilmersdorfer Str. 117", "10627 Berlin", "Deutschland"]}, "categories": [{"id": "4bf58dd8d48988d128951735", "name": "Gift Shop", "pluralName": "Gift Shops", "shortName": "Gift Shop", "icon": {"prefix": "https://ss3.4sqi.net/img/categories_v2/shops/giftshop_", "suffix": ".png"}, "primary": true}], "photos": {"count": 0, "groups": []}}, "referralId": "e-0-529df2d411d2dd5ef8726266-64"}, {"reasons": {"count": 0, "items": [{"summary": "This spot is popular", "type": "general", "reasonName": "globalInteractionReason"}]}, "venue": {"id": "4b730d7af964a5204a982de3", "name": "Marjellchen Restaurant", "location": {"address": "Mommsenstr. 9", "lat": 52.50306473540549, "lng": 13.317762505288629, "labeledLatLngs": [{"label": "display", "lat": 52.50306473540549, "lng": 13.317762505288629}], "distance": 628, "postalCode": "10629", "cc": "DE", "city": "Berlin", "state": "Berlin", "country": "Deutschland", "formattedAddress": ["Mommsenstr. 9", "10629 Berlin", "Deutschland"]}, "categories": [{"id": "4bf58dd8d48988d10d941735", "name": "German Restaurant", "pluralName": "German Restaurants", "shortName": "German", "icon": {"prefix": "https://ss3.4sqi.net/img/categories_v2/food/german_", "suffix": ".png"}, "primary": true}], "photos": {"count": 0, "groups": []}}, "referralId": "e-0-4b730d7af964a5204a982de3-65"}, {"reasons": {"count": 0, "items": [{"summary": "This spot is popular", "type": "general", "reasonName": "globalInteractionReason"}]}, "venue": {"id": "4decc67b88774880e356335d", "name": "Pizzeria Ristorante Buongiorno", "location": {"address": "Kantstr. 57", "lat": 52.50681765619151, "lng": 13.30595112174029, "labeledLatLngs": [{"label": "display", "lat": 52.50681765619151, "lng": 13.30595112174029}], "distance": 560, "postalCode": "10627", "cc": "DE", "city": "Berlin", "state": "Berlin", "country": "Deutschland", "formattedAddress": ["Kantstr. 57", "10627 Berlin", "Deutschland"]}, "categories": [{"id": "4bf58dd8d48988d110941735", "name": "Italian Restaurant", "pluralName": "Italian Restaurants", "shortName": "Italian", "icon": {"prefix": "https://ss3.4sqi.net/img/categories_v2/food/italian_", "suffix": ".png"}, "primary": true}], "photos": {"count": 0, "groups": []}}, "referralId": "e-0-4decc67b88774880e356335d-66"}, {"reasons": {"count": 0, "items": [{"summary": "This spot is popular", "type": "general", "reasonName": "globalInteractionReason"}]}, "venue": {"id": "4b5c0eb6f964a520b42229e3", "name": "Buddha Republic", "location": {"address": "Knesebeckstr. 88", "crossStreet": "Savignyplatz", "lat": 52.50763956416895, "lng": 13.32260994059498, "labeledLatLngs": [{"label": "display", "lat": 52.50763956416895, "lng": 13.32260994059498}], "distance": 593, "postalCode": "10623", "cc": "DE", "city": "Berlin", "state": "Berlin", "country": "Deutschland", "formattedAddress": ["Knesebeckstr. 88 (Savignyplatz)", "10623 Berlin", "Deutschland"]}, "categories": [{"id": "4bf58dd8d48988d10f941735", "name": "Indian Restaurant", "pluralName": "Indian Restaurants", "shortName": "Indian", "icon": {"prefix": "https://ss3.4sqi.net/img/categories_v2/food/indian_", "suffix": ".png"}, "primary": true}], "photos": {"count": 0, "groups": []}, "venuePage": {"id": "498676685"}}, "referralId": "e-0-4b5c0eb6f964a520b42229e3-67"}, {"reasons": {"count": 0, "items": [{"summary": "This spot is popular", "type": "general", "reasonName": "globalInteractionReason"}]}, "venue": {"id": "558ebbf6498e702863ea52b5", "name": "Laufladen Lunge", "location": {"address": "Bismarckstr. 101", "crossStreet": "Weimarer Str.", "lat": 52.511663461287625, "lng": 13.312929868698118, "labeledLatLngs": [{"label": "display", "lat": 52.511663461287625, "lng": 13.312929868698118}], "distance": 391, "postalCode": "10625", "cc": "DE", "city": "Berlin", "state": "Berlin", "country": "Deutschland", "formattedAddress": ["Bismarckstr. 101 (Weimarer Str.)", "10625 Berlin", "Deutschland"]}, "categories": [{"id": "4bf58dd8d48988d1f2941735", "name": "Sporting Goods Shop", "pluralName": "Sporting Goods Shops", "shortName": "Sporting Goods", "icon": {"prefix": "https://ss3.4sqi.net/img/categories_v2/shops/sports_outdoors_", "suffix": ".png"}, "primary": true}], "photos": {"count": 0, "groups": []}}, "referralId": "e-0-558ebbf6498e702863ea52b5-68"}, {"reasons": {"count": 0, "items": [{"summary": "This spot is popular", "type": "general", "reasonName": "globalInteractionReason"}]}, "venue": {"id": "4b1e3feef964a5201e1824e3", "name": "Mondo Pazzo", "location": {"address": "Schl\u00fcterstr. 52", "lat": 52.503300552038375, "lng": 13.317076548185462, "labeledLatLngs": [{"label": "display", "lat": 52.503300552038375, "lng": 13.317076548185462}], "distance": 586, "postalCode": "10629", "cc": "DE", "city": "Berlin", "state": "Berlin", "country": "Deutschland", "formattedAddress": ["Schl\u00fcterstr. 52", "10629 Berlin", "Deutschland"]}, "categories": [{"id": "4bf58dd8d48988d110941735", "name": "Italian Restaurant", "pluralName": "Italian Restaurants", "shortName": "Italian", "icon": {"prefix": "https://ss3.4sqi.net/img/categories_v2/food/italian_", "suffix": ".png"}, "primary": true}], "photos": {"count": 0, "groups": []}}, "referralId": "e-0-4b1e3feef964a5201e1824e3-69"}, {"reasons": {"count": 0, "items": [{"summary": "This spot is popular", "type": "general", "reasonName": "globalInteractionReason"}]}, "venue": {"id": "51cc17bb498e1aed4bf1b66b", "name": "Die Stulle", "location": {"address": "Carmerstr. 10", "crossStreet": "Savignyplatz", "lat": 52.506585, "lng": 13.323513, "labeledLatLngs": [{"label": "display", "lat": 52.506585, "lng": 13.323513}], "distance": 675, "postalCode": "10623", "cc": "DE", "city": "Berlin", "state": "Berlin", "country": "Deutschland", "formattedAddress": ["Carmerstr. 10 (Savignyplatz)", "10623 Berlin", "Deutschland"]}, "categories": [{"id": "4bf58dd8d48988d1c5941735", "name": "Sandwich Place", "pluralName": "Sandwich Places", "shortName": "Sandwiches", "icon": {"prefix": "https://ss3.4sqi.net/img/categories_v2/food/deli_", "suffix": ".png"}, "primary": true}], "photos": {"count": 0, "groups": []}}, "referralId": "e-0-51cc17bb498e1aed4bf1b66b-70"}, {"reasons": {"count": 0, "items": [{"summary": "This spot is popular", "type": "general", "reasonName": "globalInteractionReason"}]}, "venue": {"id": "4adcda7df964a520784721e3", "name": "Savignyplatz", "location": {"address": "Kantstr.", "crossStreet": "Knesebeckstr.", "lat": 52.50543447372109, "lng": 13.32262073012896, "labeledLatLngs": [{"label": "display", "lat": 52.50543447372109, "lng": 13.32262073012896}], "distance": 666, "postalCode": "10623", "cc": "DE", "city": "Berlin", "state": "Berlin", "country": "Deutschland", "formattedAddress": ["Kantstr. (Knesebeckstr.)", "10623 Berlin", "Deutschland"]}, "categories": [{"id": "4bf58dd8d48988d164941735", "name": "Plaza", "pluralName": "Plazas", "shortName": "Plaza", "icon": {"prefix": "https://ss3.4sqi.net/img/categories_v2/parks_outdoors/plaza_", "suffix": ".png"}, "primary": true}], "photos": {"count": 0, "groups": []}}, "referralId": "e-0-4adcda7df964a520784721e3-71"}, {"reasons": {"count": 0, "items": [{"summary": "This spot is popular", "type": "general", "reasonName": "globalInteractionReason"}]}, "venue": {"id": "4adcda8ef964a520c64a21e3", "name": "Rogacki", "location": {"address": "Wilmersdorfer Str.145-146", "crossStreet": "Spielhagenstr.", "lat": 52.51283919402255, "lng": 13.305050087951296, "labeledLatLngs": [{"label": "display", "lat": 52.51283919402255, "lng": 13.305050087951296}], "distance": 791, "postalCode": "10585", "cc": "DE", "city": "Berlin", "state": "Berlin", "country": "Deutschland", "formattedAddress": ["Wilmersdorfer Str.145-146 (Spielhagenstr.)", "10585 Berlin", "Deutschland"]}, "categories": [{"id": "4bf58dd8d48988d1f5941735", "name": "Gourmet Shop", "pluralName": "Gourmet Shops", "shortName": "Gourmet", "icon": {"prefix": "https://ss3.4sqi.net/img/categories_v2/shops/food_gourmet_", "suffix": ".png"}, "primary": true}], "photos": {"count": 0, "groups": []}}, "referralId": "e-0-4adcda8ef964a520c64a21e3-72"}, {"reasons": {"count": 0, "items": [{"summary": "This spot is popular", "type": "general", "reasonName": "globalInteractionReason"}]}, "venue": {"id": "517a94f7498ef2a2ee4474e1", "name": "Alnatura", "location": {"address": "Giesebrechtstr. 4", "lat": 52.50225728395031, "lng": 13.309252745146406, "labeledLatLngs": [{"label": "display", "lat": 52.50225728395031, "lng": 13.309252745146406}], "distance": 732, "postalCode": "10629", "cc": "DE", "city": "Berlin", "state": "Berlin", "country": "Deutschland", "formattedAddress": ["Giesebrechtstr. 4", "10629 Berlin", "Deutschland"]}, "categories": [{"id": "52f2ab2ebcbc57f1066b8b45", "name": "Organic Grocery", "pluralName": "Organic Groceries", "shortName": "Organic Grocery", "icon": {"prefix": "https://ss3.4sqi.net/img/categories_v2/shops/food_grocery_", "suffix": ".png"}, "primary": true}], "photos": {"count": 0, "groups": []}}, "referralId": "e-0-517a94f7498ef2a2ee4474e1-73"}, {"reasons": {"count": 0, "items": [{"summary": "This spot is popular", "type": "general", "reasonName": "globalInteractionReason"}]}, "venue": {"id": "51631c50e4b0bcb0c39358fb", "name": "Falafel, Schawarma & Halloumi", "location": {"address": "Wilmersdorfer Str. 32", "lat": 52.5125145470448, "lng": 13.305099464337676, "labeledLatLngs": [{"label": "display", "lat": 52.5125145470448, "lng": 13.305099464337676}], "distance": 765, "postalCode": "10627", "cc": "DE", "city": "Berlin", "state": "Berlin", "country": "Deutschland", "formattedAddress": ["Wilmersdorfer Str. 32", "10627 Berlin", "Deutschland"]}, "categories": [{"id": "4bf58dd8d48988d10b941735", "name": "Falafel Restaurant", "pluralName": "Falafel Restaurants", "shortName": "Falafel", "icon": {"prefix": "https://ss3.4sqi.net/img/categories_v2/food/falafel_", "suffix": ".png"}, "primary": true}], "photos": {"count": 0, "groups": []}}, "referralId": "e-0-51631c50e4b0bcb0c39358fb-74"}, {"reasons": {"count": 0, "items": [{"summary": "This spot is popular", "type": "general", "reasonName": "globalInteractionReason"}]}, "venue": {"id": "4adcda76f964a520ca4521e3", "name": "Schwarzes Caf\u00e9", "location": {"address": "Kantstr. 148", "lat": 52.505455, "lng": 13.324221, "labeledLatLngs": [{"label": "display", "lat": 52.505455, "lng": 13.324221}], "distance": 763, "postalCode": "10623", "cc": "DE", "city": "Berlin", "state": "Berlin", "country": "Deutschland", "formattedAddress": ["Kantstr. 148", "10623 Berlin", "Deutschland"]}, "categories": [{"id": "4bf58dd8d48988d16d941735", "name": "Caf\u00e9", "pluralName": "Caf\u00e9s", "shortName": "Caf\u00e9", "icon": {"prefix": "https://ss3.4sqi.net/img/categories_v2/food/cafe_", "suffix": ".png"}, "primary": true}], "photos": {"count": 0, "groups": []}}, "referralId": "e-0-4adcda76f964a520ca4521e3-75"}, {"reasons": {"count": 0, "items": [{"summary": "This spot is popular", "type": "general", "reasonName": "globalInteractionReason"}]}, "venue": {"id": "4b533664f964a520859227e3", "name": "SuperFit", "location": {"address": "Wilmersdorfer Str. 54", "lat": 52.508353368499236, "lng": 13.305484717175954, "labeledLatLngs": [{"label": "display", "lat": 52.508353368499236, "lng": 13.305484717175954}], "distance": 570, "postalCode": "10627", "cc": "DE", "city": "Berlin", "state": "Berlin", "country": "Deutschland", "formattedAddress": ["Wilmersdorfer Str. 54", "10627 Berlin", "Deutschland"]}, "categories": [{"id": "4bf58dd8d48988d175941735", "name": "Gym / Fitness Center", "pluralName": "Gyms or Fitness Centers", "shortName": "Gym / Fitness", "icon": {"prefix": "https://ss3.4sqi.net/img/categories_v2/building/gym_", "suffix": ".png"}, "primary": true}], "photos": {"count": 0, "groups": []}}, "referralId": "e-0-4b533664f964a520859227e3-76"}, {"reasons": {"count": 0, "items": [{"summary": "This spot is popular", "type": "general", "reasonName": "globalInteractionReason"}]}, "venue": {"id": "4fddc220e4b0f11e359caa0a", "name": "What do you fancy love?", "location": {"address": "Knesebeckstr. 68-69", "lat": 52.502873, "lng": 13.322322, "labeledLatLngs": [{"label": "display", "lat": 52.502873, "lng": 13.322322}], "distance": 822, "postalCode": "10623", "cc": "DE", "neighborhood": "Charlottenburg", "city": "Berlin", "state": "Berlin", "country": "Deutschland", "formattedAddress": ["Knesebeckstr. 68-69", "10623 Berlin", "Deutschland"]}, "categories": [{"id": "4bf58dd8d48988d16d941735", "name": "Caf\u00e9", "pluralName": "Caf\u00e9s", "shortName": "Caf\u00e9", "icon": {"prefix": "https://ss3.4sqi.net/img/categories_v2/food/cafe_", "suffix": ".png"}, "primary": true}], "photos": {"count": 0, "groups": []}}, "referralId": "e-0-4fddc220e4b0f11e359caa0a-77"}, {"reasons": {"count": 0, "items": [{"summary": "This spot is popular", "type": "general", "reasonName": "globalInteractionReason"}]}, "venue": {"id": "4c3609d02c8020a17ea08600", "name": "BIO COMPANY", "location": {"address": "Wilmersdorfer Str. 107", "lat": 52.504716632031425, "lng": 13.307283732365653, "labeledLatLngs": [{"label": "display", "lat": 52.504716632031425, "lng": 13.307283732365653}], "distance": 592, "postalCode": "10629", "cc": "DE", "city": "Berlin", "state": "Berlin", "country": "Deutschland", "formattedAddress": ["Wilmersdorfer Str. 107", "10629 Berlin", "Deutschland"]}, "categories": [{"id": "52f2ab2ebcbc57f1066b8b45", "name": "Organic Grocery", "pluralName": "Organic Groceries", "shortName": "Organic Grocery", "icon": {"prefix": "https://ss3.4sqi.net/img/categories_v2/shops/food_grocery_", "suffix": ".png"}, "primary": true}], "photos": {"count": 0, "groups": []}, "venuePage": {"id": "459926480"}}, "referralId": "e-0-4c3609d02c8020a17ea08600-78"}, {"reasons": {"count": 0, "items": [{"summary": "This spot is popular", "type": "general", "reasonName": "globalInteractionReason"}]}, "venue": {"id": "52651915498efbb22b314e60", "name": "Hotel am Steinplatz", "location": {"address": "Steinplatz 4", "lat": 52.508074, "lng": 13.326501, "labeledLatLngs": [{"label": "display", "lat": 52.508074, "lng": 13.326501}], "distance": 853, "postalCode": "10623", "cc": "DE", "city": "Berlin", "state": "Berlin", "country": "Deutschland", "formattedAddress": ["Steinplatz 4", "10623 Berlin", "Deutschland"]}, "categories": [{"id": "4bf58dd8d48988d1fa931735", "name": "Hotel", "pluralName": "Hotels", "shortName": "Hotel", "icon": {"prefix": "https://ss3.4sqi.net/img/categories_v2/travel/hotel_", "suffix": ".png"}, "primary": true}], "photos": {"count": 0, "groups": []}, "venuePage": {"id": "84737301"}}, "referralId": "e-0-52651915498efbb22b314e60-79"}, {"reasons": {"count": 0, "items": [{"summary": "This spot is popular", "type": "general", "reasonName": "globalInteractionReason"}]}, "venue": {"id": "551935da498ec23c18cdc851", "name": "SANDWICHart", "location": {"address": "Leibnizstrasse 60", "crossStreet": "Mommsenstrasse", "lat": 52.5032352184564, "lng": 13.313322068878179, "labeledLatLngs": [{"label": "display", "lat": 52.5032352184564, "lng": 13.313322068878179}], "distance": 554, "postalCode": "10629", "cc": "DE", "neighborhood": "Charlottenburg", "city": "Berlin", "state": "Berlin", "country": "Deutschland", "formattedAddress": ["Leibnizstrasse 60 (Mommsenstrasse)", "10629 Berlin", "Deutschland"]}, "categories": [{"id": "4bf58dd8d48988d1c5941735", "name": "Sandwich Place", "pluralName": "Sandwich Places", "shortName": "Sandwiches", "icon": {"prefix": "https://ss3.4sqi.net/img/categories_v2/food/deli_", "suffix": ".png"}, "primary": true}], "photos": {"count": 0, "groups": []}}, "referralId": "e-0-551935da498ec23c18cdc851-80"}, {"reasons": {"count": 0, "items": [{"summary": "This spot is popular", "type": "general", "reasonName": "globalInteractionReason"}]}, "venue": {"id": "4c0c0cb7340720a1a0138993", "name": "Pratirio", "location": {"address": "Knesebeckstr. 22", "lat": 52.50692558556845, "lng": 13.322517255390643, "labeledLatLngs": [{"label": "display", "lat": 52.50692558556845, "lng": 13.322517255390643}], "distance": 600, "postalCode": "10623", "cc": "DE", "city": "Berlin", "state": "Berlin", "country": "Deutschland", "formattedAddress": ["Knesebeckstr. 22", "10623 Berlin", "Deutschland"]}, "categories": [{"id": "53d6c1b0e4b02351e88a83d4", "name": "Modern Greek Restaurant", "pluralName": "Modern Greek Restaurants", "shortName": "Modern Greek Restaurants", "icon": {"prefix": "https://ss3.4sqi.net/img/categories_v2/food/greek_", "suffix": ".png"}, "primary": true}], "photos": {"count": 0, "groups": []}}, "referralId": "e-0-4c0c0cb7340720a1a0138993-81"}, {"reasons": {"count": 0, "items": [{"summary": "This spot is popular", "type": "general", "reasonName": "globalInteractionReason"}]}, "venue": {"id": "536bd1db498ed2cbb66d835b", "name": "Ristorante Ottavio", "location": {"address": "Knesebeckstr. 29", "lat": 52.504028, "lng": 13.322102, "labeledLatLngs": [{"label": "display", "lat": 52.504028, "lng": 13.322102}], "distance": 724, "postalCode": "10623", "cc": "DE", "city": "Berlin", "state": "Berlin", "country": "Deutschland", "formattedAddress": ["Knesebeckstr. 29", "10623 Berlin", "Deutschland"]}, "categories": [{"id": "4bf58dd8d48988d110941735", "name": "Italian Restaurant", "pluralName": "Italian Restaurants", "shortName": "Italian", "icon": {"prefix": "https://ss3.4sqi.net/img/categories_v2/food/italian_", "suffix": ".png"}, "primary": true}], "photos": {"count": 0, "groups": []}}, "referralId": "e-0-536bd1db498ed2cbb66d835b-82"}, {"reasons": {"count": 0, "items": [{"summary": "This spot is popular", "type": "general", "reasonName": "globalInteractionReason"}]}, "venue": {"id": "4ca7ba75ae1eef3b8ee33147", "name": "China-Restaurant Lotos House", "location": {"address": "Bismarckstr.24", "lat": 52.51217276469756, "lng": 13.31218957901001, "labeledLatLngs": [{"label": "display", "lat": 52.51217276469756, "lng": 13.31218957901001}], "distance": 457, "postalCode": "10625", "cc": "DE", "neighborhood": "Charlottenburg", "city": "Berlin", "state": "Berlin", "country": "Deutschland", "formattedAddress": ["Bismarckstr.24", "10625 Berlin", "Deutschland"]}, "categories": [{"id": "4bf58dd8d48988d145941735", "name": "Chinese Restaurant", "pluralName": "Chinese Restaurants", "shortName": "Chinese", "icon": {"prefix": "https://ss3.4sqi.net/img/categories_v2/food/asian_", "suffix": ".png"}, "primary": true}], "photos": {"count": 0, "groups": []}}, "referralId": "e-0-4ca7ba75ae1eef3b8ee33147-83"}, {"reasons": {"count": 0, "items": [{"summary": "This spot is popular", "type": "general", "reasonName": "globalInteractionReason"}]}, "venue": {"id": "4b59ddfaf964a520099d28e3", "name": "Camera Work", "location": {"address": "Kantstr. 149", "lat": 52.50496767779486, "lng": 13.324428520656017, "labeledLatLngs": [{"label": "display", "lat": 52.50496767779486, "lng": 13.324428520656017}], "distance": 798, "postalCode": "10623", "cc": "DE", "city": "Berlin", "state": "Berlin", "country": "Deutschland", "formattedAddress": ["Kantstr. 149", "10623 Berlin", "Deutschland"]}, "categories": [{"id": "4bf58dd8d48988d1e2931735", "name": "Art Gallery", "pluralName": "Art Galleries", "shortName": "Art Gallery", "icon": {"prefix": "https://ss3.4sqi.net/img/categories_v2/arts_entertainment/artgallery_", "suffix": ".png"}, "primary": true}], "photos": {"count": 0, "groups": []}}, "referralId": "e-0-4b59ddfaf964a520099d28e3-84"}, {"reasons": {"count": 0, "items": [{"summary": "This spot is popular", "type": "general", "reasonName": "globalInteractionReason"}]}, "venue": {"id": "563f3ffecd10627b5f52b02f", "name": "earlybean", "location": {"address": "Clausewitzstr. 9", "lat": 52.50188858792343, "lng": 13.309739981661298, "labeledLatLngs": [{"label": "display", "lat": 52.50188858792343, "lng": 13.309739981661298}], "distance": 757, "cc": "DE", "neighborhood": "Charlottenburg", "city": "Berlin", "state": "Berlin", "country": "Deutschland", "formattedAddress": ["Clausewitzstr. 9", "Berlin", "Deutschland"]}, "categories": [{"id": "4bf58dd8d48988d179941735", "name": "Bagel Shop", "pluralName": "Bagel Shops", "shortName": "Bagels", "icon": {"prefix": "https://ss3.4sqi.net/img/categories_v2/food/bagels_", "suffix": ".png"}, "primary": true}], "photos": {"count": 0, "groups": []}}, "referralId": "e-0-563f3ffecd10627b5f52b02f-85"}, {"reasons": {"count": 0, "items": [{"summary": "This spot is popular", "type": "general", "reasonName": "globalInteractionReason"}]}, "venue": {"id": "4b1a34d7f964a5201fe823e3", "name": "1900 Caf\u00e9 Bistro", "location": {"address": "Knesebeckstr. 76", "lat": 52.50396320957807, "lng": 13.322120490108057, "labeledLatLngs": [{"label": "display", "lat": 52.50396320957807, "lng": 13.322120490108057}], "distance": 729, "postalCode": "10623", "cc": "DE", "city": "Berlin", "state": "Berlin", "country": "Deutschland", "formattedAddress": ["Knesebeckstr. 76", "10623 Berlin", "Deutschland"]}, "categories": [{"id": "4bf58dd8d48988d16d941735", "name": "Caf\u00e9", "pluralName": "Caf\u00e9s", "shortName": "Caf\u00e9", "icon": {"prefix": "https://ss3.4sqi.net/img/categories_v2/food/cafe_", "suffix": ".png"}, "primary": true}], "photos": {"count": 0, "groups": []}}, "referralId": "e-0-4b1a34d7f964a5201fe823e3-86"}, {"reasons": {"count": 0, "items": [{"summary": "This spot is popular", "type": "general", "reasonName": "globalInteractionReason"}]}, "venue": {"id": "5c753bf2acb37f002c9f0422", "name": "Kouzina", "location": {"lat": 52.505072, "lng": 13.321311, "labeledLatLngs": [{"label": "display", "lat": 52.505072, "lng": 13.321311}], "distance": 611, "cc": "DE", "country": "Deutschland", "formattedAddress": ["Deutschland"]}, "categories": [{"id": "4bf58dd8d48988d10e941735", "name": "Greek Restaurant", "pluralName": "Greek Restaurants", "shortName": "Greek", "icon": {"prefix": "https://ss3.4sqi.net/img/categories_v2/food/greek_", "suffix": ".png"}, "primary": true}], "photos": {"count": 0, "groups": []}}, "referralId": "e-0-5c753bf2acb37f002c9f0422-87"}, {"reasons": {"count": 0, "items": [{"summary": "This spot is popular", "type": "general", "reasonName": "globalInteractionReason"}]}, "venue": {"id": "4af7296af964a520a10622e3", "name": "SETs", "location": {"address": "Schl\u00fcterstr. 36", "lat": 52.50254, "lng": 13.316714, "labeledLatLngs": [{"label": "display", "lat": 52.50254, "lng": 13.316714}], "distance": 658, "postalCode": "10629", "cc": "DE", "city": "Berlin", "state": "Berlin", "country": "Deutschland", "formattedAddress": ["Schl\u00fcterstr. 36", "10629 Berlin", "Deutschland"]}, "categories": [{"id": "4bf58dd8d48988d143941735", "name": "Breakfast Spot", "pluralName": "Breakfast Spots", "shortName": "Breakfast", "icon": {"prefix": "https://ss3.4sqi.net/img/categories_v2/food/breakfast_", "suffix": ".png"}, "primary": true}], "photos": {"count": 0, "groups": []}}, "referralId": "e-0-4af7296af964a520a10622e3-88"}, {"reasons": {"count": 0, "items": [{"summary": "This spot is popular", "type": "general", "reasonName": "globalInteractionReason"}]}, "venue": {"id": "4c3627a918e72d7fd75714f5", "name": "La Caleta", "location": {"address": "Wielandstr. 26a", "lat": 52.5002413686734, "lng": 13.31500818149948, "labeledLatLngs": [{"label": "display", "lat": 52.5002413686734, "lng": 13.31500818149948}], "distance": 889, "postalCode": "10707", "cc": "DE", "city": "Berlin", "state": "Berlin", "country": "Deutschland", "formattedAddress": ["Wielandstr. 26a", "10707 Berlin", "Deutschland"]}, "categories": [{"id": "4bf58dd8d48988d150941735", "name": "Spanish Restaurant", "pluralName": "Spanish Restaurants", "shortName": "Spanish", "icon": {"prefix": "https://ss3.4sqi.net/img/categories_v2/food/spanish_", "suffix": ".png"}, "primary": true}], "photos": {"count": 0, "groups": []}}, "referralId": "e-0-4c3627a918e72d7fd75714f5-89"}, {"reasons": {"count": 0, "items": [{"summary": "This spot is popular", "type": "general", "reasonName": "globalInteractionReason"}]}, "venue": {"id": "524ea7e911d27fc1d2963d01", "name": "La Femme", "location": {"address": "Wilmersdorfer Str. 135", "lat": 52.51152117044885, "lng": 13.305503740823424, "labeledLatLngs": [{"label": "display", "lat": 52.51152117044885, "lng": 13.305503740823424}], "distance": 678, "postalCode": "10627", "cc": "DE", "city": "Berlin", "state": "Berlin", "country": "Deutschland", "formattedAddress": ["Wilmersdorfer Str. 135", "10627 Berlin", "Deutschland"]}, "categories": [{"id": "4bf58dd8d48988d16d941735", "name": "Caf\u00e9", "pluralName": "Caf\u00e9s", "shortName": "Caf\u00e9", "icon": {"prefix": "https://ss3.4sqi.net/img/categories_v2/food/cafe_", "suffix": ".png"}, "primary": true}], "photos": {"count": 0, "groups": []}}, "referralId": "e-0-524ea7e911d27fc1d2963d01-90"}, {"reasons": {"count": 0, "items": [{"summary": "This spot is popular", "type": "general", "reasonName": "globalInteractionReason"}]}, "venue": {"id": "4d286e660fdc6a311b2a8d0b", "name": "Nazar Market", "location": {"address": "Wilmersdorfer Stra\u00dfe 132", "crossStreet": "Bismarck Str.", "lat": 52.510674645460384, "lng": 13.305488323992632, "labeledLatLngs": [{"label": "display", "lat": 52.510674645460384, "lng": 13.305488323992632}], "distance": 633, "postalCode": "10627", "cc": "DE", "city": "Berlin", "state": "Berlin", "country": "Deutschland", "formattedAddress": ["Wilmersdorfer Stra\u00dfe 132 (Bismarck Str.)", "10627 Berlin", "Deutschland"]}, "categories": [{"id": "4bf58dd8d48988d1f9941735", "name": "Food & Drink Shop", "pluralName": "Food & Drink Shops", "shortName": "Food & Drink", "icon": {"prefix": "https://ss3.4sqi.net/img/categories_v2/shops/foodanddrink_", "suffix": ".png"}, "primary": true}], "photos": {"count": 0, "groups": []}}, "referralId": "e-0-4d286e660fdc6a311b2a8d0b-91"}, {"reasons": {"count": 0, "items": [{"summary": "This spot is popular", "type": "general", "reasonName": "globalInteractionReason"}]}, "venue": {"id": "5aca1ac73b830774007324d6", "name": "Princess Cheesecake", "location": {"address": "Knesebeckstra\u00dfe 32", "lat": 52.50334, "lng": 13.321935, "labeledLatLngs": [{"label": "display", "lat": 52.50334, "lng": 13.321935}], "distance": 767, "postalCode": "10623", "cc": "DE", "city": "Berlin", "state": "Berlin", "country": "Deutschland", "formattedAddress": ["Knesebeckstra\u00dfe 32", "10623 Berlin", "Deutschland"]}, "categories": [{"id": "4bf58dd8d48988d1d0941735", "name": "Dessert Shop", "pluralName": "Dessert Shops", "shortName": "Desserts", "icon": {"prefix": "https://ss3.4sqi.net/img/categories_v2/food/dessert_", "suffix": ".png"}, "primary": true}], "photos": {"count": 0, "groups": []}}, "referralId": "e-0-5aca1ac73b830774007324d6-92"}, {"reasons": {"count": 0, "items": [{"summary": "This spot is popular", "type": "general", "reasonName": "globalInteractionReason"}]}, "venue": {"id": "4b9a8bfff964a520debf35e3", "name": "Caf\u00e9 au lait - Coffee Food & Drinks", "location": {"address": "Kantstr. 110", "crossStreet": "Wilmersdorfer Str.", "lat": 52.50674634495147, "lng": 13.305781169860838, "labeledLatLngs": [{"label": "display", "lat": 52.50674634495147, "lng": 13.305781169860838}], "distance": 573, "postalCode": "10627", "cc": "DE", "city": "Berlin", "state": "Berlin", "country": "Deutschland", "formattedAddress": ["Kantstr. 110 (Wilmersdorfer Str.)", "10627 Berlin", "Deutschland"]}, "categories": [{"id": "4bf58dd8d48988d16d941735", "name": "Caf\u00e9", "pluralName": "Caf\u00e9s", "shortName": "Caf\u00e9", "icon": {"prefix": "https://ss3.4sqi.net/img/categories_v2/food/cafe_", "suffix": ".png"}, "primary": true}], "photos": {"count": 0, "groups": []}, "venuePage": {"id": "521440049"}}, "referralId": "e-0-4b9a8bfff964a520debf35e3-93"}, {"reasons": {"count": 0, "items": [{"summary": "This spot is popular", "type": "general", "reasonName": "globalInteractionReason"}]}, "venue": {"id": "4e6a5de418381ea1bddf3c4d", "name": "Cooking Papa", "location": {"address": "Wilmersdorfer Str. 72", "lat": 52.50392225222963, "lng": 13.307505850842006, "labeledLatLngs": [{"label": "display", "lat": 52.50392225222963, "lng": 13.307505850842006}], "distance": 643, "postalCode": "10629", "cc": "DE", "city": "Berlin", "state": "Berlin", "country": "Deutschland", "formattedAddress": ["Wilmersdorfer Str. 72", "10629 Berlin", "Deutschland"]}, "categories": [{"id": "4bf58dd8d48988d113941735", "name": "Korean Restaurant", "pluralName": "Korean Restaurants", "shortName": "Korean", "icon": {"prefix": "https://ss3.4sqi.net/img/categories_v2/food/korean_", "suffix": ".png"}, "primary": true}], "photos": {"count": 0, "groups": []}}, "referralId": "e-0-4e6a5de418381ea1bddf3c4d-94"}, {"reasons": {"count": 0, "items": [{"summary": "This spot is popular", "type": "general", "reasonName": "globalInteractionReason"}]}, "venue": {"id": "4b191ddff964a52030d823e3", "name": "Louis Vuitton", "location": {"address": "Kurf\u00fcrstendamm 185", "lat": 52.50053471204056, "lng": 13.314569544209007, "labeledLatLngs": [{"label": "display", "lat": 52.50053471204056, "lng": 13.314569544209007}], "distance": 854, "postalCode": "10707", "cc": "DE", "city": "Berlin", "state": "Berlin", "country": "Deutschland", "formattedAddress": ["Kurf\u00fcrstendamm 185", "10707 Berlin", "Deutschland"]}, "categories": [{"id": "4bf58dd8d48988d104951735", "name": "Boutique", "pluralName": "Boutiques", "shortName": "Boutique", "icon": {"prefix": "https://ss3.4sqi.net/img/categories_v2/shops/apparel_boutique_", "suffix": ".png"}, "primary": true}], "photos": {"count": 0, "groups": []}}, "referralId": "e-0-4b191ddff964a52030d823e3-95"}, {"reasons": {"count": 0, "items": [{"summary": "This spot is popular", "type": "general", "reasonName": "globalInteractionReason"}]}, "venue": {"id": "4b5062e2f964a520e82127e3", "name": "Cafeteria TU \"Skyline\"", "location": {"address": "Ernst-Reuter-Platz 7", "lat": 52.51287794429001, "lng": 13.320043087005613, "labeledLatLngs": [{"label": "display", "lat": 52.51287794429001, "lng": 13.320043087005613}], "distance": 666, "postalCode": "10587", "cc": "DE", "city": "Berlin", "state": "Berlin", "country": "Deutschland", "formattedAddress": ["Ernst-Reuter-Platz 7", "10587 Berlin", "Deutschland"]}, "categories": [{"id": "4bf58dd8d48988d1a1941735", "name": "College Cafeteria", "pluralName": "College Cafeterias", "shortName": "Cafeteria", "icon": {"prefix": "https://ss3.4sqi.net/img/categories_v2/education/cafeteria_", "suffix": ".png"}, "primary": true}], "photos": {"count": 0, "groups": []}}, "referralId": "e-0-4b5062e2f964a520e82127e3-96"}, {"reasons": {"count": 0, "items": [{"summary": "This spot is popular", "type": "general", "reasonName": "globalInteractionReason"}]}, "venue": {"id": "4b9ff279f964a520b44c37e3", "name": "Hotel Q!", "location": {"address": "Knesebeckstr. 67", "lat": 52.50260284042012, "lng": 13.322196759843308, "labeledLatLngs": [{"label": "display", "lat": 52.50260284042012, "lng": 13.322196759843308}], "distance": 839, "postalCode": "10623", "cc": "DE", "city": "Berlin", "state": "Berlin", "country": "Deutschland", "formattedAddress": ["Knesebeckstr. 67", "10623 Berlin", "Deutschland"]}, "categories": [{"id": "4bf58dd8d48988d1fa931735", "name": "Hotel", "pluralName": "Hotels", "shortName": "Hotel", "icon": {"prefix": "https://ss3.4sqi.net/img/categories_v2/travel/hotel_", "suffix": ".png"}, "primary": true}], "photos": {"count": 0, "groups": []}}, "referralId": "e-0-4b9ff279f964a520b44c37e3-97"}, {"reasons": {"count": 0, "items": [{"summary": "This spot is popular", "type": "general", "reasonName": "globalInteractionReason"}]}, "venue": {"id": "4b61c842f964a52075222ae3", "name": "Belmondo", "location": {"address": "Knesebeckstr.", "lat": 52.50905837457039, "lng": 13.322933446913044, "labeledLatLngs": [{"label": "display", "lat": 52.50905837457039, "lng": 13.322933446913044}], "distance": 619, "postalCode": "10623", "cc": "DE", "city": "Berlin", "state": "Berlin", "country": "Deutschland", "formattedAddress": ["Knesebeckstr.", "10623 Berlin", "Deutschland"]}, "categories": [{"id": "4bf58dd8d48988d10c941735", "name": "French Restaurant", "pluralName": "French Restaurants", "shortName": "French", "icon": {"prefix": "https://ss3.4sqi.net/img/categories_v2/food/french_", "suffix": ".png"}, "primary": true}], "photos": {"count": 0, "groups": []}}, "referralId": "e-0-4b61c842f964a52075222ae3-98"}, {"reasons": {"count": 0, "items": [{"summary": "This spot is popular", "type": "general", "reasonName": "globalInteractionReason"}]}, "venue": {"id": "4c3ac189d94dc9b638c2fee7", "name": "Viniculture", "location": {"address": "Grolmanstr. 44", "lat": 52.504314647819925, "lng": 13.32373860225397, "labeledLatLngs": [{"label": "display", "lat": 52.504314647819925, "lng": 13.32373860225397}], "distance": 794, "postalCode": "10623", "cc": "DE", "city": "Berlin", "state": "Berlin", "country": "Deutschland", "formattedAddress": ["Grolmanstr. 44", "10623 Berlin", "Deutschland"]}, "categories": [{"id": "4bf58dd8d48988d119951735", "name": "Wine Shop", "pluralName": "Wine Shops", "shortName": "Wine Shop", "icon": {"prefix": "https://ss3.4sqi.net/img/categories_v2/shops/food_wineshop_", "suffix": ".png"}, "primary": true}], "photos": {"count": 0, "groups": []}}, "referralId": "e-0-4c3ac189d94dc9b638c2fee7-99"}]