[{"reasons": {"count": 0, "items": [{"summary": "This spot is popular", "type": "general", "reasonName": "globalInteractionReason"}]}, "venue": {"id": "4bf7de8d5317a593e0acfe7e", "name": "Cafe TreBo", "location": {"address": "Treskowallee 75", "lat": 52.485808, "lng": 13.526785, "labeledLatLngs": [{"label": "display", "lat": 52.485808, "lng": 13.526785}], "distance": 318, "postalCode": "10318", "cc": "DE", "city": "Berlin", "state": "Berlin", "country": "Deutschland", "formattedAddress": ["Treskowallee 75", "10318 Berlin", "Deutschland"]}, "categories": [{"id": "4bf58dd8d48988d16d941735", "name": "Caf\u00e9", "pluralName": "Caf\u00e9s", "shortName": "Caf\u00e9", "icon": {"prefix": "https://ss3.4sqi.net/img/categories_v2/food/cafe_", "suffix": ".png"}, "primary": true}], "photos": {"count": 0, "groups": []}}, "referralId": "e-0-4bf7de8d5317a593e0acfe7e-0"}, {"reasons": {"count": 0, "items": [{"summary": "This spot is popular", "type": "general", "reasonName": "globalInteractionReason"}]}, "venue": {"id": "4b03d670f964a520515022e3", "name": "Wernesgr\u00fcner B", "location": {"address": "Treskowallee 68", "crossStreet": "Marksburger Str.", "lat": 52.48661596522711, "lng": 13.526859653149431, "labeledLatLngs": [{"label": "display", "lat": 52.48661596522711, "lng": 13.526859653149431}], "distance": 394, "postalCode": "10318", "cc": "DE", "city": "Berlin", "state": "Berlin", "country": "Deutschland", "formattedAddress": ["Treskowallee 68 (Marksburger Str.)", "10318 Berlin", "Deutschland"]}, "categories": [{"id": "4bf58dd8d48988d10d941735", "name": "German Restaurant", "pluralName": "German Restaurants", "shortName": "German", "icon": {"prefix": "https://ss3.4sqi.net/img/categories_v2/food/german_", "suffix": ".png"}, "primary": true}], "photos": {"count": 0, "groups": []}}, "referralId": "e-0-4b03d670f964a520515022e3-1"}, {"reasons": {"count": 0, "items": [{"summary": "This spot is popular", "type": "general", "reasonName": "globalInteractionReason"}]}, "venue": {"id": "570e51d6498e9ea5afa12583", "name": "Prinzeneis", "location": {"lat": 52.48096013696334, "lng": 13.523426329610075, "labeledLatLngs": [{"label": "display", "lat": 52.48096013696334, "lng": 13.523426329610075}], "distance": 485, "cc": "DE", "city": "Berlin", "state": "Berlin", "country": "Deutschland", "formattedAddress": ["Berlin", "Deutschland"]}, "categories": [{"id": "4bf58dd8d48988d1c9941735", "name": "Ice Cream Shop", "pluralName": "Ice Cream Shops", "shortName": "Ice Cream", "icon": {"prefix": "https://ss3.4sqi.net/img/categories_v2/food/icecream_", "suffix": ".png"}, "primary": true}], "photos": {"count": 0, "groups": []}}, "referralId": "e-0-570e51d6498e9ea5afa12583-2"}, {"reasons": {"count": 0, "items": [{"summary": "This spot is popular", "type": "general", "reasonName": "globalInteractionReason"}]}, "venue": {"id": "4f894746e4b076717aa1f7e7", "name": "Deutsch-Russisches Museum Berlin-Karlshorst", "location": {"address": "Zwieseler Str. 4", "lat": 52.48636716465396, "lng": 13.539716005325317, "labeledLatLngs": [{"label": "display", "lat": 52.48636716465396, "lng": 13.539716005325317}], "distance": 775, "postalCode": "10318", "cc": "DE", "city": "Berlin", "state": "Berlin", "country": "Deutschland", "formattedAddress": ["Zwieseler Str. 4", "10318 Berlin", "Deutschland"]}, "categories": [{"id": "4bf58dd8d48988d190941735", "name": "History Museum", "pluralName": "History Museums", "shortName": "History Museum", "icon": {"prefix": "https://ss3.4sqi.net/img/categories_v2/arts_entertainment/museum_history_", "suffix": ".png"}, "primary": true}], "photos": {"count": 0, "groups": []}}, "referralId": "e-0-4f894746e4b076717aa1f7e7-3"}, {"reasons": {"count": 0, "items": [{"summary": "This spot is popular", "type": "general", "reasonName": "globalInteractionReason"}]}, "venue": {"id": "4fb68a06e4b0467a1d9cda75", "name": "Syrtaki", "location": {"address": "Wandlitzstr. 10", "lat": 52.48108694, "lng": 13.52379432, "labeledLatLngs": [{"label": "display", "lat": 52.48108694, "lng": 13.52379432}], "distance": 457, "postalCode": "10318", "cc": "DE", "city": "Berlin", "state": "Berlin", "country": "Deutschland", "formattedAddress": ["Wandlitzstr. 10", "10318 Berlin", "Deutschland"]}, "categories": [{"id": "4bf58dd8d48988d10e941735", "name": "Greek Restaurant", "pluralName": "Greek Restaurants", "shortName": "Greek", "icon": {"prefix": "https://ss3.4sqi.net/img/categories_v2/food/greek_", "suffix": ".png"}, "primary": true}], "photos": {"count": 0, "groups": []}, "venuePage": {"id": "562111231"}}, "referralId": "e-0-4fb68a06e4b0467a1d9cda75-4"}, {"reasons": {"count": 0, "items": [{"summary": "This spot is popular", "type": "general", "reasonName": "globalInteractionReason"}]}, "venue": {"id": "4cbf59b5985aa35d67774612", "name": "Ristorante Gino", "location": {"address": "Rheinsteinstr. 1", "crossStreet": "Treskowallee", "lat": 52.48278913699729, "lng": 13.526202710811752, "labeledLatLngs": [{"label": "display", "lat": 52.48278913699729, "lng": 13.526202710811752}], "distance": 224, "postalCode": "10318", "cc": "DE", "city": "Berlin", "state": "Berlin", "country": "Deutschland", "formattedAddress": ["Rheinsteinstr. 1 (Treskowallee)", "10318 Berlin", "Deutschland"]}, "categories": [{"id": "4bf58dd8d48988d110941735", "name": "Italian Restaurant", "pluralName": "Italian Restaurants", "shortName": "Italian", "icon": {"prefix": "https://ss3.4sqi.net/img/categories_v2/food/italian_", "suffix": ".png"}, "primary": true}], "photos": {"count": 0, "groups": []}}, "referralId": "e-0-4cbf59b5985aa35d67774612-5"}, {"reasons": {"count": 0, "items": [{"summary": "This spot is popular", "type": "general", "reasonName": "globalInteractionReason"}]}, "venue": {"id": "4bd9ab7de914a593c55357fa", "name": "India-Haus", "location": {"address": "H\u00f6nower Strasse 11", "lat": 52.489069210564026, "lng": 13.524970267504036, "labeledLatLngs": [{"label": "display", "lat": 52.489069210564026, "lng": 13.524970267504036}], "distance": 696, "postalCode": "10318", "cc": "DE", "city": "Berlin", "state": "Berlin", "country": "Deutschland", "formattedAddress": ["H\u00f6nower Strasse 11", "10318 Berlin", "Deutschland"]}, "categories": [{"id": "4bf58dd8d48988d10f941735", "name": "Indian Restaurant", "pluralName": "Indian Restaurants", "shortName": "Indian", "icon": {"prefix": "https://ss3.4sqi.net/img/categories_v2/food/indian_", "suffix": ".png"}, "primary": true}], "photos": {"count": 0, "groups": []}}, "referralId": "e-0-4bd9ab7de914a593c55357fa-6"}, {"reasons": {"count": 0, "items": [{"summary": "This spot is popular", "type": "general", "reasonName": "globalInteractionReason"}]}, "venue": {"id": "4cde86fd7e2e236a15ba7f1b", "name": "Rossmann", "location": {"address": "Treskowallee 112", "crossStreet": "D\u00f6nhoffstr.", "lat": 52.4825049994655, "lng": 13.5249211511117, "labeledLatLngs": [{"label": "display", "lat": 52.4825049994655, "lng": 13.5249211511117}], "distance": 316, "postalCode": "10318", "cc": "DE", "city": "Berlin", "state": "Berlin", "country": "Deutschland", "formattedAddress": ["Treskowallee 112 (D\u00f6nhoffstr.)", "10318 Berlin", "Deutschland"]}, "categories": [{"id": "5745c2e4498e11e7bccabdbd", "name": "Drugstore", "pluralName": "Drugstores", "shortName": "Drugstore", "icon": {"prefix": "https://ss3.4sqi.net/img/categories_v2/shops/pharmacy_", "suffix": ".png"}, "primary": true}], "photos": {"count": 0, "groups": []}}, "referralId": "e-0-4cde86fd7e2e236a15ba7f1b-7"}, {"reasons": {"count": 0, "items": [{"summary": "This spot is popular", "type": "general", "reasonName": "globalInteractionReason"}]}, "venue": {"id": "4d3161232e56236a201d12b4", "name": "Feinb\u00e4ckerei Hollschewski", "location": {"address": "Treskowallee", "crossStreet": "Rheinsteinstr.", "lat": 52.48280635750813, "lng": 13.526058197021483, "labeledLatLngs": [{"label": "display", "lat": 52.48280635750813, "lng": 13.526058197021483}], "distance": 233, "postalCode": "10318", "cc": "DE", "city": "Berlin", "state": "Berlin", "country": "Deutschland", "formattedAddress": ["Treskowallee (Rheinsteinstr.)", "10318 Berlin", "Deutschland"]}, "categories": [{"id": "4bf58dd8d48988d16a941735", "name": "Bakery", "pluralName": "Bakeries", "shortName": "Bakery", "icon": {"prefix": "https://ss3.4sqi.net/img/categories_v2/food/bakery_", "suffix": ".png"}, "primary": true}], "photos": {"count": 0, "groups": []}}, "referralId": "e-0-4d3161232e56236a201d12b4-8"}, {"reasons": {"count": 0, "items": [{"summary": "This spot is popular", "type": "general", "reasonName": "globalInteractionReason"}]}, "venue": {"id": "4ef7b059f7907312522db3b9", "name": "Pizza Station", "location": {"address": "Treskowallee 31", "crossStreet": "Waldowallee", "lat": 52.48970287972062, "lng": 13.528213449285353, "labeledLatLngs": [{"label": "display", "lat": 52.48970287972062, "lng": 13.528213449285353}], "distance": 704, "postalCode": "10318", "cc": "DE", "city": "Berlin", "state": "Berlin", "country": "Deutschland", "formattedAddress": ["Treskowallee 31 (Waldowallee)", "10318 Berlin", "Deutschland"]}, "categories": [{"id": "4bf58dd8d48988d1ca941735", "name": "Pizza Place", "pluralName": "Pizza Places", "shortName": "Pizza", "icon": {"prefix": "https://ss3.4sqi.net/img/categories_v2/food/pizza_", "suffix": ".png"}, "primary": true}], "photos": {"count": 0, "groups": []}}, "referralId": "e-0-4ef7b059f7907312522db3b9-9"}, {"reasons": {"count": 0, "items": [{"summary": "This spot is popular", "type": "general", "reasonName": "globalInteractionReason"}]}, "venue": {"id": "4f84639be4b0ecbe7160de27", "name": "denn's Biomarkt", "location": {"address": "D\u00f6nhoffstr. 41", "crossStreet": "Treskowallee", "lat": 52.48245058035885, "lng": 13.52438853548405, "labeledLatLngs": [{"label": "display", "lat": 52.48245058035885, "lng": 13.52438853548405}], "distance": 353, "postalCode": "10318", "cc": "DE", "city": "Berlin", "state": "Berlin", "country": "Deutschland", "formattedAddress": ["D\u00f6nhoffstr. 41 (Treskowallee)", "10318 Berlin", "Deutschland"]}, "categories": [{"id": "52f2ab2ebcbc57f1066b8b45", "name": "Organic Grocery", "pluralName": "Organic Groceries", "shortName": "Organic Grocery", "icon": {"prefix": "https://ss3.4sqi.net/img/categories_v2/shops/food_grocery_", "suffix": ".png"}, "primary": true}], "photos": {"count": 0, "groups": []}}, "referralId": "e-0-4f84639be4b0ecbe7160de27-10"}, {"reasons": {"count": 0, "items": [{"summary": "This spot is popular", "type": "general", "reasonName": "globalInteractionReason"}]}, "venue": {"id": "4adcda92f964a520064c21e3", "name": "Pferdesportpark Karlshorst", "location": {"address": "Treskowallee 129", "lat": 52.4755180190439, "lng": 13.524909011312864, "labeledLatLngs": [{"label": "display", "lat": 52.4755180190439, "lng": 13.524909011312864}], "distance": 928, "postalCode": "10318", "cc": "DE", "city": "Berlin", "state": "Berlin", "country": "Deutschland", "formattedAddress": ["Treskowallee 129", "10318 Berlin", "Deutschland"]}, "categories": [{"id": "4eb1baf03b7b2c5b1d4306ca", "name": "Stables", "pluralName": "Stables", "shortName": "Stables", "icon": {"prefix": "https://ss3.4sqi.net/img/categories_v2/parks_outdoors/stable_", "suffix": ".png"}, "primary": true}], "photos": {"count": 0, "groups": []}}, "referralId": "e-0-4adcda92f964a520064c21e3-11"}, {"reasons": {"count": 0, "items": [{"summary": "This spot is popular", "type": "general", "reasonName": "globalInteractionReason"}]}, "venue": {"id": "4ee63f209a52c1dadbf515d0", "name": "PENNY", "location": {"address": "Treskowallee 112", "crossStreet": "D\u00f6nhoffstr.", "lat": 52.481981733011104, "lng": 13.525050239252096, "labeledLatLngs": [{"label": "display", "lat": 52.481981733011104, "lng": 13.525050239252096}], "distance": 332, "postalCode": "10318", "cc": "DE", "city": "Berlin", "state": "Berlin", "country": "Deutschland", "formattedAddress": ["Treskowallee 112 (D\u00f6nhoffstr.)", "10318 Berlin", "Deutschland"]}, "categories": [{"id": "52f2ab2ebcbc57f1066b8b46", "name": "Supermarket", "pluralName": "Supermarkets", "shortName": "Supermarket", "icon": {"prefix": "https://ss3.4sqi.net/img/categories_v2/shops/food_grocery_", "suffix": ".png"}, "primary": true}], "photos": {"count": 0, "groups": []}, "venuePage": {"id": "474715353"}}, "referralId": "e-0-4ee63f209a52c1dadbf515d0-12"}, {"reasons": {"count": 0, "items": [{"summary": "This spot is popular", "type": "general", "reasonName": "globalInteractionReason"}]}, "venue": {"id": "4b074ff1f964a520d2fb22e3", "name": "Havanna Bar", "location": {"address": "Treskowallee 111", "lat": 52.48155004505152, "lng": 13.525564552945214, "labeledLatLngs": [{"label": "display", "lat": 52.48155004505152, "lng": 13.525564552945214}], "distance": 330, "postalCode": "10318", "cc": "DE", "city": "Berlin", "state": "Berlin", "country": "Deutschland", "formattedAddress": ["Treskowallee 111", "10318 Berlin", "Deutschland"]}, "categories": [{"id": "4bf58dd8d48988d116941735", "name": "Bar", "pluralName": "Bars", "shortName": "Bar", "icon": {"prefix": "https://ss3.4sqi.net/img/categories_v2/nightlife/pub_", "suffix": ".png"}, "primary": true}], "photos": {"count": 0, "groups": []}}, "referralId": "e-0-4b074ff1f964a520d2fb22e3-13"}, {"reasons": {"count": 0, "items": [{"summary": "This spot is popular", "type": "general", "reasonName": "globalInteractionReason"}]}, "venue": {"id": "4f2e7b07e4b0fed2af779868", "name": "Rheinsteinpark", "location": {"address": "Rheingoldstr.", "crossStreet": "Rheinsteinstr.", "lat": 52.482933583245845, "lng": 13.531115090001098, "labeledLatLngs": [{"label": "display", "lat": 52.482933583245845, "lng": 13.531115090001098}], "distance": 130, "postalCode": "10318", "cc": "DE", "city": "Berlin", "state": "Berlin", "country": "Deutschland", "formattedAddress": ["Rheingoldstr. (Rheinsteinstr.)", "10318 Berlin", "Deutschland"]}, "categories": [{"id": "4bf58dd8d48988d163941735", "name": "Park", "pluralName": "Parks", "shortName": "Park", "icon": {"prefix": "https://ss3.4sqi.net/img/categories_v2/parks_outdoors/park_", "suffix": ".png"}, "primary": true}], "photos": {"count": 0, "groups": []}}, "referralId": "e-0-4f2e7b07e4b0fed2af779868-14"}, {"reasons": {"count": 0, "items": [{"summary": "This spot is popular", "type": "general", "reasonName": "globalInteractionReason"}]}, "venue": {"id": "4ce24cb994c3b60c6a377bea", "name": "Post I Postbank", "location": {"address": "Ehrenfelsstr. 42-44", "lat": 52.48208614936561, "lng": 13.527238231557792, "labeledLatLngs": [{"label": "display", "lat": 52.48208614936561, "lng": 13.527238231557792}], "distance": 205, "postalCode": "10318", "cc": "DE", "city": "Berlin", "state": "Berlin", "country": "Deutschland", "formattedAddress": ["Ehrenfelsstr. 42-44", "10318 Berlin", "Deutschland"]}, "categories": [{"id": "4bf58dd8d48988d172941735", "name": "Post Office", "pluralName": "Post Offices", "shortName": "Post Office", "icon": {"prefix": "https://ss3.4sqi.net/img/categories_v2/building/postoffice_", "suffix": ".png"}, "primary": true}], "photos": {"count": 0, "groups": []}}, "referralId": "e-0-4ce24cb994c3b60c6a377bea-15"}, {"reasons": {"count": 0, "items": [{"summary": "This spot is popular", "type": "general", "reasonName": "globalInteractionReason"}]}, "venue": {"id": "4cebf3efe888f04d571a556b", "name": "Steakhouse Barbecue", "location": {"address": "Treskowallee 65", "crossStreet": "Marksburgstr.", "lat": 52.486614, "lng": 13.527388, "labeledLatLngs": [{"label": "display", "lat": 52.486614, "lng": 13.527388}], "distance": 380, "postalCode": "10318", "cc": "DE", "city": "Berlin", "state": "Berlin", "country": "Deutschland", "formattedAddress": ["Treskowallee 65 (Marksburgstr.)", "10318 Berlin", "Deutschland"]}, "categories": [{"id": "4bf58dd8d48988d107941735", "name": "Argentinian Restaurant", "pluralName": "Argentinian Restaurants", "shortName": "Argentinian", "icon": {"prefix": "https://ss3.4sqi.net/img/categories_v2/food/argentinian_", "suffix": ".png"}, "primary": true}], "photos": {"count": 0, "groups": []}}, "referralId": "e-0-4cebf3efe888f04d571a556b-16"}, {"reasons": {"count": 0, "items": [{"summary": "This spot is popular", "type": "general", "reasonName": "globalInteractionReason"}]}, "venue": {"id": "4b1a4f23f964a520cbe823e3", "name": "S Karlshorst", "location": {"address": "Treskowallee", "crossStreet": "Stolzenfelsstr.", "lat": 52.4808722937571, "lng": 13.526315689086914, "labeledLatLngs": [{"label": "display", "lat": 52.4808722937571, "lng": 13.526315689086914}], "distance": 349, "postalCode": "10318", "cc": "DE", "neighborhood": "Karlshorst", "city": "Berlin", "state": "Berlin", "country": "Deutschland", "formattedAddress": ["Treskowallee (Stolzenfelsstr.)", "10318 Berlin", "Deutschland"]}, "categories": [{"id": "4bf58dd8d48988d1fc931735", "name": "Light Rail Station", "pluralName": "Light Rail Stations", "shortName": "Light Rail", "icon": {"prefix": "https://ss3.4sqi.net/img/categories_v2/travel/lightrail_", "suffix": ".png"}, "primary": true}], "photos": {"count": 0, "groups": []}}, "referralId": "e-0-4b1a4f23f964a520cbe823e3-17"}, {"reasons": {"count": 0, "items": [{"summary": "This spot is popular", "type": "general", "reasonName": "globalInteractionReason"}]}, "venue": {"id": "4db023f24b22ba776d698b34", "name": "Gundelfinger", "location": {"address": "Gundelfinger Str. 52", "crossStreet": "Gundelfingerstra\u00dfe", "lat": 52.48300454384165, "lng": 13.523839855431543, "labeledLatLngs": [{"label": "display", "lat": 52.48300454384165, "lng": 13.523839855431543}], "distance": 376, "postalCode": "10318", "cc": "DE", "city": "Berlin", "state": "Berlin", "country": "Deutschland", "formattedAddress": ["Gundelfinger Str. 52 (Gundelfingerstra\u00dfe)", "10318 Berlin", "Deutschland"]}, "categories": [{"id": "52e81612bcbc57f1066b7a00", "name": "Comfort Food Restaurant", "pluralName": "Comfort Food Restaurants", "shortName": "Comfort Food", "icon": {"prefix": "https://ss3.4sqi.net/img/categories_v2/food/default_", "suffix": ".png"}, "primary": true}], "photos": {"count": 0, "groups": []}}, "referralId": "e-0-4db023f24b22ba776d698b34-18"}, {"reasons": {"count": 0, "items": [{"summary": "This spot is popular", "type": "general", "reasonName": "globalInteractionReason"}]}, "venue": {"id": "5af95706f8cbd4002c880a25", "name": "BIO COMPANY Treskowallee", "location": {"address": "Treskowallee 114", "lat": 52.48120162105152, "lng": 13.524712851375922, "labeledLatLngs": [{"label": "display", "lat": 52.48120162105152, "lng": 13.524712851375922}], "distance": 399, "postalCode": "10318", "cc": "DE", "city": "Berlin", "state": "Berlin", "country": "Deutschland", "formattedAddress": ["Treskowallee 114", "10318 Berlin", "Deutschland"]}, "categories": [{"id": "52f2ab2ebcbc57f1066b8b45", "name": "Organic Grocery", "pluralName": "Organic Groceries", "shortName": "Organic Grocery", "icon": {"prefix": "https://ss3.4sqi.net/img/categories_v2/shops/food_grocery_", "suffix": ".png"}, "primary": true}], "photos": {"count": 0, "groups": []}}, "referralId": "e-0-5af95706f8cbd4002c880a25-19"}, {"reasons": {"count": 0, "items": [{"summary": "This spot is popular", "type": "general", "reasonName": "globalInteractionReason"}]}, "venue": {"id": "5235c16b11d2240e52913949", "name": "Harmonie Restaurant", "location": {"address": "Stolzenfelsstr. 11", "lat": 52.479636562819245, "lng": 13.530127685442435, "labeledLatLngs": [{"label": "display", "lat": 52.479636562819245, "lng": 13.530127685442435}], "distance": 423, "postalCode": "10318", "cc": "DE", "city": "Berlin", "state": "Berlin", "country": "Deutschland", "formattedAddress": ["Stolzenfelsstr. 11", "10318 Berlin", "Deutschland"]}, "categories": [{"id": "4bf58dd8d48988d145941735", "name": "Chinese Restaurant", "pluralName": "Chinese Restaurants", "shortName": "Chinese", "icon": {"prefix": "https://ss3.4sqi.net/img/categories_v2/food/asian_", "suffix": ".png"}, "primary": true}], "photos": {"count": 0, "groups": []}}, "referralId": "e-0-5235c16b11d2240e52913949-20"}, {"reasons": {"count": 0, "items": [{"summary": "This spot is popular", "type": "general", "reasonName": "globalInteractionReason"}]}, "venue": {"id": "5150430de4b066e107bf734c", "name": "by Denni's", "location": {"address": "Treskowallee", "crossStreet": "Am Carlsgarten", "lat": 52.480122807263506, "lng": 13.525463238430241, "labeledLatLngs": [{"label": "display", "lat": 52.480122807263506, "lng": 13.525463238430241}], "distance": 451, "postalCode": "10318", "cc": "DE", "neighborhood": "Karlshorst", "city": "Berlin", "state": "Berlin", "country": "Deutschland", "formattedAddress": ["Treskowallee (Am Carlsgarten)", "10318 Berlin", "Deutschland"]}, "categories": [{"id": "5283c7b4e4b094cb91ec88d8", "name": "Doner Restaurant", "pluralName": "Doner Restaurants", "shortName": "Doner", "icon": {"prefix": "https://ss3.4sqi.net/img/categories_v2/food/turkish_", "suffix": ".png"}, "primary": true}], "photos": {"count": 0, "groups": []}}, "referralId": "e-0-5150430de4b066e107bf734c-21"}, {"reasons": {"count": 0, "items": [{"summary": "This spot is popular", "type": "general", "reasonName": "globalInteractionReason"}]}, "venue": {"id": "4c20ea664d4a20a1707c9b70", "name": "Broilerhaus", "location": {"address": "Treskowallee 116", "lat": 52.48002938126319, "lng": 13.52542519569397, "labeledLatLngs": [{"label": "display", "lat": 52.48002938126319, "lng": 13.52542519569397}], "distance": 461, "postalCode": "10318", "cc": "DE", "city": "Berlin", "state": "Berlin", "country": "Deutschland", "formattedAddress": ["Treskowallee 116", "10318 Berlin", "Deutschland"]}, "categories": [{"id": "4bf58dd8d48988d1c4941735", "name": "Restaurant", "pluralName": "Restaurants", "shortName": "Restaurant", "icon": {"prefix": "https://ss3.4sqi.net/img/categories_v2/food/default_", "suffix": ".png"}, "primary": true}], "photos": {"count": 0, "groups": []}}, "referralId": "e-0-4c20ea664d4a20a1707c9b70-22"}, {"reasons": {"count": 0, "items": [{"summary": "This spot is popular", "type": "general", "reasonName": "globalInteractionReason"}]}, "venue": {"id": "4cd285ce90f23704f43e8be8", "name": "B\u00e4ckerei & Caf\u00e9", "location": {"address": "D\u00f6nhoffstr. 7", "crossStreet": "Hentigstra\u00dfe", "lat": 52.48348820350306, "lng": 13.522525326195023, "labeledLatLngs": [{"label": "display", "lat": 52.48348820350306, "lng": 13.522525326195023}], "distance": 462, "postalCode": "10318", "cc": "DE", "city": "Berlin", "state": "Berlin", "country": "Deutschland", "formattedAddress": ["D\u00f6nhoffstr. 7 (Hentigstra\u00dfe)", "10318 Berlin", "Deutschland"]}, "categories": [{"id": "4bf58dd8d48988d16a941735", "name": "Bakery", "pluralName": "Bakeries", "shortName": "Bakery", "icon": {"prefix": "https://ss3.4sqi.net/img/categories_v2/food/bakery_", "suffix": ".png"}, "primary": true}], "photos": {"count": 0, "groups": []}}, "referralId": "e-0-4cd285ce90f23704f43e8be8-23"}, {"reasons": {"count": 0, "items": [{"summary": "This spot is popular", "type": "general", "reasonName": "globalInteractionReason"}]}, "venue": {"id": "5a64a51d67e5f251ed167531", "name": "Kawi Caf\u00e9 & Lunch", "location": {"address": "Wandlitzstr. 1-3", "lat": 52.480404, "lng": 13.524434, "labeledLatLngs": [{"label": "display", "lat": 52.480404, "lng": 13.524434}], "distance": 472, "postalCode": "10318", "cc": "DE", "city": "Berlin", "state": "Berlin", "country": "Deutschland", "formattedAddress": ["Wandlitzstr. 1-3", "10318 Berlin", "Deutschland"]}, "categories": [{"id": "4bf58dd8d48988d16d941735", "name": "Caf\u00e9", "pluralName": "Caf\u00e9s", "shortName": "Caf\u00e9", "icon": {"prefix": "https://ss3.4sqi.net/img/categories_v2/food/cafe_", "suffix": ".png"}, "primary": true}], "photos": {"count": 0, "groups": []}}, "referralId": "e-0-5a64a51d67e5f251ed167531-24"}, {"reasons": {"count": 0, "items": [{"summary": "This spot is popular", "type": "general", "reasonName": "globalInteractionReason"}]}, "venue": {"id": "4eeb25d5469070b79b4071e7", "name": "Steinofenb\u00e4ckerei & Konditorei VOS", "location": {"address": "Marksburgstra\u00dfe 36", "crossStreet": "Hentigstra\u00dfe", "lat": 52.48693324190945, "lng": 13.52362735611433, "labeledLatLngs": [{"label": "display", "lat": 52.48693324190945, "lng": 13.52362735611433}], "distance": 551, "postalCode": "10318", "cc": "DE", "city": "Berlin", "state": "Berlin", "country": "Deutschland", "formattedAddress": ["Marksburgstra\u00dfe 36 (Hentigstra\u00dfe)", "10318 Berlin", "Deutschland"]}, "categories": [{"id": "4bf58dd8d48988d16a941735", "name": "Bakery", "pluralName": "Bakeries", "shortName": "Bakery", "icon": {"prefix": "https://ss3.4sqi.net/img/categories_v2/food/bakery_", "suffix": ".png"}, "primary": true}], "photos": {"count": 0, "groups": []}}, "referralId": "e-0-4eeb25d5469070b79b4071e7-25"}, {"reasons": {"count": 0, "items": [{"summary": "This spot is popular", "type": "general", "reasonName": "globalInteractionReason"}]}, "venue": {"id": "56d01c50498ef2fe695e9842", "name": "Steinecke B\u00e4ckerei", "location": {"address": "H\u00f6nower Stra\u00dfe", "crossStreet": "Treskowallee", "lat": 52.49051050401613, "lng": 13.52754501994773, "labeledLatLngs": [{"label": "display", "lat": 52.49051050401613, "lng": 13.52754501994773}], "distance": 799, "postalCode": "10318", "cc": "DE", "city": "Berlin", "state": "Berlin", "country": "Deutschland", "formattedAddress": ["H\u00f6nower Stra\u00dfe (Treskowallee)", "10318 Berlin", "Deutschland"]}, "categories": [{"id": "4bf58dd8d48988d16a941735", "name": "Bakery", "pluralName": "Bakeries", "shortName": "Bakery", "icon": {"prefix": "https://ss3.4sqi.net/img/categories_v2/food/bakery_", "suffix": ".png"}, "primary": true}], "photos": {"count": 0, "groups": []}}, "referralId": "e-0-56d01c50498ef2fe695e9842-26"}, {"reasons": {"count": 0, "items": [{"summary": "This spot is popular", "type": "general", "reasonName": "globalInteractionReason"}]}, "venue": {"id": "56f2d197cd10dd27cf52334b", "name": "Al Dente", "location": {"lat": 52.48089, "lng": 13.519863, "labeledLatLngs": [{"label": "display", "lat": 52.48089, "lng": 13.519863}], "distance": 701, "cc": "DE", "country": "Deutschland", "formattedAddress": ["Deutschland"]}, "categories": [{"id": "4bf58dd8d48988d110941735", "name": "Italian Restaurant", "pluralName": "Italian Restaurants", "shortName": "Italian", "icon": {"prefix": "https://ss3.4sqi.net/img/categories_v2/food/italian_", "suffix": ".png"}, "primary": true}], "photos": {"count": 0, "groups": []}}, "referralId": "e-0-56f2d197cd10dd27cf52334b-27"}, {"reasons": {"count": 0, "items": [{"summary": "This spot is popular", "type": "general", "reasonName": "globalInteractionReason"}]}, "venue": {"id": "4c30c3ad3896e21e9800e690", "name": "Il Gattopardo", "location": {"address": "Ehrlichstrasse 30", "lat": 52.480890624078235, "lng": 13.519602631747869, "labeledLatLngs": [{"label": "display", "lat": 52.480890624078235, "lng": 13.519602631747869}], "distance": 718, "postalCode": "10318", "cc": "DE", "city": "Berlin", "state": "Berlin", "country": "Deutschland", "formattedAddress": ["Ehrlichstrasse 30", "10318 Berlin", "Deutschland"]}, "categories": [{"id": "4bf58dd8d48988d110941735", "name": "Italian Restaurant", "pluralName": "Italian Restaurants", "shortName": "Italian", "icon": {"prefix": "https://ss3.4sqi.net/img/categories_v2/food/italian_", "suffix": ".png"}, "primary": true}], "photos": {"count": 0, "groups": []}}, "referralId": "e-0-4c30c3ad3896e21e9800e690-28"}, {"reasons": {"count": 0, "items": [{"summary": "This spot is popular", "type": "general", "reasonName": "globalInteractionReason"}]}, "venue": {"id": "4c7e16ca5af8b60c216d9110", "name": "ALDI NORD", "location": {"address": "Verl\u00e4ngerte Waldowallee 44", "lat": 52.47688628610356, "lng": 13.536937236785889, "labeledLatLngs": [{"label": "display", "lat": 52.47688628610356, "lng": 13.536937236785889}], "distance": 890, "postalCode": "10318", "cc": "DE", "city": "Berlin", "state": "Berlin", "country": "Deutschland", "formattedAddress": ["Verl\u00e4ngerte Waldowallee 44", "10318 Berlin", "Deutschland"]}, "categories": [{"id": "52f2ab2ebcbc57f1066b8b46", "name": "Supermarket", "pluralName": "Supermarkets", "shortName": "Supermarket", "icon": {"prefix": "https://ss3.4sqi.net/img/categories_v2/shops/food_grocery_", "suffix": ".png"}, "primary": true}], "photos": {"count": 0, "groups": []}}, "referralId": "e-0-4c7e16ca5af8b60c216d9110-29"}]