[{"reasons": {"count": 0, "items": [{"summary": "This spot is popular", "type": "general", "reasonName": "globalInteractionReason"}]}, "venue": {"id": "4b0e4a7df964a520a05623e3", "name": "HELLWEG", "location": {"address": "An der Ostbahn 3", "lat": 52.509931767617545, "lng": 13.43978059706477, "labeledLatLngs": [{"label": "display", "lat": 52.509931767617545, "lng": 13.43978059706477}], "distance": 157, "postalCode": "10243", "cc": "DE", "city": "Berlin", "state": "Berlin", "country": "Deutschland", "formattedAddress": ["An der Ostbahn 3", "10243 Berlin", "Deutschland"]}, "categories": [{"id": "4bf58dd8d48988d112951735", "name": "Hardware Store", "pluralName": "Hardware Stores", "shortName": "Hardware", "icon": {"prefix": "https://ss3.4sqi.net/img/categories_v2/shops/hardware_", "suffix": ".png"}, "primary": true}], "photos": {"count": 0, "groups": []}}, "referralId": "e-0-4b0e4a7df964a520a05623e3-0"}, {"reasons": {"count": 0, "items": [{"summary": "This spot is popular", "type": "general", "reasonName": "globalInteractionReason"}]}, "venue": {"id": "505e0fece4b0707f49676ac9", "name": "Kantine am Berghain", "location": {"address": "R\u00fcdersdorfer Str. 70", "lat": 52.51145674398853, "lng": 13.442473037149256, "labeledLatLngs": [{"label": "display", "lat": 52.51145674398853, "lng": 13.442473037149256}], "distance": 242, "postalCode": "10243", "cc": "DE", "city": "Berlin", "state": "Berlin", "country": "Deutschland", "formattedAddress": ["R\u00fcdersdorfer Str. 70", "10243 Berlin", "Deutschland"]}, "categories": [{"id": "4bf58dd8d48988d1e5931735", "name": "Music Venue", "pluralName": "Music Venues", "shortName": "Music Venue", "icon": {"prefix": "https://ss3.4sqi.net/img/categories_v2/arts_entertainment/musicvenue_", "suffix": ".png"}, "primary": true}], "photos": {"count": 0, "groups": []}}, "referralId": "e-0-505e0fece4b0707f49676ac9-1"}, {"reasons": {"count": 0, "items": [{"summary": "This spot is popular", "type": "general", "reasonName": "globalInteractionReason"}]}, "venue": {"id": "4e4bd8cc3151524c3daf4dd5", "name": "Halle", "location": {"address": "Am Wriezener Bahnhof", "crossStreet": "R\u00fcdersdorfer Str.", "lat": 52.51142568714085, "lng": 13.443023068815007, "labeledLatLngs": [{"label": "display", "lat": 52.51142568714085, "lng": 13.443023068815007}], "distance": 279, "postalCode": "10243", "cc": "DE", "city": "Berlin", "state": "Berlin", "country": "Deutschland", "formattedAddress": ["Am Wriezener Bahnhof (R\u00fcdersdorfer Str.)", "10243 Berlin", "Deutschland"]}, "categories": [{"id": "4bf58dd8d48988d1e5931735", "name": "Music Venue", "pluralName": "Music Venues", "shortName": "Music Venue", "icon": {"prefix": "https://ss3.4sqi.net/img/categories_v2/arts_entertainment/musicvenue_", "suffix": ".png"}, "primary": true}], "photos": {"count": 0, "groups": []}, "venuePage": {"id": "182420709"}}, "referralId": "e-0-4e4bd8cc3151524c3daf4dd5-2"}, {"reasons": {"count": 0, "items": [{"summary": "This spot is popular", "type": "general", "reasonName": "globalInteractionReason"}]}, "venue": {"id": "4ae778a5f964a520a5ab21e3", "name": "Berghain", "location": {"address": "Am Wriezener Bahnhof", "lat": 52.51139574815415, "lng": 13.443199396133423, "labeledLatLngs": [{"label": "display", "lat": 52.51139574815415, "lng": 13.443199396133423}], "distance": 291, "postalCode": "10243", "cc": "DE", "neighborhood": "Friedrichshain", "city": "Berlin", "country": "Deutschland", "formattedAddress": ["Am Wriezener Bahnhof", "10243 Berlin", "Deutschland"]}, "categories": [{"id": "4bf58dd8d48988d11f941735", "name": "Nightclub", "pluralName": "Nightclubs", "shortName": "Nightclub", "icon": {"prefix": "https://ss3.4sqi.net/img/categories_v2/nightlife/nightclub_", "suffix": ".png"}, "primary": true}], "photos": {"count": 0, "groups": []}}, "referralId": "e-0-4ae778a5f964a520a5ab21e3-3"}, {"reasons": {"count": 0, "items": [{"summary": "This spot is popular", "type": "general", "reasonName": "globalInteractionReason"}]}, "venue": {"id": "58d427f4e612f21b09a144d5", "name": "S\u00e4ule", "location": {"address": "Am Wriezener Bahnhof", "lat": 52.51112184550338, "lng": 13.442895146194944, "labeledLatLngs": [{"label": "display", "lat": 52.51112184550338, "lng": 13.442895146194944}], "distance": 270, "postalCode": "10243", "cc": "DE", "city": "Berlin", "state": "Berlin", "country": "Deutschland", "formattedAddress": ["Am Wriezener Bahnhof", "10243 Berlin", "Deutschland"]}, "categories": [{"id": "4bf58dd8d48988d11f941735", "name": "Nightclub", "pluralName": "Nightclubs", "shortName": "Nightclub", "icon": {"prefix": "https://ss3.4sqi.net/img/categories_v2/nightlife/nightclub_", "suffix": ".png"}, "primary": true}], "photos": {"count": 0, "groups": []}}, "referralId": "e-0-58d427f4e612f21b09a144d5-4"}, {"reasons": {"count": 0, "items": [{"summary": "This spot is popular", "type": "general", "reasonName": "globalInteractionReason"}]}, "venue": {"id": "548dd889498e3141e0911a34", "name": "Nirgendwo", "location": {"address": "Helsingforser Str. 10", "lat": 52.5104097662086, "lng": 13.444379568099976, "labeledLatLngs": [{"label": "display", "lat": 52.5104097662086, "lng": 13.444379568099976}], "distance": 382, "postalCode": "10243", "cc": "DE", "neighborhood": "Warschauer", "city": "Berlin", "state": "Berlin", "country": "Deutschland", "formattedAddress": ["Helsingforser Str. 10", "10243 Berlin", "Deutschland"]}, "categories": [{"id": "4bf58dd8d48988d116941735", "name": "Bar", "pluralName": "Bars", "shortName": "Bar", "icon": {"prefix": "https://ss3.4sqi.net/img/categories_v2/nightlife/pub_", "suffix": ".png"}, "primary": true}], "photos": {"count": 0, "groups": []}}, "referralId": "e-0-548dd889498e3141e0911a34-5"}, {"reasons": {"count": 0, "items": [{"summary": "This spot is popular", "type": "general", "reasonName": "globalInteractionReason"}]}, "venue": {"id": "4d036cd430a58cfa7b7f98e7", "name": "Panorama Bar", "location": {"address": "Am Wriezener Bahnhof", "lat": 52.511151499307076, "lng": 13.442995548248291, "labeledLatLngs": [{"label": "display", "lat": 52.511151499307076, "lng": 13.442995548248291}], "distance": 276, "postalCode": "10243", "cc": "DE", "city": "Berlin", "state": "Berlin", "country": "Deutschland", "formattedAddress": ["Am Wriezener Bahnhof", "10243 Berlin", "Deutschland"]}, "categories": [{"id": "4bf58dd8d48988d11f941735", "name": "Nightclub", "pluralName": "Nightclubs", "shortName": "Nightclub", "icon": {"prefix": "https://ss3.4sqi.net/img/categories_v2/nightlife/nightclub_", "suffix": ".png"}, "primary": true}], "photos": {"count": 0, "groups": []}}, "referralId": "e-0-4d036cd430a58cfa7b7f98e7-6"}, {"reasons": {"count": 0, "items": [{"summary": "This spot is popular", "type": "general", "reasonName": "globalInteractionReason"}]}, "venue": {"id": "4dda9c1a2271c5d36d86393f", "name": "Fitness Company", "location": {"address": "R\u00fcdersdorfer Str. 71", "crossStreet": "Franz- Mehring- Platz 1", "lat": 52.51310728437709, "lng": 13.44085347693652, "labeledLatLngs": [{"label": "display", "lat": 52.51310728437709, "lng": 13.44085347693652}], "distance": 245, "postalCode": "10243", "cc": "DE", "city": "Berlin", "state": "Berlin", "country": "Deutschland", "formattedAddress": ["R\u00fcdersdorfer Str. 71 (Franz- Mehring- Platz 1)", "10243 Berlin", "Deutschland"]}, "categories": [{"id": "4bf58dd8d48988d175941735", "name": "Gym / Fitness Center", "pluralName": "Gyms or Fitness Centers", "shortName": "Gym / Fitness", "icon": {"prefix": "https://ss3.4sqi.net/img/categories_v2/building/gym_", "suffix": ".png"}, "primary": true}], "photos": {"count": 0, "groups": []}}, "referralId": "e-0-4dda9c1a2271c5d36d86393f-7"}, {"reasons": {"count": 0, "items": [{"summary": "This spot is popular", "type": "general", "reasonName": "globalInteractionReason"}]}, "venue": {"id": "4bd183c3462cb713b648da07", "name": "Bierhof R\u00fcdersdorf", "location": {"address": "R\u00fcdersdorfer Str. 70", "lat": 52.511872406990356, "lng": 13.443167209625244, "labeledLatLngs": [{"label": "display", "lat": 52.511872406990356, "lng": 13.443167209625244}], "distance": 296, "postalCode": "10243", "cc": "DE", "city": "Berlin", "state": "Berlin", "country": "Deutschland", "formattedAddress": ["R\u00fcdersdorfer Str. 70", "10243 Berlin", "Deutschland"]}, "categories": [{"id": "4bf58dd8d48988d117941735", "name": "Beer Garden", "pluralName": "Beer Gardens", "shortName": "Beer Garden", "icon": {"prefix": "https://ss3.4sqi.net/img/categories_v2/nightlife/beergarden_", "suffix": ".png"}, "primary": true}], "photos": {"count": 0, "groups": []}, "venuePage": {"id": "179234774"}}, "referralId": "e-0-4bd183c3462cb713b648da07-8"}, {"reasons": {"count": 0, "items": [{"summary": "This spot is popular", "type": "general", "reasonName": "globalInteractionReason"}]}, "venue": {"id": "4adcda72f964a520494521e3", "name": "Sunflower Hostel", "location": {"address": "Helsingforser Str. 17", "lat": 52.509633651953195, "lng": 13.446248642732158, "labeledLatLngs": [{"label": "display", "lat": 52.509633651953195, "lng": 13.446248642732158}], "distance": 528, "postalCode": "10243", "cc": "DE", "city": "Berlin", "state": "Berlin", "country": "Deutschland", "formattedAddress": ["Helsingforser Str. 17", "10243 Berlin", "Deutschland"]}, "categories": [{"id": "4bf58dd8d48988d1ee931735", "name": "Hostel", "pluralName": "Hostels", "shortName": "Hostel", "icon": {"prefix": "https://ss3.4sqi.net/img/categories_v2/travel/hostel_", "suffix": ".png"}, "primary": true}], "photos": {"count": 0, "groups": []}}, "referralId": "e-0-4adcda72f964a520494521e3-9"}, {"reasons": {"count": 0, "items": [{"summary": "This spot is popular", "type": "general", "reasonName": "globalInteractionReason"}]}, "venue": {"id": "57792aa9498e6337fe693eb6", "name": "Beach at YAAM", "location": {"address": "An der Schillingbr\u00fccke 3", "lat": 52.50897872147215, "lng": 13.431305476134444, "labeledLatLngs": [{"label": "display", "lat": 52.50897872147215, "lng": 13.431305476134444}], "distance": 573, "postalCode": "10243", "cc": "DE", "city": "Berlin", "state": "Berlin", "country": "Deutschland", "formattedAddress": ["An der Schillingbr\u00fccke 3", "10243 Berlin", "Deutschland"]}, "categories": [{"id": "52e81612bcbc57f1066b7a0d", "name": "Beach Bar", "pluralName": "Beach Bars", "shortName": "Beach Bar", "icon": {"prefix": "https://ss3.4sqi.net/img/categories_v2/nightlife/default_", "suffix": ".png"}, "primary": true}], "photos": {"count": 0, "groups": []}}, "referralId": "e-0-57792aa9498e6337fe693eb6-10"}, {"reasons": {"count": 0, "items": [{"summary": "This spot is popular", "type": "general", "reasonName": "globalInteractionReason"}]}, "venue": {"id": "5b94334d3731ee002c9a2990", "name": "Schulz Hotel Berlin Wall", "location": {"address": "Stralauer Platz 36", "lat": 52.508688828647855, "lng": 13.434000528799883, "labeledLatLngs": [{"label": "display", "lat": 52.508688828647855, "lng": 13.434000528799883}], "distance": 437, "postalCode": "10243", "cc": "DE", "city": "Berlin", "state": "Berlin", "country": "Deutschland", "formattedAddress": ["Stralauer Platz 36", "10243 Berlin", "Deutschland"]}, "categories": [{"id": "4bf58dd8d48988d1fa931735", "name": "Hotel", "pluralName": "Hotels", "shortName": "Hotel", "icon": {"prefix": "https://ss3.4sqi.net/img/categories_v2/travel/hotel_", "suffix": ".png"}, "primary": true}], "photos": {"count": 0, "groups": []}}, "referralId": "e-0-5b94334d3731ee002c9a2990-11"}, {"reasons": {"count": 0, "items": [{"summary": "This spot is popular", "type": "general", "reasonName": "globalInteractionReason"}]}, "venue": {"id": "57e58147498e68dd5ecf089f", "name": "MOXY Berlin Ostbahnhof", "location": {"address": "Andreasstrasse 76-78", "lat": 52.5110458, "lng": 13.4301065, "labeledLatLngs": [{"label": "display", "lat": 52.5110458, "lng": 13.4301065}], "distance": 596, "postalCode": "10243", "cc": "DE", "neighborhood": "Friedrichshain", "city": "Berlin", "state": "Berlin", "country": "Deutschland", "formattedAddress": ["Andreasstrasse 76-78", "10243 Berlin", "Deutschland"]}, "categories": [{"id": "4bf58dd8d48988d1fa931735", "name": "Hotel", "pluralName": "Hotels", "shortName": "Hotel", "icon": {"prefix": "https://ss3.4sqi.net/img/categories_v2/travel/hotel_", "suffix": ".png"}, "primary": true}], "photos": {"count": 0, "groups": []}}, "referralId": "e-0-57e58147498e68dd5ecf089f-12"}, {"reasons": {"count": 0, "items": [{"summary": "This spot is popular", "type": "general", "reasonName": "globalInteractionReason"}]}, "venue": {"id": "4b506343f964a520ed2127e3", "name": "METRO Cash & Carry", "location": {"address": "An der Ostbahn 5", "lat": 52.50946947142866, "lng": 13.44372510910034, "labeledLatLngs": [{"label": "display", "lat": 52.50946947142866, "lng": 13.44372510910034}], "distance": 381, "postalCode": "10243", "cc": "DE", "city": "Berlin", "state": "Berlin", "country": "Deutschland", "formattedAddress": ["An der Ostbahn 5", "10243 Berlin", "Deutschland"]}, "categories": [{"id": "52f2ab2ebcbc57f1066b8b42", "name": "Big Box Store", "pluralName": "Big Box Stores", "shortName": "Big Box Store", "icon": {"prefix": "https://ss3.4sqi.net/img/categories_v2/shops/default_", "suffix": ".png"}, "primary": true}], "photos": {"count": 0, "groups": []}}, "referralId": "e-0-4b506343f964a520ed2127e3-13"}, {"reasons": {"count": 0, "items": [{"summary": "This spot is popular", "type": "general", "reasonName": "globalInteractionReason"}]}, "venue": {"id": "4adcda8df964a520564a21e3", "name": "Radialsystem", "location": {"address": "Holzmarktstr. 33", "lat": 52.510458739343875, "lng": 13.428704738616943, "labeledLatLngs": [{"label": "display", "lat": 52.510458739343875, "lng": 13.428704738616943}], "distance": 696, "postalCode": "10243", "cc": "DE", "city": "Berlin", "state": "Berlin", "country": "Deutschland", "formattedAddress": ["Holzmarktstr. 33", "10243 Berlin", "Deutschland"]}, "categories": [{"id": "4bf58dd8d48988d1f2931735", "name": "Performing Arts Venue", "pluralName": "Performing Arts Venues", "shortName": "Performing Arts", "icon": {"prefix": "https://ss3.4sqi.net/img/categories_v2/arts_entertainment/performingarts_", "suffix": ".png"}, "primary": true}], "photos": {"count": 0, "groups": []}}, "referralId": "e-0-4adcda8df964a520564a21e3-14"}, {"reasons": {"count": 0, "items": [{"summary": "This spot is popular", "type": "general", "reasonName": "globalInteractionReason"}]}, "venue": {"id": "4ba33a3cf964a520c03038e3", "name": "Mercedes-Benz Arena", "location": {"address": "Mercedes-Platz 1", "lat": 52.506517859909735, "lng": 13.44375729560852, "labeledLatLngs": [{"label": "display", "lat": 52.506517859909735, "lng": 13.44375729560852}], "distance": 620, "postalCode": "10243", "cc": "DE", "city": "Berlin", "state": "Berlin", "country": "Deutschland", "formattedAddress": ["Mercedes-Platz 1", "10243 Berlin", "Deutschland"]}, "categories": [{"id": "5032792091d4c4b30a586d5c", "name": "Concert Hall", "pluralName": "Concert Halls", "shortName": "Concert Hall", "icon": {"prefix": "https://ss3.4sqi.net/img/categories_v2/arts_entertainment/musicvenue_", "suffix": ".png"}, "primary": true}], "photos": {"count": 0, "groups": []}}, "referralId": "e-0-4ba33a3cf964a520c03038e3-15"}, {"reasons": {"count": 0, "items": [{"summary": "This spot is popular", "type": "general", "reasonName": "globalInteractionReason"}]}, "venue": {"id": "4e65d2e8d4c06542ac614957", "name": "Volkskammer - Das DDR Design Restaurant", "location": {"address": "Stra\u00dfe der Pariser Kommune 18a", "lat": 52.51124029794549, "lng": 13.43773031965971, "labeledLatLngs": [{"label": "display", "lat": 52.51124029794549, "lng": 13.43773031965971}], "distance": 79, "postalCode": "10243", "cc": "DE", "city": "Berlin", "state": "Berlin", "country": "Deutschland", "formattedAddress": ["Stra\u00dfe der Pariser Kommune 18a", "10243 Berlin", "Deutschland"]}, "categories": [{"id": "4bf58dd8d48988d10d941735", "name": "German Restaurant", "pluralName": "German Restaurants", "shortName": "German", "icon": {"prefix": "https://ss3.4sqi.net/img/categories_v2/food/german_", "suffix": ".png"}, "primary": true}], "photos": {"count": 0, "groups": []}}, "referralId": "e-0-4e65d2e8d4c06542ac614957-16"}, {"reasons": {"count": 0, "items": [{"summary": "This spot is popular", "type": "general", "reasonName": "globalInteractionReason"}]}, "venue": {"id": "535014ee498e4cef15b7450c", "name": "Briefmarken Weine - Grande Vini Piccola Cucina", "location": {"address": "Karl Marx Allee 99", "lat": 52.517439910403716, "lng": 13.44258899311813, "labeledLatLngs": [{"label": "display", "lat": 52.517439910403716, "lng": 13.44258899311813}], "distance": 733, "postalCode": "10243", "cc": "DE", "city": "Berlin", "state": "Berlin", "country": "Deutschland", "formattedAddress": ["Karl Marx Allee 99", "10243 Berlin", "Deutschland"]}, "categories": [{"id": "4bf58dd8d48988d110941735", "name": "Italian Restaurant", "pluralName": "Italian Restaurants", "shortName": "Italian", "icon": {"prefix": "https://ss3.4sqi.net/img/categories_v2/food/italian_", "suffix": ".png"}, "primary": true}], "photos": {"count": 0, "groups": []}}, "referralId": "e-0-535014ee498e4cef15b7450c-17"}, {"reasons": {"count": 0, "items": [{"summary": "This spot is popular", "type": "general", "reasonName": "globalInteractionReason"}]}, "venue": {"id": "5386957111d2cd1d7a4379c2", "name": "YAAM", "location": {"address": "An der Schillingbr\u00fccke", "crossStreet": "Stralauer Platz", "lat": 52.509430292042886, "lng": 13.430185317993164, "labeledLatLngs": [{"label": "display", "lat": 52.509430292042886, "lng": 13.430185317993164}], "distance": 624, "postalCode": "10243", "cc": "DE", "city": "Berlin", "state": "Berlin", "country": "Deutschland", "formattedAddress": ["An der Schillingbr\u00fccke (Stralauer Platz)", "10243 Berlin", "Deutschland"]}, "categories": [{"id": "52e81612bcbc57f1066b7a32", "name": "Cultural Center", "pluralName": "Cultural Centers", "shortName": "Cultural Center", "icon": {"prefix": "https://ss3.4sqi.net/img/categories_v2/building/default_", "suffix": ".png"}, "primary": true}], "photos": {"count": 0, "groups": []}}, "referralId": "e-0-5386957111d2cd1d7a4379c2-18"}, {"reasons": {"count": 0, "items": [{"summary": "This spot is popular", "type": "general", "reasonName": "globalInteractionReason"}]}, "venue": {"id": "4c941c0f03413704fb386fef", "name": "Lab.Oratory", "location": {"address": "R\u00fcdersdorfer Str. 70", "lat": 52.511360804532224, "lng": 13.443049192428589, "labeledLatLngs": [{"label": "display", "lat": 52.511360804532224, "lng": 13.443049192428589}], "distance": 280, "postalCode": "10243", "cc": "DE", "city": "Berlin", "state": "Berlin", "country": "Deutschland", "formattedAddress": ["R\u00fcdersdorfer Str. 70", "10243 Berlin", "Deutschland"]}, "categories": [{"id": "4bf58dd8d48988d1d8941735", "name": "Gay Bar", "pluralName": "Gay Bars", "shortName": "Gay Bar", "icon": {"prefix": "https://ss3.4sqi.net/img/categories_v2/nightlife/gaybar_", "suffix": ".png"}, "primary": true}], "photos": {"count": 0, "groups": []}}, "referralId": "e-0-4c941c0f03413704fb386fef-19"}, {"reasons": {"count": 0, "items": [{"summary": "This spot is popular", "type": "general", "reasonName": "globalInteractionReason"}]}, "venue": {"id": "5b78632f56837a001c94111b", "name": "UCI Luxe Kino", "location": {"address": "Mildred-Harnack-Str. 13", "crossStreet": "Mercedes-Platz", "lat": 52.50527707908021, "lng": 13.442169427871704, "labeledLatLngs": [{"label": "display", "lat": 52.50527707908021, "lng": 13.442169427871704}], "distance": 700, "postalCode": "10243", "cc": "DE", "neighborhood": "Friedrichshain", "city": "Berlin", "state": "Berlin", "country": "Deutschland", "formattedAddress": ["Mildred-Harnack-Str. 13 (Mercedes-Platz)", "10243 Berlin", "Deutschland"]}, "categories": [{"id": "4bf58dd8d48988d180941735", "name": "Multiplex", "pluralName": "Multiplexes", "shortName": "Cineplex", "icon": {"prefix": "https://ss3.4sqi.net/img/categories_v2/arts_entertainment/movietheater_", "suffix": ".png"}, "primary": true}], "photos": {"count": 0, "groups": []}}, "referralId": "e-0-5b78632f56837a001c94111b-20"}, {"reasons": {"count": 0, "items": [{"summary": "This spot is popular", "type": "general", "reasonName": "globalInteractionReason"}]}, "venue": {"id": "4adcda91f964a520974b21e3", "name": "Bis auf's Messer", "location": {"address": "Marchlewskistr. 107", "crossStreet": "Revaler Str.", "lat": 52.50809164204684, "lng": 13.449486494064331, "labeledLatLngs": [{"label": "display", "lat": 52.50809164204684, "lng": 13.449486494064331}], "distance": 797, "postalCode": "10243", "cc": "DE", "city": "Berlin", "state": "Berlin", "country": "Deutschland", "formattedAddress": ["Marchlewskistr. 107 (Revaler Str.)", "10243 Berlin", "Deutschland"]}, "categories": [{"id": "4bf58dd8d48988d10d951735", "name": "Record Shop", "pluralName": "Record Shops", "shortName": "Record Shop", "icon": {"prefix": "https://ss3.4sqi.net/img/categories_v2/shops/record_shop_", "suffix": ".png"}, "primary": true}], "photos": {"count": 0, "groups": []}}, "referralId": "e-0-4adcda91f964a520974b21e3-21"}, {"reasons": {"count": 0, "items": [{"summary": "This spot is popular", "type": "general", "reasonName": "globalInteractionReason"}]}, "venue": {"id": "4d3c4ce58edf370483cbaea5", "name": "Zozoville Gallery", "location": {"address": "G\u00e4rtnerstr. 21", "lat": 52.509977823441794, "lng": 13.430254664658172, "labeledLatLngs": [{"label": "display", "lat": 52.509977823441794, "lng": 13.430254664658172}], "distance": 603, "postalCode": "10247", "cc": "DE", "city": "Berlin", "state": "Berlin", "country": "Deutschland", "formattedAddress": ["G\u00e4rtnerstr. 21", "10247 Berlin", "Deutschland"]}, "categories": [{"id": "4bf58dd8d48988d1e2931735", "name": "Art Gallery", "pluralName": "Art Galleries", "shortName": "Art Gallery", "icon": {"prefix": "https://ss3.4sqi.net/img/categories_v2/arts_entertainment/artgallery_", "suffix": ".png"}, "primary": true}], "photos": {"count": 0, "groups": []}}, "referralId": "e-0-4d3c4ce58edf370483cbaea5-22"}, {"reasons": {"count": 0, "items": [{"summary": "This spot is popular", "type": "general", "reasonName": "globalInteractionReason"}]}, "venue": {"id": "4af2ab81f964a52035e821e3", "name": "Weberwiese", "location": {"address": "Marchlewskistr.", "crossStreet": "Hildegard-Jadamowitz-Str.", "lat": 52.51588136025762, "lng": 13.443660736083984, "labeledLatLngs": [{"label": "display", "lat": 52.51588136025762, "lng": 13.443660736083984}], "distance": 608, "postalCode": "10243", "cc": "DE", "city": "Berlin", "state": "Berlin", "country": "Deutschland", "formattedAddress": ["Marchlewskistr. (Hildegard-Jadamowitz-Str.)", "10243 Berlin", "Deutschland"]}, "categories": [{"id": "4bf58dd8d48988d163941735", "name": "Park", "pluralName": "Parks", "shortName": "Park", "icon": {"prefix": "https://ss3.4sqi.net/img/categories_v2/parks_outdoors/park_", "suffix": ".png"}, "primary": true}], "photos": {"count": 0, "groups": []}}, "referralId": "e-0-4af2ab81f964a52035e821e3-23"}, {"reasons": {"count": 0, "items": [{"summary": "This spot is popular", "type": "general", "reasonName": "globalInteractionReason"}]}, "venue": {"id": "5bdcaf1c3149b9002ccadefb", "name": "FitX", "location": {"address": "Tamara-Danz-Stra\u00dfe 11", "lat": 52.505994, "lng": 13.446229, "labeledLatLngs": [{"label": "display", "lat": 52.505994, "lng": 13.446229}], "distance": 766, "postalCode": "10243", "cc": "DE", "city": "Berlin", "state": "Berlin", "country": "Deutschland", "formattedAddress": ["Tamara-Danz-Stra\u00dfe 11", "10243 Berlin", "Deutschland"]}, "categories": [{"id": "4bf58dd8d48988d175941735", "name": "Gym / Fitness Center", "pluralName": "Gyms or Fitness Centers", "shortName": "Gym / Fitness", "icon": {"prefix": "https://ss3.4sqi.net/img/categories_v2/building/gym_", "suffix": ".png"}, "primary": true}], "photos": {"count": 0, "groups": []}}, "referralId": "e-0-5bdcaf1c3149b9002ccadefb-24"}, {"reasons": {"count": 0, "items": [{"summary": "This spot is popular", "type": "general", "reasonName": "globalInteractionReason"}]}, "venue": {"id": "5b4e12c1a42362002c28c608", "name": "Hampton by Hilton Berlin City East Side Gallery", "location": {"address": "Mildred-Harnack-Str. 15", "lat": 52.50494841951575, "lng": 13.44091218744647, "labeledLatLngs": [{"label": "display", "lat": 52.50494841951575, "lng": 13.44091218744647}], "distance": 713, "postalCode": "10243", "cc": "DE", "city": "Berlin", "state": "Berlin", "country": "Deutschland", "formattedAddress": ["Mildred-Harnack-Str. 15", "10243 Berlin", "Deutschland"]}, "categories": [{"id": "4bf58dd8d48988d1fa931735", "name": "Hotel", "pluralName": "Hotels", "shortName": "Hotel", "icon": {"prefix": "https://ss3.4sqi.net/img/categories_v2/travel/hotel_", "suffix": ".png"}, "primary": true}], "photos": {"count": 0, "groups": []}}, "referralId": "e-0-5b4e12c1a42362002c28c608-25"}, {"reasons": {"count": 0, "items": [{"summary": "This spot is popular", "type": "general", "reasonName": "globalInteractionReason"}]}, "venue": {"id": "4ea2aea06da1455cac7329a5", "name": "Berliner Mauerweg | Berlin Wall Trail (Berliner Mauerweg)", "location": {"lat": 52.50427988600668, "lng": 13.44182694711085, "labeledLatLngs": [{"label": "display", "lat": 52.50427988600668, "lng": 13.44182694711085}], "distance": 800, "cc": "DE", "city": "Berlin", "state": "Berlin", "country": "Deutschland", "formattedAddress": ["Berlin", "Deutschland"]}, "categories": [{"id": "4bf58dd8d48988d159941735", "name": "Trail", "pluralName": "Trails", "shortName": "Trail", "icon": {"prefix": "https://ss3.4sqi.net/img/categories_v2/parks_outdoors/hikingtrail_", "suffix": ".png"}, "primary": true}], "photos": {"count": 0, "groups": []}}, "referralId": "e-0-4ea2aea06da1455cac7329a5-26"}, {"reasons": {"count": 0, "items": [{"summary": "This spot is popular", "type": "general", "reasonName": "globalInteractionReason"}]}, "venue": {"id": "4d74c79f170ab1f7fa92f894", "name": "Waterlily", "location": {"address": "Karl-Marx-Allee 113", "lat": 52.51706154236405, "lng": 13.446118582819599, "labeledLatLngs": [{"label": "display", "lat": 52.51706154236405, "lng": 13.446118582819599}], "distance": 810, "postalCode": "10243", "cc": "DE", "neighborhood": "Friedenstra\u00dfe", "city": "Berlin", "state": "Berlin", "country": "Deutschland", "formattedAddress": ["Karl-Marx-Allee 113", "10243 Berlin", "Deutschland"]}, "categories": [{"id": "4bf58dd8d48988d14a941735", "name": "Vietnamese Restaurant", "pluralName": "Vietnamese Restaurants", "shortName": "Vietnamese", "icon": {"prefix": "https://ss3.4sqi.net/img/categories_v2/food/vietnamese_", "suffix": ".png"}, "primary": true}], "photos": {"count": 0, "groups": []}}, "referralId": "e-0-4d74c79f170ab1f7fa92f894-27"}, {"reasons": {"count": 0, "items": [{"summary": "This spot is popular", "type": "general", "reasonName": "globalInteractionReason"}]}, "venue": {"id": "505a168de4b033863fbb6a18", "name": "Kiezsauna", "location": {"address": "Graudenzer Str. 19", "lat": 52.5152088929159, "lng": 13.44890955658569, "labeledLatLngs": [{"label": "display", "lat": 52.5152088929159, "lng": 13.44890955658569}], "distance": 808, "postalCode": "10243", "cc": "DE", "neighborhood": "Friedenstra\u00dfe", "city": "Berlin", "state": "Berlin", "country": "Deutschland", "formattedAddress": ["Graudenzer Str. 19", "10243 Berlin", "Deutschland"]}, "categories": [{"id": "58daa1558bbb0b01f18ec1ae", "name": "Sauna / Steam Room", "pluralName": "Saunas / Steam Rooms", "shortName": "Sauna / Steam Room", "icon": {"prefix": "https://ss3.4sqi.net/img/categories_v2/shops/spa_", "suffix": ".png"}, "primary": true}], "photos": {"count": 0, "groups": []}}, "referralId": "e-0-505a168de4b033863fbb6a18-28"}, {"reasons": {"count": 0, "items": [{"summary": "This spot is popular", "type": "general", "reasonName": "globalInteractionReason"}]}, "venue": {"id": "4cbc29264495721eb209597a", "name": "Feinb\u00e4ckerei Schubbert", "location": {"address": "Palisadenstr. 58", "lat": 52.51874274789905, "lng": 13.438644391235899, "labeledLatLngs": [{"label": "display", "lat": 52.51874274789905, "lng": 13.438644391235899}], "distance": 834, "postalCode": "10243", "cc": "DE", "city": "Berlin", "state": "Berlin", "country": "Deutschland", "formattedAddress": ["Palisadenstr. 58", "10243 Berlin", "Deutschland"]}, "categories": [{"id": "4bf58dd8d48988d16a941735", "name": "Bakery", "pluralName": "Bakeries", "shortName": "Bakery", "icon": {"prefix": "https://ss3.4sqi.net/img/categories_v2/food/bakery_", "suffix": ".png"}, "primary": true}], "photos": {"count": 0, "groups": []}}, "referralId": "e-0-4cbc29264495721eb209597a-29"}, {"reasons": {"count": 0, "items": [{"summary": "This spot is popular", "type": "general", "reasonName": "globalInteractionReason"}]}, "venue": {"id": "5d4dc2041aa86d00079a4a70", "name": "Taverna Kreta", "location": {"address": "Am Comeniusplatz 1", "lat": 52.512287, "lng": 13.44801, "labeledLatLngs": [{"label": "display", "lat": 52.512287, "lng": 13.44801}], "distance": 627, "postalCode": "10243", "cc": "DE", "neighborhood": "Friedrichshain", "city": "Berlin", "state": "Berlin", "country": "Deutschland", "formattedAddress": ["Am Comeniusplatz 1", "10243 Berlin", "Deutschland"]}, "categories": [{"id": "4bf58dd8d48988d10e941735", "name": "Greek Restaurant", "pluralName": "Greek Restaurants", "shortName": "Greek", "icon": {"prefix": "https://ss3.4sqi.net/img/categories_v2/food/greek_", "suffix": ".png"}, "primary": true}], "photos": {"count": 0, "groups": []}}, "referralId": "e-0-5d4dc2041aa86d00079a4a70-30"}, {"reasons": {"count": 0, "items": [{"summary": "This spot is popular", "type": "general", "reasonName": "globalInteractionReason"}]}, "venue": {"id": "504256d8e4b0f30041f398f0", "name": "Restaurant Richard", "location": {"address": "K\u00f6penicker Str. 174", "lat": 52.50431281903661, "lng": 13.435404582066509, "labeledLatLngs": [{"label": "display", "lat": 52.50431281903661, "lng": 13.435404582066509}], "distance": 807, "postalCode": "10997", "cc": "DE", "city": "Berlin", "state": "Berlin", "country": "Deutschland", "formattedAddress": ["K\u00f6penicker Str. 174", "10997 Berlin", "Deutschland"]}, "categories": [{"id": "4bf58dd8d48988d10c941735", "name": "French Restaurant", "pluralName": "French Restaurants", "shortName": "French", "icon": {"prefix": "https://ss3.4sqi.net/img/categories_v2/food/french_", "suffix": ".png"}, "primary": true}], "photos": {"count": 0, "groups": []}}, "referralId": "e-0-504256d8e4b0f30041f398f0-31"}, {"reasons": {"count": 0, "items": [{"summary": "This spot is popular", "type": "general", "reasonName": "globalInteractionReason"}]}, "venue": {"id": "5bda054d46e1b6002c6f6640", "name": "Vincent Vegan", "location": {"address": "Tamara-Danz-Str. 11", "lat": 52.50551535205405, "lng": 13.445484265157043, "labeledLatLngs": [{"label": "display", "lat": 52.50551535205405, "lng": 13.445484265157043}], "distance": 777, "postalCode": "10243", "cc": "DE", "neighborhood": "Friedrichshain", "city": "Berlin", "state": "Berlin", "country": "Deutschland", "formattedAddress": ["Tamara-Danz-Str. 11", "10243 Berlin", "Deutschland"]}, "categories": [{"id": "4bf58dd8d48988d1d3941735", "name": "Vegetarian / Vegan Restaurant", "pluralName": "Vegetarian / Vegan Restaurants", "shortName": "Vegetarian / Vegan", "icon": {"prefix": "https://ss3.4sqi.net/img/categories_v2/food/vegetarian_", "suffix": ".png"}, "primary": true}], "photos": {"count": 0, "groups": []}, "venuePage": {"id": "587707703"}}, "referralId": "e-0-5bda054d46e1b6002c6f6640-32"}, {"reasons": {"count": 0, "items": [{"summary": "This spot is popular", "type": "general", "reasonName": "globalInteractionReason"}]}, "venue": {"id": "4b3f3907f964a520c2a425e3", "name": "Oase", "location": {"address": "Warschauer Stra\u00dfe 25", "crossStreet": "Kopernikusstr", "lat": 52.51049321192495, "lng": 13.451751232145822, "labeledLatLngs": [{"label": "display", "lat": 52.51049321192495, "lng": 13.451751232145822}], "distance": 873, "cc": "DE", "city": "Berlin", "state": "Berlin", "country": "Deutschland", "formattedAddress": ["Warschauer Stra\u00dfe 25 (Kopernikusstr)", "Berlin", "Deutschland"]}, "categories": [{"id": "4bf58dd8d48988d115941735", "name": "Middle Eastern Restaurant", "pluralName": "Middle Eastern Restaurants", "shortName": "Middle Eastern", "icon": {"prefix": "https://ss3.4sqi.net/img/categories_v2/food/middleeastern_", "suffix": ".png"}, "primary": true}], "photos": {"count": 0, "groups": []}}, "referralId": "e-0-4b3f3907f964a520c2a425e3-33"}, {"reasons": {"count": 0, "items": [{"summary": "This spot is popular", "type": "general", "reasonName": "globalInteractionReason"}]}, "venue": {"id": "5bca1b65e1f0aa002cce0fb4", "name": "Loretta an der Spree", "location": {"address": "Mildred-Harnack-Str. 11", "crossStreet": "Mercedes-Platz", "lat": 52.50582237391663, "lng": 13.442072868347168, "labeledLatLngs": [{"label": "display", "lat": 52.50582237391663, "lng": 13.442072868347168}], "distance": 640, "postalCode": "10243", "cc": "DE", "city": "Berlin", "state": "Berlin", "country": "Deutschland", "formattedAddress": ["Mildred-Harnack-Str. 11 (Mercedes-Platz)", "10243 Berlin", "Deutschland"]}, "categories": [{"id": "56aa371ce4b08b9a8d573572", "name": "Bavarian Restaurant", "pluralName": "Bavarian Restaurants", "shortName": "Bavarian", "icon": {"prefix": "https://ss3.4sqi.net/img/categories_v2/food/german_", "suffix": ".png"}, "primary": true}], "photos": {"count": 0, "groups": []}}, "referralId": "e-0-5bca1b65e1f0aa002cce0fb4-34"}, {"reasons": {"count": 0, "items": [{"summary": "This spot is popular", "type": "general", "reasonName": "globalInteractionReason"}]}, "venue": {"id": "51e81096498e6b71591d4db4", "name": "Salumeria Lamuri", "location": {"address": "K\u00f6penicker Str.183", "lat": 52.50309729215354, "lng": 13.438077108747732, "labeledLatLngs": [{"label": "display", "lat": 52.50309729215354, "lng": 13.438077108747732}], "distance": 908, "postalCode": "10997", "cc": "DE", "city": "Berlin", "state": "Berlin", "country": "Deutschland", "formattedAddress": ["K\u00f6penicker Str.183", "10997 Berlin", "Deutschland"]}, "categories": [{"id": "4bf58dd8d48988d110941735", "name": "Italian Restaurant", "pluralName": "Italian Restaurants", "shortName": "Italian", "icon": {"prefix": "https://ss3.4sqi.net/img/categories_v2/food/italian_", "suffix": ".png"}, "primary": true}], "photos": {"count": 0, "groups": []}}, "referralId": "e-0-51e81096498e6b71591d4db4-35"}, {"reasons": {"count": 0, "items": [{"summary": "This spot is popular", "type": "general", "reasonName": "globalInteractionReason"}]}, "venue": {"id": "5d0cfd4d88e5ba0023b3837f", "name": "J\u00e4ger & Lustig", "location": {"address": "Gr\u00fcnberger Str. 1", "lat": 52.513397027592625, "lng": 13.447834253311157, "labeledLatLngs": [{"label": "display", "lat": 52.513397027592625, "lng": 13.447834253311157}], "distance": 650, "postalCode": "10243", "cc": "DE", "city": "Berlin", "state": "Berlin", "country": "Deutschland", "formattedAddress": ["Gr\u00fcnberger Str. 1", "10243 Berlin", "Deutschland"]}, "categories": [{"id": "4bf58dd8d48988d155941735", "name": "Gastropub", "pluralName": "Gastropubs", "shortName": "Gastropub", "icon": {"prefix": "https://ss3.4sqi.net/img/categories_v2/food/gastropub_", "suffix": ".png"}, "primary": true}], "photos": {"count": 0, "groups": []}}, "referralId": "e-0-5d0cfd4d88e5ba0023b3837f-36"}, {"reasons": {"count": 0, "items": [{"summary": "This spot is popular", "type": "general", "reasonName": "globalInteractionReason"}]}, "venue": {"id": "4dfa7936a809fe774224ea47", "name": "sunyoga Friedrichshain", "location": {"address": "Torellstr. 7", "crossStreet": "Gubener Str.", "lat": 52.51113395387012, "lng": 13.448851752086956, "labeledLatLngs": [{"label": "display", "lat": 52.51113395387012, "lng": 13.448851752086956}], "distance": 673, "postalCode": "10243", "cc": "DE", "city": "Berlin", "state": "Berlin", "country": "Deutschland", "formattedAddress": ["Torellstr. 7 (Gubener Str.)", "10243 Berlin", "Deutschland"]}, "categories": [{"id": "4bf58dd8d48988d102941735", "name": "Yoga Studio", "pluralName": "Yoga Studios", "shortName": "Yoga Studio", "icon": {"prefix": "https://ss3.4sqi.net/img/categories_v2/shops/gym_yogastudio_", "suffix": ".png"}, "primary": true}], "photos": {"count": 0, "groups": []}}, "referralId": "e-0-4dfa7936a809fe774224ea47-37"}, {"reasons": {"count": 0, "items": [{"summary": "This spot is popular", "type": "general", "reasonName": "globalInteractionReason"}]}, "venue": {"id": "4aeae4aef964a52074bc21e3", "name": "Michelberger Hotel", "location": {"address": "Warschauer Str. 39-40", "lat": 52.50475120070394, "lng": 13.447503218683359, "labeledLatLngs": [{"label": "display", "lat": 52.50475120070394, "lng": 13.447503218683359}], "distance": 928, "postalCode": "10243", "cc": "DE", "city": "Berlin", "state": "Berlin", "country": "Deutschland", "formattedAddress": ["Warschauer Str. 39-40", "10243 Berlin", "Deutschland"]}, "categories": [{"id": "4bf58dd8d48988d1fa931735", "name": "Hotel", "pluralName": "Hotels", "shortName": "Hotel", "icon": {"prefix": "https://ss3.4sqi.net/img/categories_v2/travel/hotel_", "suffix": ".png"}, "primary": true}], "photos": {"count": 0, "groups": []}, "venuePage": {"id": "79322455"}}, "referralId": "e-0-4aeae4aef964a52074bc21e3-38"}, {"reasons": {"count": 0, "items": [{"summary": "This spot is popular", "type": "general", "reasonName": "globalInteractionReason"}]}, "venue": {"id": "5a802d6b5455b23b6b73cf67", "name": "Kiez Vegan", "location": {"address": "Warschauer Stra\u00dfe 24", "lat": 52.511183, "lng": 13.451631, "labeledLatLngs": [{"label": "display", "lat": 52.511183, "lng": 13.451631}], "distance": 861, "postalCode": "10243", "cc": "DE", "city": "Berlin", "state": "Berlin", "country": "Deutschland", "formattedAddress": ["Warschauer Stra\u00dfe 24", "10243 Berlin", "Deutschland"]}, "categories": [{"id": "4bf58dd8d48988d1d3941735", "name": "Vegetarian / Vegan Restaurant", "pluralName": "Vegetarian / Vegan Restaurants", "shortName": "Vegetarian / Vegan", "icon": {"prefix": "https://ss3.4sqi.net/img/categories_v2/food/vegetarian_", "suffix": ".png"}, "primary": true}], "photos": {"count": 0, "groups": []}}, "referralId": "e-0-5a802d6b5455b23b6b73cf67-39"}, {"reasons": {"count": 0, "items": [{"summary": "This spot is popular", "type": "general", "reasonName": "globalInteractionReason"}]}, "venue": {"id": "57401dd8498ee283bacead7e", "name": "Kiez Hostel Berlin", "location": {"address": "Marchlewskistr. 88", "lat": 52.50984960489462, "lng": 13.447431592103285, "labeledLatLngs": [{"label": "display", "lat": 52.50984960489462, "lng": 13.447431592103285}], "distance": 597, "postalCode": "10243", "cc": "DE", "neighborhood": "Friedrichshain, Berlin", "city": "Berlin", "state": "Berlin", "country": "Deutschland", "formattedAddress": ["Marchlewskistr. 88", "10243 Berlin", "Deutschland"]}, "categories": [{"id": "4bf58dd8d48988d1ee931735", "name": "Hostel", "pluralName": "Hostels", "shortName": "Hostel", "icon": {"prefix": "https://ss3.4sqi.net/img/categories_v2/travel/hostel_", "suffix": ".png"}, "primary": true}], "photos": {"count": 0, "groups": []}, "venuePage": {"id": "191518425"}}, "referralId": "e-0-57401dd8498ee283bacead7e-40"}, {"reasons": {"count": 0, "items": [{"summary": "This spot is popular", "type": "general", "reasonName": "globalInteractionReason"}]}, "venue": {"id": "55034789498ead04350aab6a", "name": "Gin Chilla Bar", "location": {"address": "Warschauer Str. 33", "lat": 52.507896, "lng": 13.450152, "labeledLatLngs": [{"label": "display", "lat": 52.507896, "lng": 13.450152}], "distance": 848, "postalCode": "10243", "cc": "DE", "city": "Berlin", "state": "Berlin", "country": "Deutschland", "formattedAddress": ["Warschauer Str. 33", "10243 Berlin", "Deutschland"]}, "categories": [{"id": "4bf58dd8d48988d11e941735", "name": "Cocktail Bar", "pluralName": "Cocktail Bars", "shortName": "Cocktail", "icon": {"prefix": "https://ss3.4sqi.net/img/categories_v2/nightlife/cocktails_", "suffix": ".png"}, "primary": true}], "photos": {"count": 0, "groups": []}, "venuePage": {"id": "570014563"}}, "referralId": "e-0-55034789498ead04350aab6a-41"}, {"reasons": {"count": 0, "items": [{"summary": "This spot is popular", "type": "general", "reasonName": "globalInteractionReason"}]}, "venue": {"id": "4bdc2b632a3a0f47fcb2b1b6", "name": "East Side Gallery", "location": {"address": "M\u00fchlenstr.", "lat": 52.503415842163285, "lng": 13.44397187232971, "labeledLatLngs": [{"label": "display", "lat": 52.503415842163285, "lng": 13.44397187232971}], "distance": 936, "postalCode": "10243", "cc": "DE", "city": "Berlin", "state": "Berlin", "country": "Deutschland", "formattedAddress": ["M\u00fchlenstr.", "10243 Berlin", "Deutschland"]}, "categories": [{"id": "4bf58dd8d48988d12d941735", "name": "Monument / Landmark", "pluralName": "Monuments / Landmarks", "shortName": "Landmark", "icon": {"prefix": "https://ss3.4sqi.net/img/categories_v2/building/government_monument_", "suffix": ".png"}, "primary": true}], "photos": {"count": 0, "groups": []}}, "referralId": "e-0-4bdc2b632a3a0f47fcb2b1b6-42"}, {"reasons": {"count": 0, "items": [{"summary": "This spot is popular", "type": "general", "reasonName": "globalInteractionReason"}]}, "venue": {"id": "56cdf17e498e9a4d84fb04d7", "name": "Premium Lounge", "location": {"address": "Mercedes-Platz 1", "lat": 52.506104449788786, "lng": 13.442938678715027, "labeledLatLngs": [{"label": "display", "lat": 52.506104449788786, "lng": 13.442938678715027}], "distance": 634, "postalCode": "10243", "cc": "DE", "city": "Berlin", "state": "Berlin", "country": "Deutschland", "formattedAddress": ["Mercedes-Platz 1", "10243 Berlin", "Deutschland"]}, "categories": [{"id": "4bf58dd8d48988d121941735", "name": "Lounge", "pluralName": "Lounges", "shortName": "Lounge", "icon": {"prefix": "https://ss3.4sqi.net/img/categories_v2/nightlife/default_", "suffix": ".png"}, "primary": true}], "photos": {"count": 0, "groups": []}}, "referralId": "e-0-56cdf17e498e9a4d84fb04d7-43"}, {"reasons": {"count": 0, "items": [{"summary": "This spot is popular", "type": "general", "reasonName": "globalInteractionReason"}]}, "venue": {"id": "5b2a65bd69e77b0039651523", "name": "Hotel Indigo Berlin - City East Side Gallery", "location": {"address": "M\u00fchlenstr. 13-19", "lat": 52.504656380874216, "lng": 13.441600874345658, "labeledLatLngs": [{"label": "display", "lat": 52.504656380874216, "lng": 13.441600874345658}], "distance": 755, "postalCode": "10243", "cc": "DE", "city": "Berlin", "state": "Berlin", "country": "Deutschland", "formattedAddress": ["M\u00fchlenstr. 13-19", "10243 Berlin", "Deutschland"]}, "categories": [{"id": "4bf58dd8d48988d1fa931735", "name": "Hotel", "pluralName": "Hotels", "shortName": "Hotel", "icon": {"prefix": "https://ss3.4sqi.net/img/categories_v2/travel/hotel_", "suffix": ".png"}, "primary": true}], "photos": {"count": 0, "groups": []}}, "referralId": "e-0-5b2a65bd69e77b0039651523-44"}, {"reasons": {"count": 0, "items": [{"summary": "This spot is popular", "type": "general", "reasonName": "globalInteractionReason"}]}, "venue": {"id": "536509dd498e22fa4caabefa", "name": "Shakespeare and Sons", "location": {"address": "Warschauer Str. 74", "crossStreet": "Gr\u00fcnberger Str.", "lat": 52.512636356259506, "lng": 13.453112840652466, "labeledLatLngs": [{"label": "display", "lat": 52.512636356259506, "lng": 13.453112840652466}], "distance": 974, "postalCode": "10243", "cc": "DE", "neighborhood": "Friedrichshain, Berlin", "city": "Berlin", "state": "Berlin", "country": "Deutschland", "formattedAddress": ["Warschauer Str. 74 (Gr\u00fcnberger Str.)", "10243 Berlin", "Deutschland"]}, "categories": [{"id": "4bf58dd8d48988d114951735", "name": "Bookstore", "pluralName": "Bookstores", "shortName": "Bookstore", "icon": {"prefix": "https://ss3.4sqi.net/img/categories_v2/shops/bookstore_", "suffix": ".png"}, "primary": true}], "photos": {"count": 0, "groups": []}}, "referralId": "e-0-536509dd498e22fa4caabefa-45"}, {"reasons": {"count": 0, "items": [{"summary": "This spot is popular", "type": "general", "reasonName": "globalInteractionReason"}]}, "venue": {"id": "4bf42d61706e20a1c608a998", "name": "METRO-Fu\u00dfballhimmel", "location": {"address": "An der Ostbahn 5", "crossStreet": "auf dem Dach der Metro", "lat": 52.509033, "lng": 13.443961, "labeledLatLngs": [{"label": "display", "lat": 52.509033, "lng": 13.443961}], "distance": 421, "postalCode": "10245", "cc": "DE", "city": "Berlin", "state": "Berlin", "country": "Deutschland", "formattedAddress": ["An der Ostbahn 5 (auf dem Dach der Metro)", "10245 Berlin", "Deutschland"]}, "categories": [{"id": "4cce455aebf7b749d5e191f5", "name": "Soccer Field", "pluralName": "Soccer Fields", "shortName": "Soccer Field", "icon": {"prefix": "https://ss3.4sqi.net/img/categories_v2/arts_entertainment/stadium_soccer_", "suffix": ".png"}, "primary": true}], "photos": {"count": 0, "groups": []}, "venuePage": {"id": "559355945"}}, "referralId": "e-0-4bf42d61706e20a1c608a998-46"}, {"reasons": {"count": 0, "items": [{"summary": "This spot is popular", "type": "general", "reasonName": "globalInteractionReason"}]}, "venue": {"id": "5390e7a5498e1eb4652bffe4", "name": "Kater Blau", "location": {"address": "Holzmarktstr. 25", "lat": 52.51186304262993, "lng": 13.425768449360852, "labeledLatLngs": [{"label": "display", "lat": 52.51186304262993, "lng": 13.425768449360852}], "distance": 892, "postalCode": "10243", "cc": "DE", "city": "Berlin", "state": "Berlin", "country": "Deutschland", "formattedAddress": ["Holzmarktstr. 25", "10243 Berlin", "Deutschland"]}, "categories": [{"id": "4bf58dd8d48988d11f941735", "name": "Nightclub", "pluralName": "Nightclubs", "shortName": "Nightclub", "icon": {"prefix": "https://ss3.4sqi.net/img/categories_v2/nightlife/nightclub_", "suffix": ".png"}, "primary": true}], "photos": {"count": 0, "groups": []}}, "referralId": "e-0-5390e7a5498e1eb4652bffe4-47"}, {"reasons": {"count": 0, "items": [{"summary": "This spot is popular", "type": "general", "reasonName": "globalInteractionReason"}]}, "venue": {"id": "4c2d9e87260bc92801531ad3", "name": "Computerspielemuseum", "location": {"address": "Karl-Marx-Allee 93a", "lat": 52.51748970846354, "lng": 13.441899511634173, "labeledLatLngs": [{"label": "display", "lat": 52.51748970846354, "lng": 13.441899511634173}], "distance": 724, "postalCode": "10243", "cc": "DE", "city": "Berlin", "state": "Berlin", "country": "Deutschland", "formattedAddress": ["Karl-Marx-Allee 93a", "10243 Berlin", "Deutschland"]}, "categories": [{"id": "4bf58dd8d48988d191941735", "name": "Science Museum", "pluralName": "Science Museums", "shortName": "Science Museum", "icon": {"prefix": "https://ss3.4sqi.net/img/categories_v2/arts_entertainment/museum_science_", "suffix": ".png"}, "primary": true}], "photos": {"count": 0, "groups": []}, "venuePage": {"id": "356231983"}}, "referralId": "e-0-4c2d9e87260bc92801531ad3-48"}, {"reasons": {"count": 0, "items": [{"summary": "This spot is popular", "type": "general", "reasonName": "globalInteractionReason"}]}, "venue": {"id": "4f06b6c7e4b0ca3a5a77f1df", "name": "Michelberger Bar", "location": {"address": "Warschauer Str. 39-40", "lat": 52.50461418701797, "lng": 13.447877664714321, "labeledLatLngs": [{"label": "display", "lat": 52.50461418701797, "lng": 13.447877664714321}], "distance": 956, "postalCode": "10243", "cc": "DE", "neighborhood": "Friedrichshain", "city": "Berlin", "state": "Berlin", "country": "Deutschland", "formattedAddress": ["Warschauer Str. 39-40", "10243 Berlin", "Deutschland"]}, "categories": [{"id": "4bf58dd8d48988d1d5941735", "name": "Hotel Bar", "pluralName": "Hotel Bars", "shortName": "Hotel Bar", "icon": {"prefix": "https://ss3.4sqi.net/img/categories_v2/travel/hotel_bar_", "suffix": ".png"}, "primary": true}], "photos": {"count": 0, "groups": []}, "venuePage": {"id": "91497645"}}, "referralId": "e-0-4f06b6c7e4b0ca3a5a77f1df-49"}, {"reasons": {"count": 0, "items": [{"summary": "This spot is popular", "type": "general", "reasonName": "globalInteractionReason"}]}, "venue": {"id": "4fa43face4b0bcbb46297a7d", "name": "Fitcher\u2019s Vogel", "location": {"address": "Warschauer Str. 26", "lat": 52.510390552236196, "lng": 13.45136783616273, "labeledLatLngs": [{"label": "display", "lat": 52.510390552236196, "lng": 13.45136783616273}], "distance": 849, "postalCode": "10243", "cc": "DE", "city": "Berlin", "state": "Berlin", "country": "Deutschland", "formattedAddress": ["Warschauer Str. 26", "10243 Berlin", "Deutschland"]}, "categories": [{"id": "4bf58dd8d48988d116941735", "name": "Bar", "pluralName": "Bars", "shortName": "Bar", "icon": {"prefix": "https://ss3.4sqi.net/img/categories_v2/nightlife/pub_", "suffix": ".png"}, "primary": true}], "photos": {"count": 0, "groups": []}}, "referralId": "e-0-4fa43face4b0bcbb46297a7d-50"}, {"reasons": {"count": 0, "items": [{"summary": "This spot is popular", "type": "general", "reasonName": "globalInteractionReason"}]}, "venue": {"id": "4b02d40ef964a5202a4a22e3", "name": "Sage Restaurant & Beach", "location": {"address": "K\u00f6penicker Str. 18-20", "lat": 52.5060201311514, "lng": 13.433335862214182, "labeledLatLngs": [{"label": "display", "lat": 52.5060201311514, "lng": 13.433335862214182}], "distance": 693, "postalCode": "10997", "cc": "DE", "neighborhood": "Kreuzberg", "city": "Berlin", "state": "Berlin", "country": "Deutschland", "formattedAddress": ["K\u00f6penicker Str. 18-20", "10997 Berlin", "Deutschland"]}, "categories": [{"id": "4bf58dd8d48988d1c4941735", "name": "Restaurant", "pluralName": "Restaurants", "shortName": "Restaurant", "icon": {"prefix": "https://ss3.4sqi.net/img/categories_v2/food/default_", "suffix": ".png"}, "primary": true}], "photos": {"count": 0, "groups": []}}, "referralId": "e-0-4b02d40ef964a5202a4a22e3-51"}, {"reasons": {"count": 0, "items": [{"summary": "This spot is popular", "type": "general", "reasonName": "globalInteractionReason"}]}, "venue": {"id": "5366185e498e00ff04b60f31", "name": "Fine Bagels", "location": {"address": "Warschauer Str. 74", "lat": 52.512644, "lng": 13.453135, "labeledLatLngs": [{"label": "display", "lat": 52.512644, "lng": 13.453135}], "distance": 976, "postalCode": "10243", "cc": "DE", "city": "Berlin", "state": "Berlin", "country": "Deutschland", "formattedAddress": ["Warschauer Str. 74", "10243 Berlin", "Deutschland"]}, "categories": [{"id": "4bf58dd8d48988d179941735", "name": "Bagel Shop", "pluralName": "Bagel Shops", "shortName": "Bagels", "icon": {"prefix": "https://ss3.4sqi.net/img/categories_v2/food/bagels_", "suffix": ".png"}, "primary": true}], "photos": {"count": 0, "groups": []}}, "referralId": "e-0-5366185e498e00ff04b60f31-52"}, {"reasons": {"count": 0, "items": [{"summary": "This spot is popular", "type": "general", "reasonName": "globalInteractionReason"}]}, "venue": {"id": "4ba21ca2f964a52085dc37e3", "name": "Pizza Vira", "location": {"address": "Warschauer Str. 66", "lat": 52.51110067963582, "lng": 13.452019284539272, "labeledLatLngs": [{"label": "display", "lat": 52.51110067963582, "lng": 13.452019284539272}], "distance": 888, "postalCode": "10243", "cc": "DE", "city": "Berlin", "state": "Berlin", "country": "Deutschland", "formattedAddress": ["Warschauer Str. 66", "10243 Berlin", "Deutschland"]}, "categories": [{"id": "4bf58dd8d48988d110941735", "name": "Italian Restaurant", "pluralName": "Italian Restaurants", "shortName": "Italian", "icon": {"prefix": "https://ss3.4sqi.net/img/categories_v2/food/italian_", "suffix": ".png"}, "primary": true}], "photos": {"count": 0, "groups": []}}, "referralId": "e-0-4ba21ca2f964a52085dc37e3-53"}, {"reasons": {"count": 0, "items": [{"summary": "This spot is popular", "type": "general", "reasonName": "globalInteractionReason"}]}, "venue": {"id": "4ec79b8ee5e8f7bb87fb8452", "name": "Urban Spree", "location": {"address": "Revaler Str. 99", "lat": 52.507864295477575, "lng": 13.451443578451563, "labeledLatLngs": [{"label": "display", "lat": 52.507864295477575, "lng": 13.451443578451563}], "distance": 928, "postalCode": "10245", "cc": "DE", "city": "Berlin", "state": "Berlin", "country": "Deutschland", "formattedAddress": ["Revaler Str. 99", "10245 Berlin", "Deutschland"]}, "categories": [{"id": "4bf58dd8d48988d1e2931735", "name": "Art Gallery", "pluralName": "Art Galleries", "shortName": "Art Gallery", "icon": {"prefix": "https://ss3.4sqi.net/img/categories_v2/arts_entertainment/artgallery_", "suffix": ".png"}, "primary": true}], "photos": {"count": 0, "groups": []}, "venuePage": {"id": "85487314"}}, "referralId": "e-0-4ec79b8ee5e8f7bb87fb8452-54"}, {"reasons": {"count": 0, "items": [{"summary": "This spot is popular", "type": "general", "reasonName": "globalInteractionReason"}]}, "venue": {"id": "55e73974498e5a699dc1263f", "name": "Trattoria Portofino", "location": {"address": "Gubener Str. 48", "lat": 52.512203, "lng": 13.448515, "labeledLatLngs": [{"label": "display", "lat": 52.512203, "lng": 13.448515}], "distance": 659, "postalCode": "10243", "cc": "DE", "neighborhood": "Boxhagener Kiez", "city": "Berlin", "state": "Berlin", "country": "Deutschland", "formattedAddress": ["Gubener Str. 48", "10243 Berlin", "Deutschland"]}, "categories": [{"id": "4bf58dd8d48988d110941735", "name": "Italian Restaurant", "pluralName": "Italian Restaurants", "shortName": "Italian", "icon": {"prefix": "https://ss3.4sqi.net/img/categories_v2/food/italian_", "suffix": ".png"}, "primary": true}], "photos": {"count": 0, "groups": []}}, "referralId": "e-0-55e73974498e5a699dc1263f-55"}, {"reasons": {"count": 0, "items": [{"summary": "This spot is popular", "type": "general", "reasonName": "globalInteractionReason"}]}, "venue": {"id": "4adcda78f964a520374621e3", "name": "Monster Ronson's Ichiban Karaoke", "location": {"address": "Warschauer Str. 34", "lat": 52.50515331539783, "lng": 13.448398407889163, "labeledLatLngs": [{"label": "display", "lat": 52.50515331539783, "lng": 13.448398407889163}], "distance": 934, "postalCode": "10243", "cc": "DE", "city": "Berlin", "state": "Berlin", "country": "Deutschland", "formattedAddress": ["Warschauer Str. 34", "10243 Berlin", "Deutschland"]}, "categories": [{"id": "4bf58dd8d48988d120941735", "name": "Karaoke Bar", "pluralName": "Karaoke Bars", "shortName": "Karaoke", "icon": {"prefix": "https://ss3.4sqi.net/img/categories_v2/nightlife/karaoke_", "suffix": ".png"}, "primary": true}], "photos": {"count": 0, "groups": []}}, "referralId": "e-0-4adcda78f964a520374621e3-56"}, {"reasons": {"count": 0, "items": [{"summary": "This spot is popular", "type": "general", "reasonName": "globalInteractionReason"}]}, "venue": {"id": "5cf827450e3239002bcc9783", "name": "Akkawy", "location": {"lat": 52.510422, "lng": 13.452923, "labeledLatLngs": [{"label": "display", "lat": 52.510422, "lng": 13.452923}], "distance": 953, "cc": "DE", "city": "Berlin", "state": "Berlin", "country": "Deutschland", "formattedAddress": ["Berlin", "Deutschland"]}, "categories": [{"id": "4bf58dd8d48988d115941735", "name": "Middle Eastern Restaurant", "pluralName": "Middle Eastern Restaurants", "shortName": "Middle Eastern", "icon": {"prefix": "https://ss3.4sqi.net/img/categories_v2/food/middleeastern_", "suffix": ".png"}, "primary": true}], "photos": {"count": 0, "groups": []}}, "referralId": "e-0-5cf827450e3239002bcc9783-57"}, {"reasons": {"count": 0, "items": [{"summary": "This spot is popular", "type": "general", "reasonName": "globalInteractionReason"}]}, "venue": {"id": "5583c5e2498e2ca877633d84", "name": "K. LIEBLINGs / Coffee Profilers", "location": {"address": "Karl-Marx-Allee 134", "lat": 52.51581607078898, "lng": 13.451219201087952, "labeledLatLngs": [{"label": "display", "lat": 52.51581607078898, "lng": 13.451219201087952}], "distance": 976, "postalCode": "10243", "cc": "DE", "neighborhood": "Boxhagener Kiez", "city": "Berlin", "state": "Berlin", "country": "Deutschland", "formattedAddress": ["Karl-Marx-Allee 134", "10243 Berlin", "Deutschland"]}, "categories": [{"id": "4bf58dd8d48988d1e0931735", "name": "Coffee Shop", "pluralName": "Coffee Shops", "shortName": "Coffee Shop", "icon": {"prefix": "https://ss3.4sqi.net/img/categories_v2/food/coffeeshop_", "suffix": ".png"}, "primary": true}], "photos": {"count": 0, "groups": []}}, "referralId": "e-0-5583c5e2498e2ca877633d84-58"}, {"reasons": {"count": 0, "items": [{"summary": "This spot is popular", "type": "general", "reasonName": "globalInteractionReason"}]}, "venue": {"id": "5721df03498e104e04ca907d", "name": "MEININGER Hotel Berlin East Side Gallery", "location": {"address": "Am Postbahnhof", "lat": 52.50852251782654, "lng": 13.436145630400684, "labeledLatLngs": [{"label": "display", "lat": 52.50852251782654, "lng": 13.436145630400684}], "distance": 356, "cc": "DE", "neighborhood": "Friedrichshain", "city": "Berlin", "state": "Berlin", "country": "Deutschland", "formattedAddress": ["Am Postbahnhof", "Berlin", "Deutschland"]}, "categories": [{"id": "4bf58dd8d48988d1fa931735", "name": "Hotel", "pluralName": "Hotels", "shortName": "Hotel", "icon": {"prefix": "https://ss3.4sqi.net/img/categories_v2/travel/hotel_", "suffix": ".png"}, "primary": true}], "photos": {"count": 0, "groups": []}}, "referralId": "e-0-5721df03498e104e04ca907d-59"}, {"reasons": {"count": 0, "items": [{"summary": "This spot is popular", "type": "general", "reasonName": "globalInteractionReason"}]}, "venue": {"id": "55bba864498e4949fe39c4c8", "name": "New Arirang", "location": {"address": "Warschauer Str. 22", "crossStreet": "Kopernikusstr.", "lat": 52.511344, "lng": 13.45162, "labeledLatLngs": [{"label": "display", "lat": 52.511344, "lng": 13.45162}], "distance": 861, "postalCode": "10243", "cc": "DE", "city": "Berlin", "state": "Berlin", "country": "Deutschland", "formattedAddress": ["Warschauer Str. 22 (Kopernikusstr.)", "10243 Berlin", "Deutschland"]}, "categories": [{"id": "4bf58dd8d48988d113941735", "name": "Korean Restaurant", "pluralName": "Korean Restaurants", "shortName": "Korean", "icon": {"prefix": "https://ss3.4sqi.net/img/categories_v2/food/korean_", "suffix": ".png"}, "primary": true}], "photos": {"count": 0, "groups": []}}, "referralId": "e-0-55bba864498e4949fe39c4c8-60"}, {"reasons": {"count": 0, "items": [{"summary": "This spot is popular", "type": "general", "reasonName": "globalInteractionReason"}]}, "venue": {"id": "5c1b7f03f96b2c002c8ca1fc", "name": "Secret Garden", "location": {"address": "Warschauer Str. 32", "crossStreet": "Marchlewskistr.", "lat": 52.507793, "lng": 13.449994, "labeledLatLngs": [{"label": "display", "lat": 52.507793, "lng": 13.449994}], "distance": 843, "postalCode": "10243", "cc": "DE", "city": "Berlin", "state": "Berlin", "country": "Deutschland", "formattedAddress": ["Warschauer Str. 32 (Marchlewskistr.)", "10243 Berlin", "Deutschland"]}, "categories": [{"id": "4bf58dd8d48988d1d3941735", "name": "Vegetarian / Vegan Restaurant", "pluralName": "Vegetarian / Vegan Restaurants", "shortName": "Vegetarian / Vegan", "icon": {"prefix": "https://ss3.4sqi.net/img/categories_v2/food/vegetarian_", "suffix": ".png"}, "primary": true}], "photos": {"count": 0, "groups": []}}, "referralId": "e-0-5c1b7f03f96b2c002c8ca1fc-61"}, {"reasons": {"count": 0, "items": [{"summary": "This spot is popular", "type": "general", "reasonName": "globalInteractionReason"}]}, "venue": {"id": "50ae7266e4b01aeaf299167a", "name": "Meisterschuh", "location": {"address": "Engeldamm 64", "lat": 52.50530294017316, "lng": 13.430609506036708, "labeledLatLngs": [{"label": "display", "lat": 52.50530294017316, "lng": 13.430609506036708}], "distance": 868, "postalCode": "10179", "cc": "DE", "city": "Berlin", "state": "Berlin", "country": "Deutschland", "formattedAddress": ["Engeldamm 64", "10179 Berlin", "Deutschland"]}, "categories": [{"id": "52f2ab2ebcbc57f1066b8b39", "name": "Shoe Repair", "pluralName": "Shoe Repair Shops", "shortName": "Shoe Repair", "icon": {"prefix": "https://ss3.4sqi.net/img/categories_v2/shops/apparel_shoestore_", "suffix": ".png"}, "primary": true}], "photos": {"count": 0, "groups": []}, "venuePage": {"id": "85748680"}}, "referralId": "e-0-50ae7266e4b01aeaf299167a-62"}, {"reasons": {"count": 0, "items": [{"summary": "This spot is popular", "type": "general", "reasonName": "globalInteractionReason"}]}, "venue": {"id": "4ea7a2c69adfcc4eb0a4a8c6", "name": "dm-drogerie markt", "location": {"address": "Revaler Stra\u00dfe 2", "lat": 52.508939, "lng": 13.450295, "labeledLatLngs": [{"label": "display", "lat": 52.508939, "lng": 13.450295}], "distance": 812, "postalCode": "10243", "cc": "DE", "city": "Berlin", "state": "Berlin", "country": "Deutschland", "formattedAddress": ["Revaler Stra\u00dfe 2", "10243 Berlin", "Deutschland"]}, "categories": [{"id": "5745c2e4498e11e7bccabdbd", "name": "Drugstore", "pluralName": "Drugstores", "shortName": "Drugstore", "icon": {"prefix": "https://ss3.4sqi.net/img/categories_v2/shops/pharmacy_", "suffix": ".png"}, "primary": true}], "photos": {"count": 0, "groups": []}, "venuePage": {"id": "450036973"}}, "referralId": "e-0-4ea7a2c69adfcc4eb0a4a8c6-63"}, {"reasons": {"count": 0, "items": [{"summary": "This spot is popular", "type": "general", "reasonName": "globalInteractionReason"}]}, "venue": {"id": "4af548e0f964a520bbf821e3", "name": "noisy Rooms", "location": {"address": "Revaler Str 99", "lat": 52.511428933548935, "lng": 13.453364689238875, "labeledLatLngs": [{"label": "display", "lat": 52.511428933548935, "lng": 13.453364689238875}], "distance": 979, "postalCode": "10245", "cc": "DE", "neighborhood": "RAW-Gel\u00e4nde", "city": "Berlin", "state": "Berlin", "country": "Deutschland", "formattedAddress": ["Revaler Str 99", "10245 Berlin", "Deutschland"]}, "categories": [{"id": "4bf58dd8d48988d1f2931735", "name": "Performing Arts Venue", "pluralName": "Performing Arts Venues", "shortName": "Performing Arts", "icon": {"prefix": "https://ss3.4sqi.net/img/categories_v2/arts_entertainment/performingarts_", "suffix": ".png"}, "primary": true}], "photos": {"count": 0, "groups": []}, "venuePage": {"id": "146793292"}}, "referralId": "e-0-4af548e0f964a520bbf821e3-64"}, {"reasons": {"count": 0, "items": [{"summary": "This spot is popular", "type": "general", "reasonName": "globalInteractionReason"}]}, "venue": {"id": "4af53e9af964a520a6f821e3", "name": "goodies", "location": {"address": "Warschauer Str. 69", "lat": 52.51145451459145, "lng": 13.452469110488892, "labeledLatLngs": [{"label": "display", "lat": 52.51145451459145, "lng": 13.452469110488892}], "distance": 918, "postalCode": "10243", "cc": "DE", "neighborhood": "Boxhagener Kiez", "city": "Berlin", "state": "Berlin", "country": "Deutschland", "formattedAddress": ["Warschauer Str. 69", "10243 Berlin", "Deutschland"]}, "categories": [{"id": "4bf58dd8d48988d1d3941735", "name": "Vegetarian / Vegan Restaurant", "pluralName": "Vegetarian / Vegan Restaurants", "shortName": "Vegetarian / Vegan", "icon": {"prefix": "https://ss3.4sqi.net/img/categories_v2/food/vegetarian_", "suffix": ".png"}, "primary": true}], "photos": {"count": 0, "groups": []}}, "referralId": "e-0-4af53e9af964a520a6f821e3-65"}, {"reasons": {"count": 0, "items": [{"summary": "This spot is popular", "type": "general", "reasonName": "globalInteractionReason"}]}, "venue": {"id": "5151f020e4b0461f2f562314", "name": "Veganz", "location": {"address": "Warschauer Str. 33", "lat": 52.50766365109747, "lng": 13.449979724699784, "labeledLatLngs": [{"label": "display", "lat": 52.50766365109747, "lng": 13.449979724699784}], "distance": 849, "postalCode": "10243", "cc": "DE", "city": "Berlin", "state": "Berlin", "country": "Deutschland", "formattedAddress": ["Warschauer Str. 33", "10243 Berlin", "Deutschland"]}, "categories": [{"id": "4bf58dd8d48988d118951735", "name": "Grocery Store", "pluralName": "Grocery Stores", "shortName": "Grocery Store", "icon": {"prefix": "https://ss3.4sqi.net/img/categories_v2/shops/food_grocery_", "suffix": ".png"}, "primary": true}], "photos": {"count": 0, "groups": []}}, "referralId": "e-0-5151f020e4b0461f2f562314-66"}, {"reasons": {"count": 0, "items": [{"summary": "This spot is popular", "type": "general", "reasonName": "globalInteractionReason"}]}, "venue": {"id": "5bce7c1cc0cacb003977e352", "name": "Tony Roma's", "location": {"address": "Mercedes Platz 10243 Berlin DE", "lat": 52.5051914, "lng": 13.4431223, "labeledLatLngs": [{"label": "display", "lat": 52.5051914, "lng": 13.4431223}], "distance": 731, "postalCode": "10243", "cc": "DE", "city": "Berlin", "state": "Berlin", "country": "Deutschland", "formattedAddress": ["Mercedes Platz 10243 Berlin DE", "10243 Berlin", "Deutschland"]}, "categories": [{"id": "4bf58dd8d48988d14e941735", "name": "American Restaurant", "pluralName": "American Restaurants", "shortName": "American", "icon": {"prefix": "https://ss3.4sqi.net/img/categories_v2/food/default_", "suffix": ".png"}, "primary": true}], "photos": {"count": 0, "groups": []}}, "referralId": "e-0-5bce7c1cc0cacb003977e352-67"}, {"reasons": {"count": 0, "items": [{"summary": "This spot is popular", "type": "general", "reasonName": "globalInteractionReason"}]}, "venue": {"id": "518108a8498e1e848c67fb53", "name": "M\u00f6rchenpark", "location": {"address": "Holzmarktstr. 30", "lat": 52.51111497409128, "lng": 13.427116870880127, "labeledLatLngs": [{"label": "display", "lat": 52.51111497409128, "lng": 13.427116870880127}], "distance": 799, "postalCode": "10243", "cc": "DE", "city": "Berlin", "state": "Berlin", "country": "Deutschland", "formattedAddress": ["Holzmarktstr. 30", "10243 Berlin", "Deutschland"]}, "categories": [{"id": "4bf58dd8d48988d15a941735", "name": "Garden", "pluralName": "Gardens", "shortName": "Garden", "icon": {"prefix": "https://ss3.4sqi.net/img/categories_v2/parks_outdoors/garden_", "suffix": ".png"}, "primary": true}], "photos": {"count": 0, "groups": []}}, "referralId": "e-0-518108a8498e1e848c67fb53-68"}, {"reasons": {"count": 0, "items": [{"summary": "This spot is popular", "type": "general", "reasonName": "globalInteractionReason"}]}, "venue": {"id": "4b273b58f964a5205d8524e3", "name": "Vollkornb\u00e4ckerei Hartwich", "location": {"address": "Warschauer Str. 72", "lat": 52.512160264529705, "lng": 13.452550245032537, "labeledLatLngs": [{"label": "display", "lat": 52.512160264529705, "lng": 13.452550245032537}], "distance": 929, "postalCode": "10245", "cc": "DE", "city": "Berlin", "state": "Berlin", "country": "Deutschland", "formattedAddress": ["Warschauer Str. 72", "10245 Berlin", "Deutschland"]}, "categories": [{"id": "4bf58dd8d48988d16a941735", "name": "Bakery", "pluralName": "Bakeries", "shortName": "Bakery", "icon": {"prefix": "https://ss3.4sqi.net/img/categories_v2/food/bakery_", "suffix": ".png"}, "primary": true}], "photos": {"count": 0, "groups": []}}, "referralId": "e-0-4b273b58f964a5205d8524e3-69"}, {"reasons": {"count": 0, "items": [{"summary": "This spot is popular", "type": "general", "reasonName": "globalInteractionReason"}]}, "venue": {"id": "4b01b344f964a520ab4422e3", "name": "Hirsch", "location": {"address": "Kopernikusstr. 3", "lat": 52.51098599097212, "lng": 13.45048149796056, "labeledLatLngs": [{"label": "display", "lat": 52.51098599097212, "lng": 13.45048149796056}], "distance": 784, "postalCode": "10243", "cc": "DE", "city": "Berlin", "state": "Berlin", "country": "Deutschland", "formattedAddress": ["Kopernikusstr. 3", "10243 Berlin", "Deutschland"]}, "categories": [{"id": "4bf58dd8d48988d11b941735", "name": "Pub", "pluralName": "Pubs", "shortName": "Pub", "icon": {"prefix": "https://ss3.4sqi.net/img/categories_v2/nightlife/pub_", "suffix": ".png"}, "primary": true}], "photos": {"count": 0, "groups": []}}, "referralId": "e-0-4b01b344f964a520ab4422e3-70"}, {"reasons": {"count": 0, "items": [{"summary": "This spot is popular", "type": "general", "reasonName": "globalInteractionReason"}]}, "venue": {"id": "4a986649f964a520cf2b20e3", "name": "K\u00f6pi", "location": {"address": "K\u00f6penicker Str. 137", "lat": 52.50797536643233, "lng": 13.426304946004793, "labeledLatLngs": [{"label": "display", "lat": 52.50797536643233, "lng": 13.426304946004793}], "distance": 928, "postalCode": "10179", "cc": "DE", "city": "Berlin", "state": "Berlin", "country": "Deutschland", "formattedAddress": ["K\u00f6penicker Str. 137", "10179 Berlin", "Deutschland"]}, "categories": [{"id": "4bf58dd8d48988d1e9931735", "name": "Rock Club", "pluralName": "Rock Clubs", "shortName": "Rock Club", "icon": {"prefix": "https://ss3.4sqi.net/img/categories_v2/arts_entertainment/musicvenue_rockclub_", "suffix": ".png"}, "primary": true}], "photos": {"count": 0, "groups": []}}, "referralId": "e-0-4a986649f964a520cf2b20e3-71"}, {"reasons": {"count": 0, "items": [{"summary": "This spot is popular", "type": "general", "reasonName": "globalInteractionReason"}]}, "venue": {"id": "535291a6498ea210d8b358b2", "name": "Holiday Inn Berlin - City East Side", "location": {"address": "Wanda-Kallenbach Str. 2", "crossStreet": "Tamara-Danz-Str.", "lat": 52.5049417, "lng": 13.444565, "labeledLatLngs": [{"label": "display", "lat": 52.5049417, "lng": 13.444565}], "distance": 799, "postalCode": "10243", "cc": "DE", "city": "Berlin", "state": "Berlin", "country": "Deutschland", "formattedAddress": ["Wanda-Kallenbach Str. 2 (Tamara-Danz-Str.)", "10243 Berlin", "Deutschland"]}, "categories": [{"id": "4bf58dd8d48988d1fa931735", "name": "Hotel", "pluralName": "Hotels", "shortName": "Hotel", "icon": {"prefix": "https://ss3.4sqi.net/img/categories_v2/travel/hotel_", "suffix": ".png"}, "primary": true}], "photos": {"count": 0, "groups": []}}, "referralId": "e-0-535291a6498ea210d8b358b2-72"}, {"reasons": {"count": 0, "items": [{"summary": "This spot is popular", "type": "general", "reasonName": "globalInteractionReason"}]}, "venue": {"id": "57f6322e498ef9ae27cd0158", "name": "Pola Caf\u00e9", "location": {"address": "K\u00f6penicker Stra\u00dfe 10", "lat": 52.503141917674284, "lng": 13.438058605641771, "labeledLatLngs": [{"label": "display", "lat": 52.503141917674284, "lng": 13.438058605641771}], "distance": 903, "postalCode": "10997", "cc": "DE", "city": "Berlin", "state": "Berlin", "country": "Deutschland", "formattedAddress": ["K\u00f6penicker Stra\u00dfe 10", "10997 Berlin", "Deutschland"]}, "categories": [{"id": "4bf58dd8d48988d16d941735", "name": "Caf\u00e9", "pluralName": "Caf\u00e9s", "shortName": "Caf\u00e9", "icon": {"prefix": "https://ss3.4sqi.net/img/categories_v2/food/cafe_", "suffix": ".png"}, "primary": true}], "photos": {"count": 0, "groups": []}}, "referralId": "e-0-57f6322e498ef9ae27cd0158-73"}, {"reasons": {"count": 0, "items": [{"summary": "This spot is popular", "type": "general", "reasonName": "globalInteractionReason"}]}, "venue": {"id": "4f5a2bf6e4b04edd0bfcecd5", "name": "Nuts & Co.", "location": {"address": "Warschauer Str. 67", "lat": 52.51123977179019, "lng": 13.45206654891982, "labeledLatLngs": [{"label": "display", "lat": 52.51123977179019, "lng": 13.45206654891982}], "distance": 891, "postalCode": "10243", "cc": "DE", "city": "Berlin", "state": "Berlin", "country": "Deutschland", "formattedAddress": ["Warschauer Str. 67", "10243 Berlin", "Deutschland"]}, "categories": [{"id": "4bf58dd8d48988d1f5941735", "name": "Gourmet Shop", "pluralName": "Gourmet Shops", "shortName": "Gourmet", "icon": {"prefix": "https://ss3.4sqi.net/img/categories_v2/shops/food_gourmet_", "suffix": ".png"}, "primary": true}], "photos": {"count": 0, "groups": []}}, "referralId": "e-0-4f5a2bf6e4b04edd0bfcecd5-74"}, {"reasons": {"count": 0, "items": [{"summary": "This spot is popular", "type": "general", "reasonName": "globalInteractionReason"}]}, "venue": {"id": "51816714498e1e8490e4acc3", "name": "Mustafa Demir\u2019s Gem\u00fcse Kebap", "location": {"address": "Warschauer Str. 27a", "lat": 52.50990581118968, "lng": 13.451373807572534, "labeledLatLngs": [{"label": "display", "lat": 52.50990581118968, "lng": 13.451373807572534}], "distance": 857, "postalCode": "10243", "cc": "DE", "city": "Berlin", "state": "Berlin", "country": "Deutschland", "formattedAddress": ["Warschauer Str. 27a", "10243 Berlin", "Deutschland"]}, "categories": [{"id": "5283c7b4e4b094cb91ec88d8", "name": "Doner Restaurant", "pluralName": "Doner Restaurants", "shortName": "Doner", "icon": {"prefix": "https://ss3.4sqi.net/img/categories_v2/food/turkish_", "suffix": ".png"}, "primary": true}], "photos": {"count": 0, "groups": []}}, "referralId": "e-0-51816714498e1e8490e4acc3-75"}, {"reasons": {"count": 0, "items": [{"summary": "This spot is popular", "type": "general", "reasonName": "globalInteractionReason"}]}, "venue": {"id": "595fcb26e179103edc2672a4", "name": "Chipi Chipi Bomb\u00f3n", "location": {"address": "Warschauerstra\u00dfe 12", "lat": 52.51320538679989, "lng": 13.452758191047728, "labeledLatLngs": [{"label": "display", "lat": 52.51320538679989, "lng": 13.452758191047728}], "distance": 963, "postalCode": "10243", "cc": "DE", "state": "Berlin", "country": "Deutschland", "formattedAddress": ["Warschauerstra\u00dfe 12", "10243", "Deutschland"]}, "categories": [{"id": "4bf58dd8d48988d1c9941735", "name": "Ice Cream Shop", "pluralName": "Ice Cream Shops", "shortName": "Ice Cream", "icon": {"prefix": "https://ss3.4sqi.net/img/categories_v2/food/icecream_", "suffix": ".png"}, "primary": true}], "photos": {"count": 0, "groups": []}}, "referralId": "e-0-595fcb26e179103edc2672a4-76"}, {"reasons": {"count": 0, "items": [{"summary": "This spot is popular", "type": "general", "reasonName": "globalInteractionReason"}]}, "venue": {"id": "5006758ae4b04077cecf1ebb", "name": "FluxBau", "location": {"address": "Pfuelstr. 5", "lat": 52.503105391361395, "lng": 13.44131540359499, "labeledLatLngs": [{"label": "display", "lat": 52.503105391361395, "lng": 13.44131540359499}], "distance": 920, "postalCode": "10997", "cc": "DE", "city": "Berlin", "state": "Berlin", "country": "Deutschland", "formattedAddress": ["Pfuelstr. 5", "10997 Berlin", "Deutschland"]}, "categories": [{"id": "4bf58dd8d48988d1f2931735", "name": "Performing Arts Venue", "pluralName": "Performing Arts Venues", "shortName": "Performing Arts", "icon": {"prefix": "https://ss3.4sqi.net/img/categories_v2/arts_entertainment/performingarts_", "suffix": ".png"}, "primary": true}], "photos": {"count": 0, "groups": []}}, "referralId": "e-0-5006758ae4b04077cecf1ebb-77"}, {"reasons": {"count": 0, "items": [{"summary": "This spot is popular", "type": "general", "reasonName": "globalInteractionReason"}]}, "venue": {"id": "4afb19cff964a520281b22e3", "name": "Trattoria Libau", "location": {"address": "Libauer Str. 10", "crossStreet": "Revaler Str.", "lat": 52.50848657934147, "lng": 13.452856007540467, "labeledLatLngs": [{"label": "display", "lat": 52.50848657934147, "lng": 13.452856007540467}], "distance": 993, "postalCode": "10245", "cc": "DE", "neighborhood": "Boxhagener Kiez", "city": "Berlin", "state": "Berlin", "country": "Deutschland", "formattedAddress": ["Libauer Str. 10 (Revaler Str.)", "10245 Berlin", "Deutschland"]}, "categories": [{"id": "55a5a1ebe4b013909087cb7f", "name": "Trattoria/Osteria", "pluralName": "Trattorias/Osterias", "shortName": "Trattoria/Osteria", "icon": {"prefix": "https://ss3.4sqi.net/img/categories_v2/food/italian_", "suffix": ".png"}, "primary": true}], "photos": {"count": 0, "groups": []}}, "referralId": "e-0-4afb19cff964a520281b22e3-78"}, {"reasons": {"count": 0, "items": [{"summary": "This spot is popular", "type": "general", "reasonName": "globalInteractionReason"}]}, "venue": {"id": "578d42c5498e831ff56b3d82", "name": "Novum Select Hotel Berlin Ostbahnhof", "location": {"address": "Lange Stra\u00dfe 31", "lat": 52.51203608270009, "lng": 13.43201584534962, "labeledLatLngs": [{"label": "display", "lat": 52.51203608270009, "lng": 13.43201584534962}], "distance": 475, "postalCode": "10243", "cc": "DE", "city": "Berlin", "state": "Berlin", "country": "Deutschland", "formattedAddress": ["Lange Stra\u00dfe 31", "10243 Berlin", "Deutschland"]}, "categories": [{"id": "4bf58dd8d48988d1fa931735", "name": "Hotel", "pluralName": "Hotels", "shortName": "Hotel", "icon": {"prefix": "https://ss3.4sqi.net/img/categories_v2/travel/hotel_", "suffix": ".png"}, "primary": true}], "photos": {"count": 0, "groups": []}}, "referralId": "e-0-578d42c5498e831ff56b3d82-79"}, {"reasons": {"count": 0, "items": [{"summary": "This spot is popular", "type": "general", "reasonName": "globalInteractionReason"}]}, "venue": {"id": "4f14424fe4b000502ed494f9", "name": "Milch & Zucker", "location": {"address": "Warschauer Str. 70", "lat": 52.51171261942006, "lng": 13.45237802022222, "labeledLatLngs": [{"label": "display", "lat": 52.51171261942006, "lng": 13.45237802022222}], "distance": 913, "postalCode": "10243", "cc": "DE", "city": "Berlin", "state": "Berlin", "country": "Deutschland", "formattedAddress": ["Warschauer Str. 70", "10243 Berlin", "Deutschland"]}, "categories": [{"id": "4bf58dd8d48988d1e0931735", "name": "Coffee Shop", "pluralName": "Coffee Shops", "shortName": "Coffee Shop", "icon": {"prefix": "https://ss3.4sqi.net/img/categories_v2/food/coffeeshop_", "suffix": ".png"}, "primary": true}], "photos": {"count": 0, "groups": []}}, "referralId": "e-0-4f14424fe4b000502ed494f9-80"}, {"reasons": {"count": 0, "items": [{"summary": "This spot is popular", "type": "general", "reasonName": "globalInteractionReason"}]}, "venue": {"id": "5623756c498ef05d74b08f02", "name": "Saaldeck", "location": {"address": "Karl-Marx-Allee 103a", "lat": 52.517096253535165, "lng": 13.443556244525634, "labeledLatLngs": [{"label": "display", "lat": 52.517096253535165, "lng": 13.443556244525634}], "distance": 723, "postalCode": "10243", "cc": "DE", "neighborhood": "Friedrichshain", "city": "Berlin", "state": "Berlin", "country": "Deutschland", "formattedAddress": ["Karl-Marx-Allee 103a", "10243 Berlin", "Deutschland"]}, "categories": [{"id": "4bf58dd8d48988d16d941735", "name": "Caf\u00e9", "pluralName": "Caf\u00e9s", "shortName": "Caf\u00e9", "icon": {"prefix": "https://ss3.4sqi.net/img/categories_v2/food/cafe_", "suffix": ".png"}, "primary": true}], "photos": {"count": 0, "groups": []}}, "referralId": "e-0-5623756c498ef05d74b08f02-81"}, {"reasons": {"count": 0, "items": [{"summary": "This spot is popular", "type": "general", "reasonName": "globalInteractionReason"}]}, "venue": {"id": "4ef1c96c93adff223dac25a9", "name": "Michelberger Restaurant", "location": {"address": "Warschauer Str. 39-40", "lat": 52.50472198158007, "lng": 13.44799518585205, "labeledLatLngs": [{"label": "display", "lat": 52.50472198158007, "lng": 13.44799518585205}], "distance": 951, "postalCode": "10243", "cc": "DE", "city": "Berlin", "state": "Berlin", "country": "Deutschland", "formattedAddress": ["Warschauer Str. 39-40", "10243 Berlin", "Deutschland"]}, "categories": [{"id": "52e81612bcbc57f1066b79f9", "name": "Modern European Restaurant", "pluralName": "Modern European Restaurants", "shortName": "Modern European", "icon": {"prefix": "https://ss3.4sqi.net/img/categories_v2/food/default_", "suffix": ".png"}, "primary": true}], "photos": {"count": 0, "groups": []}, "venuePage": {"id": "79311038"}}, "referralId": "e-0-4ef1c96c93adff223dac25a9-82"}, {"reasons": {"count": 0, "items": [{"summary": "This spot is popular", "type": "general", "reasonName": "globalInteractionReason"}]}, "venue": {"id": "5158372be4b093384c3b84a8", "name": "West Side Gallery", "location": {"address": "M\u00fchlenstr.", "crossStreet": "Kolonnenweg", "lat": 52.50414075433213, "lng": 13.441600799560547, "labeledLatLngs": [{"label": "display", "lat": 52.50414075433213, "lng": 13.441600799560547}], "distance": 811, "postalCode": "10243", "cc": "DE", "city": "Berlin", "state": "Berlin", "country": "Deutschland", "formattedAddress": ["M\u00fchlenstr. (Kolonnenweg)", "10243 Berlin", "Deutschland"]}, "categories": [{"id": "507c8c4091d498d9fc8c67a9", "name": "Public Art", "pluralName": "Public Art", "shortName": "Public Art", "icon": {"prefix": "https://ss3.4sqi.net/img/categories_v2/arts_entertainment/default_", "suffix": ".png"}, "primary": true}], "photos": {"count": 0, "groups": []}}, "referralId": "e-0-5158372be4b093384c3b84a8-83"}, {"reasons": {"count": 0, "items": [{"summary": "This spot is popular", "type": "general", "reasonName": "globalInteractionReason"}]}, "venue": {"id": "51fc1f1b498e9fe159209b31", "name": "Culture Container", "location": {"address": "Holzmarktstra\u00dfe 25", "lat": 52.511206714118515, "lng": 13.427830598790695, "labeledLatLngs": [{"label": "display", "lat": 52.511206714118515, "lng": 13.427830598790695}], "distance": 750, "postalCode": "10243", "cc": "DE", "city": "Berlin", "state": "Berlin", "country": "Deutschland", "formattedAddress": ["Holzmarktstra\u00dfe 25", "10243 Berlin", "Deutschland"]}, "categories": [{"id": "4bf58dd8d48988d1e5931735", "name": "Music Venue", "pluralName": "Music Venues", "shortName": "Music Venue", "icon": {"prefix": "https://ss3.4sqi.net/img/categories_v2/arts_entertainment/musicvenue_", "suffix": ".png"}, "primary": true}], "photos": {"count": 0, "groups": []}}, "referralId": "e-0-51fc1f1b498e9fe159209b31-84"}, {"reasons": {"count": 0, "items": [{"summary": "This spot is popular", "type": "general", "reasonName": "globalInteractionReason"}]}, "venue": {"id": "597ca27fa5a3157b0ad53c31", "name": "Backpfeife", "location": {"address": "Holzmarktstr. 25", "lat": 52.511467573789076, "lng": 13.426333665847778, "labeledLatLngs": [{"label": "display", "lat": 52.511467573789076, "lng": 13.426333665847778}], "distance": 852, "postalCode": "10243", "cc": "DE", "city": "Berlin", "state": "Berlin", "country": "Deutschland", "formattedAddress": ["Holzmarktstr. 25", "10243 Berlin", "Deutschland"]}, "categories": [{"id": "4bf58dd8d48988d16a941735", "name": "Bakery", "pluralName": "Bakeries", "shortName": "Bakery", "icon": {"prefix": "https://ss3.4sqi.net/img/categories_v2/food/bakery_", "suffix": ".png"}, "primary": true}], "photos": {"count": 0, "groups": []}}, "referralId": "e-0-597ca27fa5a3157b0ad53c31-85"}, {"reasons": {"count": 0, "items": [{"summary": "This spot is popular", "type": "general", "reasonName": "globalInteractionReason"}]}, "venue": {"id": "4b86c755f964a5209f9c31e3", "name": "Auerpark", "location": {"address": "Auerstr.", "crossStreet": "Weidenweg", "lat": 52.51854508785383, "lng": 13.445162773132324, "labeledLatLngs": [{"label": "display", "lat": 52.51854508785383, "lng": 13.445162773132324}], "distance": 916, "postalCode": "10249", "cc": "DE", "city": "Berlin", "state": "Berlin", "country": "Deutschland", "formattedAddress": ["Auerstr. (Weidenweg)", "10249 Berlin", "Deutschland"]}, "categories": [{"id": "4bf58dd8d48988d163941735", "name": "Park", "pluralName": "Parks", "shortName": "Park", "icon": {"prefix": "https://ss3.4sqi.net/img/categories_v2/parks_outdoors/park_", "suffix": ".png"}, "primary": true}], "photos": {"count": 0, "groups": []}}, "referralId": "e-0-4b86c755f964a5209f9c31e3-86"}, {"reasons": {"count": 0, "items": [{"summary": "This spot is popular", "type": "general", "reasonName": "globalInteractionReason"}]}, "venue": {"id": "4e19f3c2b61c8f9ada5aa5a7", "name": "Viet Ha - Goldener Karpfen", "location": {"address": "Lebuser Str. 13", "lat": 52.51926107210154, "lng": 13.433382700027284, "labeledLatLngs": [{"label": "display", "lat": 52.51926107210154, "lng": 13.433382700027284}], "distance": 967, "postalCode": "10243", "cc": "DE", "city": "Berlin", "state": "Berlin", "country": "Deutschland", "formattedAddress": ["Lebuser Str. 13", "10243 Berlin", "Deutschland"]}, "categories": [{"id": "4bf58dd8d48988d142941735", "name": "Asian Restaurant", "pluralName": "Asian Restaurants", "shortName": "Asian", "icon": {"prefix": "https://ss3.4sqi.net/img/categories_v2/food/asian_", "suffix": ".png"}, "primary": true}], "photos": {"count": 0, "groups": []}, "venuePage": {"id": "587234511"}}, "referralId": "e-0-4e19f3c2b61c8f9ada5aa5a7-87"}, {"reasons": {"count": 0, "items": [{"summary": "This spot is popular", "type": "general", "reasonName": "globalInteractionReason"}]}, "venue": {"id": "53fdfa3d498ea0a7ab06d965", "name": "Summergarten", "location": {"lat": 52.51768043102631, "lng": 13.44132409749751, "labeledLatLngs": [{"label": "display", "lat": 52.51768043102631, "lng": 13.44132409749751}], "distance": 734, "cc": "DE", "city": "Berlin", "state": "Berlin", "country": "Deutschland", "formattedAddress": ["Berlin", "Deutschland"]}, "categories": [{"id": "4bf58dd8d48988d117941735", "name": "Beer Garden", "pluralName": "Beer Gardens", "shortName": "Beer Garden", "icon": {"prefix": "https://ss3.4sqi.net/img/categories_v2/nightlife/beergarden_", "suffix": ".png"}, "primary": true}], "photos": {"count": 0, "groups": []}}, "referralId": "e-0-53fdfa3d498ea0a7ab06d965-88"}, {"reasons": {"count": 0, "items": [{"summary": "This spot is popular", "type": "general", "reasonName": "globalInteractionReason"}]}, "venue": {"id": "4ba4bd19f964a5208eb038e3", "name": "exil wohnmagazin", "location": {"address": "K\u00f6penicker Str. 18", "lat": 52.505843679428075, "lng": 13.432997782818036, "labeledLatLngs": [{"label": "display", "lat": 52.505843679428075, "lng": 13.432997782818036}], "distance": 722, "postalCode": "10997", "cc": "DE", "neighborhood": "Kreuzberg", "city": "Berlin", "state": "Berlin", "country": "Deutschland", "formattedAddress": ["K\u00f6penicker Str. 18", "10997 Berlin", "Deutschland"]}, "categories": [{"id": "4bf58dd8d48988d1f8941735", "name": "Furniture / Home Store", "pluralName": "Furniture / Home Stores", "shortName": "Furniture / Home", "icon": {"prefix": "https://ss3.4sqi.net/img/categories_v2/shops/furniture_", "suffix": ".png"}, "primary": true}], "photos": {"count": 0, "groups": []}}, "referralId": "e-0-4ba4bd19f964a5208eb038e3-89"}, {"reasons": {"count": 0, "items": [{"summary": "This spot is popular", "type": "general", "reasonName": "globalInteractionReason"}]}, "venue": {"id": "512b25f7e4b0447bb619bb72", "name": "Kater Kiosk", "location": {"address": "Holzmarktstr. 25", "lat": 52.511911584199034, "lng": 13.4255450963974, "labeledLatLngs": [{"label": "display", "lat": 52.511911584199034, "lng": 13.4255450963974}], "distance": 908, "postalCode": "10243", "cc": "DE", "city": "Berlin", "state": "Berlin", "country": "Deutschland", "formattedAddress": ["Holzmarktstr. 25", "10243 Berlin", "Deutschland"]}, "categories": [{"id": "4d954b0ea243a5684a65b473", "name": "Convenience Store", "pluralName": "Convenience Stores", "shortName": "Convenience Store", "icon": {"prefix": "https://ss3.4sqi.net/img/categories_v2/shops/conveniencestore_", "suffix": ".png"}, "primary": true}], "photos": {"count": 0, "groups": []}}, "referralId": "e-0-512b25f7e4b0447bb619bb72-90"}, {"reasons": {"count": 0, "items": [{"summary": "This spot is popular", "type": "general", "reasonName": "globalInteractionReason"}]}, "venue": {"id": "4bb9ea5298c7ef3b33733202", "name": "Kos House", "location": {"address": "Karl-Marx-Allee 129", "lat": 52.516615773834296, "lng": 13.448673690219332, "labeledLatLngs": [{"label": "display", "lat": 52.516615773834296, "lng": 13.448673690219332}], "distance": 891, "postalCode": "10243", "cc": "DE", "neighborhood": "Karl Marx Allee", "city": "Berlin", "state": "Berlin", "country": "Deutschland", "formattedAddress": ["Karl-Marx-Allee 129", "10243 Berlin", "Deutschland"]}, "categories": [{"id": "4bf58dd8d48988d10e941735", "name": "Greek Restaurant", "pluralName": "Greek Restaurants", "shortName": "Greek", "icon": {"prefix": "https://ss3.4sqi.net/img/categories_v2/food/greek_", "suffix": ".png"}, "primary": true}], "photos": {"count": 0, "groups": []}}, "referralId": "e-0-4bb9ea5298c7ef3b33733202-91"}, {"reasons": {"count": 0, "items": [{"summary": "This spot is popular", "type": "general", "reasonName": "globalInteractionReason"}]}, "venue": {"id": "5c2775ffa35dce002c182806", "name": "Books & Bagels", "location": {"address": "Warschauer Str. 74", "lat": 52.51264, "lng": 13.453107, "labeledLatLngs": [{"label": "display", "lat": 52.51264, "lng": 13.453107}], "distance": 974, "postalCode": "10243", "cc": "DE", "city": "Berlin", "state": "Berlin", "country": "Deutschland", "formattedAddress": ["Warschauer Str. 74", "10243 Berlin", "Deutschland"]}, "categories": [{"id": "4bf58dd8d48988d179941735", "name": "Bagel Shop", "pluralName": "Bagel Shops", "shortName": "Bagels", "icon": {"prefix": "https://ss3.4sqi.net/img/categories_v2/food/bagels_", "suffix": ".png"}, "primary": true}], "photos": {"count": 0, "groups": []}}, "referralId": "e-0-5c2775ffa35dce002c182806-92"}, {"reasons": {"count": 0, "items": [{"summary": "This spot is popular", "type": "general", "reasonName": "globalInteractionReason"}]}, "venue": {"id": "54a82242498ee573eff66c7e", "name": "Trattoria La Bruschetta", "location": {"address": "Andreasstr. 66", "crossStreet": "Lange Stra\u00dfe", "lat": 52.51321874320666, "lng": 13.431330305501287, "labeledLatLngs": [{"label": "display", "lat": 52.51321874320666, "lng": 13.431330305501287}], "distance": 558, "postalCode": "10243", "cc": "DE", "city": "Berlin", "state": "Berlin", "country": "Deutschland", "formattedAddress": ["Andreasstr. 66 (Lange Stra\u00dfe)", "10243 Berlin", "Deutschland"]}, "categories": [{"id": "55a5a1ebe4b013909087cb7f", "name": "Trattoria/Osteria", "pluralName": "Trattorias/Osterias", "shortName": "Trattoria/Osteria", "icon": {"prefix": "https://ss3.4sqi.net/img/categories_v2/food/italian_", "suffix": ".png"}, "primary": true}], "photos": {"count": 0, "groups": []}}, "referralId": "e-0-54a82242498ee573eff66c7e-93"}, {"reasons": {"count": 0, "items": [{"summary": "This spot is popular", "type": "general", "reasonName": "globalInteractionReason"}]}, "venue": {"id": "4b07f2dbf964a520750123e3", "name": "Comeniusplatz", "location": {"address": "Am Comeniusplatz", "crossStreet": "Gubener Str.", "lat": 52.511831, "lng": 13.447588, "labeledLatLngs": [{"label": "display", "lat": 52.511831, "lng": 13.447588}], "distance": 591, "postalCode": "10243", "cc": "DE", "city": "Berlin", "state": "Berlin", "country": "Deutschland", "formattedAddress": ["Am Comeniusplatz (Gubener Str.)", "10243 Berlin", "Deutschland"]}, "categories": [{"id": "4bf58dd8d48988d164941735", "name": "Plaza", "pluralName": "Plazas", "shortName": "Plaza", "icon": {"prefix": "https://ss3.4sqi.net/img/categories_v2/parks_outdoors/plaza_", "suffix": ".png"}, "primary": true}], "photos": {"count": 0, "groups": []}}, "referralId": "e-0-4b07f2dbf964a520750123e3-94"}, {"reasons": {"count": 0, "items": [{"summary": "This spot is popular", "type": "general", "reasonName": "globalInteractionReason"}]}, "venue": {"id": "53039bee11d29ef0656077fd", "name": "Radwelt Berlin", "location": {"address": "Warschauer Str. 31", "crossStreet": "Gubener Str.", "lat": 52.509264415760576, "lng": 13.450657432754982, "labeledLatLngs": [{"label": "display", "lat": 52.509264415760576, "lng": 13.450657432754982}], "distance": 825, "postalCode": "10243", "cc": "DE", "city": "Berlin", "state": "Berlin", "country": "Deutschland", "formattedAddress": ["Warschauer Str. 31 (Gubener Str.)", "10243 Berlin", "Deutschland"]}, "categories": [{"id": "4bf58dd8d48988d115951735", "name": "Bike Shop", "pluralName": "Bike Shops", "shortName": "Bike Shop", "icon": {"prefix": "https://ss3.4sqi.net/img/categories_v2/shops/bikeshop_", "suffix": ".png"}, "primary": true}], "photos": {"count": 0, "groups": []}, "venuePage": {"id": "377306310"}}, "referralId": "e-0-53039bee11d29ef0656077fd-95"}, {"reasons": {"count": 0, "items": [{"summary": "This spot is popular", "type": "general", "reasonName": "globalInteractionReason"}]}, "venue": {"id": "538781e7498ee7f0fb1b339a", "name": "FAME", "location": {"address": "Holzmarktstr. 25", "lat": 52.511998390558716, "lng": 13.424962485417336, "labeledLatLngs": [{"label": "display", "lat": 52.511998390558716, "lng": 13.424962485417336}], "distance": 948, "postalCode": "10243", "cc": "DE", "city": "Berlin", "state": "Berlin", "country": "Deutschland", "formattedAddress": ["Holzmarktstr. 25", "10243 Berlin", "Deutschland"]}, "categories": [{"id": "52e81612bcbc57f1066b79f9", "name": "Modern European Restaurant", "pluralName": "Modern European Restaurants", "shortName": "Modern European", "icon": {"prefix": "https://ss3.4sqi.net/img/categories_v2/food/default_", "suffix": ".png"}, "primary": true}], "photos": {"count": 0, "groups": []}}, "referralId": "e-0-538781e7498ee7f0fb1b339a-96"}, {"reasons": {"count": 0, "items": [{"summary": "This spot is popular", "type": "general", "reasonName": "globalInteractionReason"}]}, "venue": {"id": "54783f09498e1e48fd9db8b4", "name": "Mutzenbacher Schnitzelpuff", "location": {"address": "Libauer Str. 11", "lat": 52.50846017500125, "lng": 13.452845800042214, "labeledLatLngs": [{"label": "display", "lat": 52.50846017500125, "lng": 13.452845800042214}], "distance": 993, "postalCode": "10245", "cc": "DE", "city": "Berlin", "state": "Berlin", "country": "Deutschland", "formattedAddress": ["Libauer Str. 11", "10245 Berlin", "Deutschland"]}, "categories": [{"id": "52e81612bcbc57f1066b7a01", "name": "Austrian Restaurant", "pluralName": "Austrian Restaurants", "shortName": "Austrian", "icon": {"prefix": "https://ss3.4sqi.net/img/categories_v2/food/austrian_", "suffix": ".png"}, "primary": true}], "photos": {"count": 0, "groups": []}}, "referralId": "e-0-54783f09498e1e48fd9db8b4-97"}, {"reasons": {"count": 0, "items": [{"summary": "This spot is popular", "type": "general", "reasonName": "globalInteractionReason"}]}, "venue": {"id": "4bd1a9105e0cce7227cca184", "name": "OSTEL Das DDR Hostel Berlin", "location": {"address": "Wriezener Karree 5", "lat": 52.510848468915974, "lng": 13.438956159647994, "labeledLatLngs": [{"label": "display", "lat": 52.510848468915974, "lng": 13.438956159647994}], "distance": 44, "postalCode": "10243", "cc": "DE", "city": "Berlin", "state": "Berlin", "country": "Deutschland", "formattedAddress": ["Wriezener Karree 5", "10243 Berlin", "Deutschland"]}, "categories": [{"id": "4bf58dd8d48988d1ee931735", "name": "Hostel", "pluralName": "Hostels", "shortName": "Hostel", "icon": {"prefix": "https://ss3.4sqi.net/img/categories_v2/travel/hostel_", "suffix": ".png"}, "primary": true}], "photos": {"count": 0, "groups": []}}, "referralId": "e-0-4bd1a9105e0cce7227cca184-98"}, {"reasons": {"count": 0, "items": [{"summary": "This spot is popular", "type": "general", "reasonName": "globalInteractionReason"}]}, "venue": {"id": "5b2a6b46a5a315002d74c079", "name": "Gallery Rooftop Bar", "location": {"address": "M\u00fchlenstra\u00dfe 19", "lat": 52.50449, "lng": 13.44214, "labeledLatLngs": [{"label": "display", "lat": 52.50449, "lng": 13.44214}], "distance": 783, "postalCode": "10243", "cc": "DE", "city": "Berlin", "state": "Berlin", "country": "Deutschland", "formattedAddress": ["M\u00fchlenstra\u00dfe 19", "10243 Berlin", "Deutschland"]}, "categories": [{"id": "4bf58dd8d48988d1d5941735", "name": "Hotel Bar", "pluralName": "Hotel Bars", "shortName": "Hotel Bar", "icon": {"prefix": "https://ss3.4sqi.net/img/categories_v2/travel/hotel_bar_", "suffix": ".png"}, "primary": true}], "photos": {"count": 0, "groups": []}, "venuePage": {"id": "539697676"}}, "referralId": "e-0-5b2a6b46a5a315002d74c079-99"}]