[{"reasons": {"count": 0, "items": [{"summary": "This spot is popular", "type": "general", "reasonName": "globalInteractionReason"}]}, "venue": {"id": "4c0953e0a1b32d7fa57c97f0", "name": "Freiluftkino Friedrichshain", "location": {"address": "Friedenstr.", "crossStreet": "Landsberger Allee", "lat": 52.52537994401943, "lng": 13.435410261154175, "labeledLatLngs": [{"label": "display", "lat": 52.52537994401943, "lng": 13.435410261154175}], "distance": 316, "postalCode": "10249", "cc": "DE", "city": "Berlin", "state": "Berlin", "country": "Deutschland", "formattedAddress": ["Friedenstr. (Landsberger Allee)", "10249 Berlin", "Deutschland"]}, "categories": [{"id": "4bf58dd8d48988d17e941735", "name": "Indie Movie Theater", "pluralName": "Indie Movie Theaters", "shortName": "Indie Movies", "icon": {"prefix": "https://ss3.4sqi.net/img/categories_v2/arts_entertainment/movietheater_", "suffix": ".png"}, "primary": true}], "photos": {"count": 0, "groups": []}}, "referralId": "e-0-4c0953e0a1b32d7fa57c97f0-0"}, {"reasons": {"count": 0, "items": [{"summary": "This spot is popular", "type": "general", "reasonName": "globalInteractionReason"}]}, "venue": {"id": "4cbc29264495721eb209597a", "name": "Feinb\u00e4ckerei Schubbert", "location": {"address": "Palisadenstr. 58", "lat": 52.51874274789905, "lng": 13.438644391235899, "labeledLatLngs": [{"label": "display", "lat": 52.51874274789905, "lng": 13.438644391235899}], "distance": 484, "postalCode": "10243", "cc": "DE", "city": "Berlin", "state": "Berlin", "country": "Deutschland", "formattedAddress": ["Palisadenstr. 58", "10243 Berlin", "Deutschland"]}, "categories": [{"id": "4bf58dd8d48988d16a941735", "name": "Bakery", "pluralName": "Bakeries", "shortName": "Bakery", "icon": {"prefix": "https://ss3.4sqi.net/img/categories_v2/food/bakery_", "suffix": ".png"}, "primary": true}], "photos": {"count": 0, "groups": []}}, "referralId": "e-0-4cbc29264495721eb209597a-1"}, {"reasons": {"count": 0, "items": [{"summary": "This spot is popular", "type": "general", "reasonName": "globalInteractionReason"}]}, "venue": {"id": "4adcda7df964a520864721e3", "name": "Volkspark Friedrichshain", "location": {"address": "Am Friedrichshain", "crossStreet": "Friedenstr.", "lat": 52.52751439464056, "lng": 13.432159423828125, "labeledLatLngs": [{"label": "display", "lat": 52.52751439464056, "lng": 13.432159423828125}], "distance": 639, "postalCode": "10249", "cc": "DE", "city": "Berlin", "state": "Berlin", "country": "Deutschland", "formattedAddress": ["Am Friedrichshain (Friedenstr.)", "10249 Berlin", "Deutschland"]}, "categories": [{"id": "4bf58dd8d48988d163941735", "name": "Park", "pluralName": "Parks", "shortName": "Park", "icon": {"prefix": "https://ss3.4sqi.net/img/categories_v2/parks_outdoors/park_", "suffix": ".png"}, "primary": true}], "photos": {"count": 0, "groups": []}}, "referralId": "e-0-4adcda7df964a520864721e3-2"}, {"reasons": {"count": 0, "items": [{"summary": "This spot is popular", "type": "general", "reasonName": "globalInteractionReason"}]}, "venue": {"id": "55279cbc498e4f389d5c67d9", "name": "Stoff und Stil", "location": {"address": "Landsberger Allee 52", "lat": 52.52456931899002, "lng": 13.443069606507812, "labeledLatLngs": [{"label": "display", "lat": 52.52456931899002, "lng": 13.443069606507812}], "distance": 372, "postalCode": "10249", "cc": "DE", "neighborhood": "Friedrichshain", "city": "Berlin", "state": "Berlin", "country": "Deutschland", "formattedAddress": ["Landsberger Allee 52", "10249 Berlin", "Deutschland"]}, "categories": [{"id": "4bf58dd8d48988d1f6941735", "name": "Department Store", "pluralName": "Department Stores", "shortName": "Department Store", "icon": {"prefix": "https://ss3.4sqi.net/img/categories_v2/shops/departmentstore_", "suffix": ".png"}, "primary": true}], "photos": {"count": 0, "groups": []}}, "referralId": "e-0-55279cbc498e4f389d5c67d9-3"}, {"reasons": {"count": 0, "items": [{"summary": "This spot is popular", "type": "general", "reasonName": "globalInteractionReason"}]}, "venue": {"id": "4b70909af964a5205e222de3", "name": "Tilsiter Lichtspiele", "location": {"address": "Richard-Sorge-Str. 25a", "lat": 52.52066606243507, "lng": 13.447136417930317, "labeledLatLngs": [{"label": "display", "lat": 52.52066606243507, "lng": 13.447136417930317}], "distance": 665, "postalCode": "10249", "cc": "DE", "neighborhood": "Rigaer Stra\u00dfe", "city": "Berlin", "state": "Berlin", "country": "Deutschland", "formattedAddress": ["Richard-Sorge-Str. 25a", "10249 Berlin", "Deutschland"]}, "categories": [{"id": "4bf58dd8d48988d17e941735", "name": "Indie Movie Theater", "pluralName": "Indie Movie Theaters", "shortName": "Indie Movies", "icon": {"prefix": "https://ss3.4sqi.net/img/categories_v2/arts_entertainment/movietheater_", "suffix": ".png"}, "primary": true}], "photos": {"count": 0, "groups": []}}, "referralId": "e-0-4b70909af964a5205e222de3-4"}, {"reasons": {"count": 0, "items": [{"summary": "This spot is popular", "type": "general", "reasonName": "globalInteractionReason"}]}, "venue": {"id": "51b1fa09498e01d8644958c2", "name": "Themengarten Bachlauf", "location": {"address": "Am Friedrichshain", "crossStreet": "Volkspark Friedrichshain", "lat": 52.526850034685, "lng": 13.434417963374543, "labeledLatLngs": [{"label": "display", "lat": 52.526850034685, "lng": 13.434417963374543}], "distance": 489, "postalCode": "10249", "cc": "DE", "city": "Berlin", "state": "Berlin", "country": "Deutschland", "formattedAddress": ["Am Friedrichshain (Volkspark Friedrichshain)", "10249 Berlin", "Deutschland"]}, "categories": [{"id": "4bf58dd8d48988d15a941735", "name": "Garden", "pluralName": "Gardens", "shortName": "Garden", "icon": {"prefix": "https://ss3.4sqi.net/img/categories_v2/parks_outdoors/garden_", "suffix": ".png"}, "primary": true}], "photos": {"count": 0, "groups": []}}, "referralId": "e-0-51b1fa09498e01d8644958c2-5"}, {"reasons": {"count": 0, "items": [{"summary": "This spot is popular", "type": "general", "reasonName": "globalInteractionReason"}]}, "venue": {"id": "535014ee498e4cef15b7450c", "name": "Briefmarken Weine - Grande Vini Piccola Cucina", "location": {"address": "Karl Marx Allee 99", "lat": 52.517439910403716, "lng": 13.44258899311813, "labeledLatLngs": [{"label": "display", "lat": 52.517439910403716, "lng": 13.44258899311813}], "distance": 696, "postalCode": "10243", "cc": "DE", "city": "Berlin", "state": "Berlin", "country": "Deutschland", "formattedAddress": ["Karl Marx Allee 99", "10243 Berlin", "Deutschland"]}, "categories": [{"id": "4bf58dd8d48988d110941735", "name": "Italian Restaurant", "pluralName": "Italian Restaurants", "shortName": "Italian", "icon": {"prefix": "https://ss3.4sqi.net/img/categories_v2/food/italian_", "suffix": ".png"}, "primary": true}], "photos": {"count": 0, "groups": []}}, "referralId": "e-0-535014ee498e4cef15b7450c-6"}, {"reasons": {"count": 0, "items": [{"summary": "This spot is popular", "type": "general", "reasonName": "globalInteractionReason"}]}, "venue": {"id": "4bb2f3a535f0c9b657e5bb83", "name": "Laufstrecke im Volkspark Friedrichshain", "location": {"address": "Danziger Str.", "lat": 52.528780655772515, "lng": 13.442437648773193, "labeledLatLngs": [{"label": "display", "lat": 52.528780655772515, "lng": 13.442437648773193}], "distance": 697, "postalCode": "10407", "cc": "DE", "city": "Berlin", "state": "Berlin", "country": "Deutschland", "formattedAddress": ["Danziger Str.", "10407 Berlin", "Deutschland"]}, "categories": [{"id": "4bf58dd8d48988d106941735", "name": "Track", "pluralName": "Tracks", "shortName": "Track", "icon": {"prefix": "https://ss3.4sqi.net/img/categories_v2/arts_entertainment/stadium_track_", "suffix": ".png"}, "primary": true}], "photos": {"count": 0, "groups": []}}, "referralId": "e-0-4bb2f3a535f0c9b657e5bb83-7"}, {"reasons": {"count": 0, "items": [{"summary": "This spot is popular", "type": "general", "reasonName": "globalInteractionReason"}]}, "venue": {"id": "518b8580498e33a20a7145af", "name": "Rembrandt Burger", "location": {"address": "Richard-Sorge-Str. 21", "lat": 52.51997371400662, "lng": 13.447589191840589, "labeledLatLngs": [{"label": "display", "lat": 52.51997371400662, "lng": 13.447589191840589}], "distance": 726, "postalCode": "10249", "cc": "DE", "city": "Berlin", "state": "Berlin", "country": "Deutschland", "formattedAddress": ["Richard-Sorge-Str. 21", "10249 Berlin", "Deutschland"]}, "categories": [{"id": "4bf58dd8d48988d16c941735", "name": "Burger Joint", "pluralName": "Burger Joints", "shortName": "Burgers", "icon": {"prefix": "https://ss3.4sqi.net/img/categories_v2/food/burger_", "suffix": ".png"}, "primary": true}], "photos": {"count": 0, "groups": []}, "venuePage": {"id": "77222771"}}, "referralId": "e-0-518b8580498e33a20a7145af-8"}, {"reasons": {"count": 0, "items": [{"summary": "This spot is popular", "type": "general", "reasonName": "globalInteractionReason"}]}, "venue": {"id": "4adcda78f964a520504621e3", "name": "SCHOENBRUNN", "location": {"address": "Am Schwanenteich", "lat": 52.52800667429906, "lng": 13.433972597122192, "labeledLatLngs": [{"label": "display", "lat": 52.52800667429906, "lng": 13.433972597122192}], "distance": 617, "postalCode": "10249", "cc": "DE", "city": "Berlin", "state": "Berlin", "country": "Deutschland", "formattedAddress": ["Am Schwanenteich", "10249 Berlin", "Deutschland"]}, "categories": [{"id": "4bf58dd8d48988d117941735", "name": "Beer Garden", "pluralName": "Beer Gardens", "shortName": "Beer Garden", "icon": {"prefix": "https://ss3.4sqi.net/img/categories_v2/nightlife/beergarden_", "suffix": ".png"}, "primary": true}], "photos": {"count": 0, "groups": []}}, "referralId": "e-0-4adcda78f964a520504621e3-9"}, {"reasons": {"count": 0, "items": [{"summary": "This spot is popular", "type": "general", "reasonName": "globalInteractionReason"}]}, "venue": {"id": "4c1508b9a5eb76b07f98c2b7", "name": "Pomodorino", "location": {"address": "Stra\u00dfmannstr. 21", "lat": 52.52220765152743, "lng": 13.449970217055668, "labeledLatLngs": [{"label": "display", "lat": 52.52220765152743, "lng": 13.449970217055668}], "distance": 806, "postalCode": "10249", "cc": "DE", "city": "Berlin", "state": "Berlin", "country": "Deutschland", "formattedAddress": ["Stra\u00dfmannstr. 21", "10249 Berlin", "Deutschland"]}, "categories": [{"id": "4bf58dd8d48988d1ca941735", "name": "Pizza Place", "pluralName": "Pizza Places", "shortName": "Pizza", "icon": {"prefix": "https://ss3.4sqi.net/img/categories_v2/food/pizza_", "suffix": ".png"}, "primary": true}], "photos": {"count": 0, "groups": []}}, "referralId": "e-0-4c1508b9a5eb76b07f98c2b7-10"}, {"reasons": {"count": 0, "items": [{"summary": "This spot is popular", "type": "general", "reasonName": "globalInteractionReason"}]}, "venue": {"id": "4d5a9908c88da1cd9cbc4668", "name": "Gro\u00dfer Bunkerberg", "location": {"address": "Friedenstr.", "lat": 52.52628655831831, "lng": 13.432218727464077, "labeledLatLngs": [{"label": "display", "lat": 52.52628655831831, "lng": 13.432218727464077}], "distance": 537, "postalCode": "10249", "cc": "DE", "city": "Berlin", "state": "Berlin", "country": "Deutschland", "formattedAddress": ["Friedenstr.", "10249 Berlin", "Deutschland"]}, "categories": [{"id": "4bf58dd8d48988d165941735", "name": "Scenic Lookout", "pluralName": "Scenic Lookouts", "shortName": "Scenic Lookout", "icon": {"prefix": "https://ss3.4sqi.net/img/categories_v2/parks_outdoors/sceniclookout_", "suffix": ".png"}, "primary": true}], "photos": {"count": 0, "groups": []}}, "referralId": "e-0-4d5a9908c88da1cd9cbc4668-11"}, {"reasons": {"count": 0, "items": [{"summary": "This spot is popular", "type": "general", "reasonName": "globalInteractionReason"}]}, "venue": {"id": "4c646dd4dddfa593b77391ff", "name": "Hotel New Berlin", "location": {"address": "Petersburger Str. 24", "lat": 52.52443484987898, "lng": 13.448848176853877, "labeledLatLngs": [{"label": "display", "lat": 52.52443484987898, "lng": 13.448848176853877}], "distance": 739, "postalCode": "10249", "cc": "DE", "city": "Berlin", "state": "Berlin", "country": "Deutschland", "formattedAddress": ["Petersburger Str. 24", "10249 Berlin", "Deutschland"]}, "categories": [{"id": "4bf58dd8d48988d1fa931735", "name": "Hotel", "pluralName": "Hotels", "shortName": "Hotel", "icon": {"prefix": "https://ss3.4sqi.net/img/categories_v2/travel/hotel_", "suffix": ".png"}, "primary": true}], "photos": {"count": 0, "groups": []}}, "referralId": "e-0-4c646dd4dddfa593b77391ff-12"}, {"reasons": {"count": 0, "items": [{"summary": "This spot is popular", "type": "general", "reasonName": "globalInteractionReason"}]}, "venue": {"id": "4adcda87f964a520364921e3", "name": "Il Pane e le Rose", "location": {"address": "Am Friedrichshain 6", "lat": 52.529358243671346, "lng": 13.4344049701531, "labeledLatLngs": [{"label": "display", "lat": 52.529358243671346, "lng": 13.4344049701531}], "distance": 743, "postalCode": "10407", "cc": "DE", "city": "Berlin", "state": "Berlin", "country": "Deutschland", "formattedAddress": ["Am Friedrichshain 6", "10407 Berlin", "Deutschland"]}, "categories": [{"id": "4bf58dd8d48988d110941735", "name": "Italian Restaurant", "pluralName": "Italian Restaurants", "shortName": "Italian", "icon": {"prefix": "https://ss3.4sqi.net/img/categories_v2/food/italian_", "suffix": ".png"}, "primary": true}], "photos": {"count": 0, "groups": []}}, "referralId": "e-0-4adcda87f964a520364921e3-13"}, {"reasons": {"count": 0, "items": [{"summary": "This spot is popular", "type": "general", "reasonName": "globalInteractionReason"}]}, "venue": {"id": "4e19f3c2b61c8f9ada5aa5a7", "name": "Viet Ha - Goldener Karpfen", "location": {"address": "Lebuser Str. 13", "lat": 52.51926107210154, "lng": 13.433382700027284, "labeledLatLngs": [{"label": "display", "lat": 52.51926107210154, "lng": 13.433382700027284}], "distance": 533, "postalCode": "10243", "cc": "DE", "city": "Berlin", "state": "Berlin", "country": "Deutschland", "formattedAddress": ["Lebuser Str. 13", "10243 Berlin", "Deutschland"]}, "categories": [{"id": "4bf58dd8d48988d142941735", "name": "Asian Restaurant", "pluralName": "Asian Restaurants", "shortName": "Asian", "icon": {"prefix": "https://ss3.4sqi.net/img/categories_v2/food/asian_", "suffix": ".png"}, "primary": true}], "photos": {"count": 0, "groups": []}, "venuePage": {"id": "587234511"}}, "referralId": "e-0-4e19f3c2b61c8f9ada5aa5a7-14"}, {"reasons": {"count": 0, "items": [{"summary": "This spot is popular", "type": "general", "reasonName": "globalInteractionReason"}]}, "venue": {"id": "4b9396f4f964a520624934e3", "name": "Spielplatz Am Friedrichshain", "location": {"address": "Am Friedrichshain", "lat": 52.529021787374404, "lng": 13.435480962688844, "labeledLatLngs": [{"label": "display", "lat": 52.529021787374404, "lng": 13.435480962688844}], "distance": 685, "postalCode": "10249", "cc": "DE", "city": "Berlin", "state": "Berlin", "country": "Deutschland", "formattedAddress": ["Am Friedrichshain", "10249 Berlin", "Deutschland"]}, "categories": [{"id": "4bf58dd8d48988d1e7941735", "name": "Playground", "pluralName": "Playgrounds", "shortName": "Playground", "icon": {"prefix": "https://ss3.4sqi.net/img/categories_v2/parks_outdoors/playground_", "suffix": ".png"}, "primary": true}], "photos": {"count": 0, "groups": []}}, "referralId": "e-0-4b9396f4f964a520624934e3-15"}, {"reasons": {"count": 0, "items": [{"summary": "This spot is popular", "type": "general", "reasonName": "globalInteractionReason"}]}, "venue": {"id": "4d7a6bdf6ae037048679cb25", "name": "Saporito", "location": {"address": "Stra\u00dfmannstr. 21", "crossStreet": "Petersburger Str.", "lat": 52.52228497346113, "lng": 13.450016137626529, "labeledLatLngs": [{"label": "display", "lat": 52.52228497346113, "lng": 13.450016137626529}], "distance": 808, "postalCode": "10249", "cc": "DE", "city": "Berlin", "state": "Berlin", "country": "Deutschland", "formattedAddress": ["Stra\u00dfmannstr. 21 (Petersburger Str.)", "10249 Berlin", "Deutschland"]}, "categories": [{"id": "4bf58dd8d48988d110941735", "name": "Italian Restaurant", "pluralName": "Italian Restaurants", "shortName": "Italian", "icon": {"prefix": "https://ss3.4sqi.net/img/categories_v2/food/italian_", "suffix": ".png"}, "primary": true}], "photos": {"count": 0, "groups": []}}, "referralId": "e-0-4d7a6bdf6ae037048679cb25-16"}, {"reasons": {"count": 0, "items": [{"summary": "This spot is popular", "type": "general", "reasonName": "globalInteractionReason"}]}, "venue": {"id": "4adcda8bf964a520d04921e3", "name": "Filmtheater am Friedrichshain", "location": {"address": "B\u00f6tzowstr. 1-5", "lat": 52.529068975520296, "lng": 13.430495290983881, "labeledLatLngs": [{"label": "display", "lat": 52.529068975520296, "lng": 13.430495290983881}], "distance": 844, "postalCode": "10407", "cc": "DE", "city": "Berlin", "state": "Berlin", "country": "Deutschland", "formattedAddress": ["B\u00f6tzowstr. 1-5", "10407 Berlin", "Deutschland"]}, "categories": [{"id": "4bf58dd8d48988d17e941735", "name": "Indie Movie Theater", "pluralName": "Indie Movie Theaters", "shortName": "Indie Movies", "icon": {"prefix": "https://ss3.4sqi.net/img/categories_v2/arts_entertainment/movietheater_", "suffix": ".png"}, "primary": true}], "photos": {"count": 0, "groups": []}}, "referralId": "e-0-4adcda8bf964a520d04921e3-17"}, {"reasons": {"count": 0, "items": [{"summary": "This spot is popular", "type": "general", "reasonName": "globalInteractionReason"}]}, "venue": {"id": "4e92d8250aafb38924864d93", "name": "Ristorante a Mano", "location": {"address": "Strausberger Platz 2", "lat": 52.51877164494124, "lng": 13.42765241671425, "labeledLatLngs": [{"label": "display", "lat": 52.51877164494124, "lng": 13.42765241671425}], "distance": 857, "postalCode": "10243", "cc": "DE", "city": "Berlin", "state": "Berlin", "country": "Deutschland", "formattedAddress": ["Strausberger Platz 2", "10243 Berlin", "Deutschland"]}, "categories": [{"id": "4bf58dd8d48988d110941735", "name": "Italian Restaurant", "pluralName": "Italian Restaurants", "shortName": "Italian", "icon": {"prefix": "https://ss3.4sqi.net/img/categories_v2/food/italian_", "suffix": ".png"}, "primary": true}], "photos": {"count": 0, "groups": []}}, "referralId": "e-0-4e92d8250aafb38924864d93-18"}, {"reasons": {"count": 0, "items": [{"summary": "This spot is popular", "type": "general", "reasonName": "globalInteractionReason"}]}, "venue": {"id": "4e45063d7d8bee2823a40cc4", "name": "Sommerhaus KaffeeBar", "location": {"address": "Hufelandstr. 43", "lat": 52.5301852281776, "lng": 13.436099127689948, "labeledLatLngs": [{"label": "display", "lat": 52.5301852281776, "lng": 13.436099127689948}], "distance": 803, "postalCode": "10407", "cc": "DE", "city": "Berlin", "state": "Berlin", "country": "Deutschland", "formattedAddress": ["Hufelandstr. 43", "10407 Berlin", "Deutschland"]}, "categories": [{"id": "4bf58dd8d48988d16d941735", "name": "Caf\u00e9", "pluralName": "Caf\u00e9s", "shortName": "Caf\u00e9", "icon": {"prefix": "https://ss3.4sqi.net/img/categories_v2/food/cafe_", "suffix": ".png"}, "primary": true}], "photos": {"count": 0, "groups": []}, "venuePage": {"id": "44982898"}}, "referralId": "e-0-4e45063d7d8bee2823a40cc4-19"}, {"reasons": {"count": 0, "items": [{"summary": "This spot is popular", "type": "general", "reasonName": "globalInteractionReason"}]}, "venue": {"id": "4d74c79f170ab1f7fa92f894", "name": "Waterlily", "location": {"address": "Karl-Marx-Allee 113", "lat": 52.51706154236405, "lng": 13.446118582819599, "labeledLatLngs": [{"label": "display", "lat": 52.51706154236405, "lng": 13.446118582819599}], "distance": 860, "postalCode": "10243", "cc": "DE", "neighborhood": "Friedenstra\u00dfe", "city": "Berlin", "state": "Berlin", "country": "Deutschland", "formattedAddress": ["Karl-Marx-Allee 113", "10243 Berlin", "Deutschland"]}, "categories": [{"id": "4bf58dd8d48988d14a941735", "name": "Vietnamese Restaurant", "pluralName": "Vietnamese Restaurants", "shortName": "Vietnamese", "icon": {"prefix": "https://ss3.4sqi.net/img/categories_v2/food/vietnamese_", "suffix": ".png"}, "primary": true}], "photos": {"count": 0, "groups": []}}, "referralId": "e-0-4d74c79f170ab1f7fa92f894-20"}, {"reasons": {"count": 0, "items": [{"summary": "This spot is popular", "type": "general", "reasonName": "globalInteractionReason"}]}, "venue": {"id": "4c2d9e87260bc92801531ad3", "name": "Computerspielemuseum", "location": {"address": "Karl-Marx-Allee 93a", "lat": 52.51748970846354, "lng": 13.441899511634173, "labeledLatLngs": [{"label": "display", "lat": 52.51748970846354, "lng": 13.441899511634173}], "distance": 672, "postalCode": "10243", "cc": "DE", "city": "Berlin", "state": "Berlin", "country": "Deutschland", "formattedAddress": ["Karl-Marx-Allee 93a", "10243 Berlin", "Deutschland"]}, "categories": [{"id": "4bf58dd8d48988d191941735", "name": "Science Museum", "pluralName": "Science Museums", "shortName": "Science Museum", "icon": {"prefix": "https://ss3.4sqi.net/img/categories_v2/arts_entertainment/museum_science_", "suffix": ".png"}, "primary": true}], "photos": {"count": 0, "groups": []}, "venuePage": {"id": "356231983"}}, "referralId": "e-0-4c2d9e87260bc92801531ad3-21"}, {"reasons": {"count": 0, "items": [{"summary": "This spot is popular", "type": "general", "reasonName": "globalInteractionReason"}]}, "venue": {"id": "4e43bc4a52b18fcc79915869", "name": "Mami Camilla", "location": {"address": "Hufelandstr. 36", "lat": 52.530725643590834, "lng": 13.434676847338318, "labeledLatLngs": [{"label": "display", "lat": 52.530725643590834, "lng": 13.434676847338318}], "distance": 882, "postalCode": "10407", "cc": "DE", "city": "Berlin", "state": "Berlin", "country": "Deutschland", "formattedAddress": ["Hufelandstr. 36", "10407 Berlin", "Deutschland"]}, "categories": [{"id": "4bf58dd8d48988d110941735", "name": "Italian Restaurant", "pluralName": "Italian Restaurants", "shortName": "Italian", "icon": {"prefix": "https://ss3.4sqi.net/img/categories_v2/food/italian_", "suffix": ".png"}, "primary": true}], "photos": {"count": 0, "groups": []}}, "referralId": "e-0-4e43bc4a52b18fcc79915869-22"}, {"reasons": {"count": 0, "items": [{"summary": "This spot is popular", "type": "general", "reasonName": "globalInteractionReason"}]}, "venue": {"id": "4e99958b82310013a121b614", "name": "Frau Honig", "location": {"address": "Stra\u00dfmannstr. 1", "lat": 52.521433, "lng": 13.446983, "labeledLatLngs": [{"label": "display", "lat": 52.521433, "lng": 13.446983}], "distance": 625, "postalCode": "10249", "cc": "DE", "city": "Berlin", "state": "Berlin", "country": "Deutschland", "formattedAddress": ["Stra\u00dfmannstr. 1", "10249 Berlin", "Deutschland"]}, "categories": [{"id": "4bf58dd8d48988d16d941735", "name": "Caf\u00e9", "pluralName": "Caf\u00e9s", "shortName": "Caf\u00e9", "icon": {"prefix": "https://ss3.4sqi.net/img/categories_v2/food/cafe_", "suffix": ".png"}, "primary": true}], "photos": {"count": 0, "groups": []}}, "referralId": "e-0-4e99958b82310013a121b614-23"}, {"reasons": {"count": 0, "items": [{"summary": "This spot is popular", "type": "general", "reasonName": "globalInteractionReason"}]}, "venue": {"id": "4df4e9a762e1288ed308dedf", "name": "Trampolinspielplatz", "location": {"address": "Hufelandstr.", "crossStreet": "Hans-Otto-Str.", "lat": 52.530094826299326, "lng": 13.4354038676305, "labeledLatLngs": [{"label": "display", "lat": 52.530094826299326, "lng": 13.4354038676305}], "distance": 802, "cc": "DE", "neighborhood": "Friedrichs", "city": "Berlin", "state": "Berlin", "country": "Deutschland", "formattedAddress": ["Hufelandstr. (Hans-Otto-Str.)", "Berlin", "Deutschland"]}, "categories": [{"id": "4bf58dd8d48988d1e7941735", "name": "Playground", "pluralName": "Playgrounds", "shortName": "Playground", "icon": {"prefix": "https://ss3.4sqi.net/img/categories_v2/parks_outdoors/playground_", "suffix": ".png"}, "primary": true}], "photos": {"count": 0, "groups": []}}, "referralId": "e-0-4df4e9a762e1288ed308dedf-24"}, {"reasons": {"count": 0, "items": [{"summary": "This spot is popular", "type": "general", "reasonName": "globalInteractionReason"}]}, "venue": {"id": "4ba222ccf964a5204bde37e3", "name": "M\u00e4rchenbrunnen", "location": {"address": "Am Friedrichshain", "lat": 52.527999298697786, "lng": 13.4267520904541, "labeledLatLngs": [{"label": "display", "lat": 52.527999298697786, "lng": 13.4267520904541}], "distance": 946, "postalCode": "10249", "cc": "DE", "city": "Berlin", "state": "Berlin", "country": "Deutschland", "formattedAddress": ["Am Friedrichshain", "10249 Berlin", "Deutschland"]}, "categories": [{"id": "56aa371be4b08b9a8d573547", "name": "Fountain", "pluralName": "Fountains", "shortName": "Fountain", "icon": {"prefix": "https://ss3.4sqi.net/img/categories_v2/parks_outdoors/plaza_", "suffix": ".png"}, "primary": true}], "photos": {"count": 0, "groups": []}}, "referralId": "e-0-4ba222ccf964a5204bde37e3-25"}, {"reasons": {"count": 0, "items": [{"summary": "This spot is popular", "type": "general", "reasonName": "globalInteractionReason"}]}, "venue": {"id": "4c0944686071a593179ddd32", "name": "Taleh Thai", "location": {"address": "K\u00e4the-Niederkirchner-Str. 14", "lat": 52.530625768342205, "lng": 13.431700968683776, "labeledLatLngs": [{"label": "display", "lat": 52.530625768342205, "lng": 13.431700968683776}], "distance": 946, "postalCode": "10407", "cc": "DE", "city": "Berlin", "state": "Berlin", "country": "Deutschland", "formattedAddress": ["K\u00e4the-Niederkirchner-Str. 14", "10407 Berlin", "Deutschland"]}, "categories": [{"id": "4bf58dd8d48988d149941735", "name": "Thai Restaurant", "pluralName": "Thai Restaurants", "shortName": "Thai", "icon": {"prefix": "https://ss3.4sqi.net/img/categories_v2/food/thai_", "suffix": ".png"}, "primary": true}], "photos": {"count": 0, "groups": []}, "venuePage": {"id": "73428749"}}, "referralId": "e-0-4c0944686071a593179ddd32-26"}, {"reasons": {"count": 0, "items": [{"summary": "This spot is popular", "type": "general", "reasonName": "globalInteractionReason"}]}, "venue": {"id": "4b86c755f964a5209f9c31e3", "name": "Auerpark", "location": {"address": "Auerstr.", "crossStreet": "Weidenweg", "lat": 52.51854508785383, "lng": 13.445162773132324, "labeledLatLngs": [{"label": "display", "lat": 52.51854508785383, "lng": 13.445162773132324}], "distance": 693, "postalCode": "10249", "cc": "DE", "city": "Berlin", "state": "Berlin", "country": "Deutschland", "formattedAddress": ["Auerstr. (Weidenweg)", "10249 Berlin", "Deutschland"]}, "categories": [{"id": "4bf58dd8d48988d163941735", "name": "Park", "pluralName": "Parks", "shortName": "Park", "icon": {"prefix": "https://ss3.4sqi.net/img/categories_v2/parks_outdoors/park_", "suffix": ".png"}, "primary": true}], "photos": {"count": 0, "groups": []}}, "referralId": "e-0-4b86c755f964a5209f9c31e3-27"}, {"reasons": {"count": 0, "items": [{"summary": "This spot is popular", "type": "general", "reasonName": "globalInteractionReason"}]}, "venue": {"id": "50af79aee4b042e78088961a", "name": "Leutemanns", "location": {"address": "B\u00f6tzowstr. 23", "lat": 52.53099695307988, "lng": 13.433312142164342, "labeledLatLngs": [{"label": "display", "lat": 52.53099695307988, "lng": 13.433312142164342}], "distance": 940, "postalCode": "10407", "cc": "DE", "city": "Berlin", "state": "Berlin", "country": "Deutschland", "formattedAddress": ["B\u00f6tzowstr. 23", "10407 Berlin", "Deutschland"]}, "categories": [{"id": "4bf58dd8d48988d146941735", "name": "Deli / Bodega", "pluralName": "Delis / Bodegas", "shortName": "Deli / Bodega", "icon": {"prefix": "https://ss3.4sqi.net/img/categories_v2/food/deli_", "suffix": ".png"}, "primary": true}], "photos": {"count": 0, "groups": []}}, "referralId": "e-0-50af79aee4b042e78088961a-28"}, {"reasons": {"count": 0, "items": [{"summary": "This spot is popular", "type": "general", "reasonName": "globalInteractionReason"}]}, "venue": {"id": "52639b5c11d280761b9ce711", "name": "Spielplatz im Volkspark Friedrichshain", "location": {"address": "Am Friedrichshain", "lat": 52.52777073590434, "lng": 13.431362767374708, "labeledLatLngs": [{"label": "display", "lat": 52.52777073590434, "lng": 13.431362767374708}], "distance": 695, "postalCode": "10249", "cc": "DE", "city": "Berlin", "state": "Berlin", "country": "Deutschland", "formattedAddress": ["Am Friedrichshain", "10249 Berlin", "Deutschland"]}, "categories": [{"id": "4bf58dd8d48988d1e7941735", "name": "Playground", "pluralName": "Playgrounds", "shortName": "Playground", "icon": {"prefix": "https://ss3.4sqi.net/img/categories_v2/parks_outdoors/playground_", "suffix": ".png"}, "primary": true}], "photos": {"count": 0, "groups": []}}, "referralId": "e-0-52639b5c11d280761b9ce711-29"}, {"reasons": {"count": 0, "items": [{"summary": "This spot is popular", "type": "general", "reasonName": "globalInteractionReason"}]}, "venue": {"id": "59f89b2a7564f72de36190a2", "name": "Gao Fresh.food.fast", "location": {"address": "Landsberger Allee 68d", "crossStreet": "Petersburger Stra\u00dfe", "lat": 52.52593, "lng": 13.447325, "labeledLatLngs": [{"label": "display", "lat": 52.52593, "lng": 13.447325}], "distance": 697, "postalCode": "10249", "cc": "DE", "neighborhood": "Nordkiez", "city": "Berlin", "state": "Berlin", "country": "Deutschland", "formattedAddress": ["Landsberger Allee 68d (Petersburger Stra\u00dfe)", "10249 Berlin", "Deutschland"]}, "categories": [{"id": "4bf58dd8d48988d14a941735", "name": "Vietnamese Restaurant", "pluralName": "Vietnamese Restaurants", "shortName": "Vietnamese", "icon": {"prefix": "https://ss3.4sqi.net/img/categories_v2/food/vietnamese_", "suffix": ".png"}, "primary": true}], "photos": {"count": 0, "groups": []}}, "referralId": "e-0-59f89b2a7564f72de36190a2-30"}, {"reasons": {"count": 0, "items": [{"summary": "This spot is popular", "type": "general", "reasonName": "globalInteractionReason"}]}, "venue": {"id": "4b1b9ca3f964a52033fc23e3", "name": "Qadmous", "location": {"address": "Am Friedrichshain 1", "lat": 52.52942104987187, "lng": 13.436415868490032, "labeledLatLngs": [{"label": "display", "lat": 52.52942104987187, "lng": 13.436415868490032}], "distance": 715, "postalCode": "10407", "cc": "DE", "city": "Berlin", "state": "Berlin", "country": "Deutschland", "formattedAddress": ["Am Friedrichshain 1", "10407 Prenzlauer Berg", "Deutschland"]}, "categories": [{"id": "4bf58dd8d48988d115941735", "name": "Middle Eastern Restaurant", "pluralName": "Middle Eastern Restaurants", "shortName": "Middle Eastern", "icon": {"prefix": "https://ss3.4sqi.net/img/categories_v2/food/middleeastern_", "suffix": ".png"}, "primary": true}], "photos": {"count": 0, "groups": []}, "venuePage": {"id": "64527913"}}, "referralId": "e-0-4b1b9ca3f964a52033fc23e3-31"}, {"reasons": {"count": 0, "items": [{"summary": "This spot is popular", "type": "general", "reasonName": "globalInteractionReason"}]}, "venue": {"id": "58bb254692ca4c138f5fddc6", "name": "Mamas Banh", "location": {"address": "Hufelandstr. 31", "lat": 52.531002266244776, "lng": 13.43416443337938, "labeledLatLngs": [{"label": "display", "lat": 52.531002266244776, "lng": 13.43416443337938}], "distance": 922, "postalCode": "10407", "cc": "DE", "neighborhood": "Greifswalder Stra\u00dfe-S\u00fcd", "city": "Berlin", "state": "Berlin", "country": "Deutschland", "formattedAddress": ["Hufelandstr. 31", "10407 Prenzlauer Berg", "Deutschland"]}, "categories": [{"id": "4bf58dd8d48988d14a941735", "name": "Vietnamese Restaurant", "pluralName": "Vietnamese Restaurants", "shortName": "Vietnamese", "icon": {"prefix": "https://ss3.4sqi.net/img/categories_v2/food/vietnamese_", "suffix": ".png"}, "primary": true}], "photos": {"count": 0, "groups": []}}, "referralId": "e-0-58bb254692ca4c138f5fddc6-32"}, {"reasons": {"count": 0, "items": [{"summary": "This spot is popular", "type": "general", "reasonName": "globalInteractionReason"}]}, "venue": {"id": "4af2ab81f964a52035e821e3", "name": "Weberwiese", "location": {"address": "Marchlewskistr.", "crossStreet": "Hildegard-Jadamowitz-Str.", "lat": 52.51588136025762, "lng": 13.443660736083984, "labeledLatLngs": [{"label": "display", "lat": 52.51588136025762, "lng": 13.443660736083984}], "distance": 884, "postalCode": "10243", "cc": "DE", "city": "Berlin", "state": "Berlin", "country": "Deutschland", "formattedAddress": ["Marchlewskistr. (Hildegard-Jadamowitz-Str.)", "10243 Berlin", "Deutschland"]}, "categories": [{"id": "4bf58dd8d48988d163941735", "name": "Park", "pluralName": "Parks", "shortName": "Park", "icon": {"prefix": "https://ss3.4sqi.net/img/categories_v2/parks_outdoors/park_", "suffix": ".png"}, "primary": true}], "photos": {"count": 0, "groups": []}}, "referralId": "e-0-4af2ab81f964a52035e821e3-33"}, {"reasons": {"count": 0, "items": [{"summary": "This spot is popular", "type": "general", "reasonName": "globalInteractionReason"}]}, "venue": {"id": "57da2aaf498ee1a92cc34bd6", "name": "Popkornditorei Knalle", "location": {"address": "M\u00fchsamstrasse 41", "lat": 52.51994217452807, "lng": 13.449237048625944, "labeledLatLngs": [{"label": "display", "lat": 52.51994217452807, "lng": 13.449237048625944}], "distance": 828, "postalCode": "10249", "cc": "DE", "neighborhood": "Friedrichshain, Berlin", "city": "Berlin", "state": "Berlin", "country": "Deutschland", "formattedAddress": ["M\u00fchsamstrasse 41", "10249 Berlin", "Deutschland"]}, "categories": [{"id": "5744ccdfe4b0c0459246b4e2", "name": "Pastry Shop", "pluralName": "Pastry Shops", "shortName": "Pastry", "icon": {"prefix": "https://ss3.4sqi.net/img/categories_v2/food/dessert_", "suffix": ".png"}, "primary": true}], "photos": {"count": 0, "groups": []}, "venuePage": {"id": "342402830"}}, "referralId": "e-0-57da2aaf498ee1a92cc34bd6-34"}, {"reasons": {"count": 0, "items": [{"summary": "This spot is popular", "type": "general", "reasonName": "globalInteractionReason"}]}, "venue": {"id": "4f8424eea17cce0ef8114963", "name": "Sila Thai Massage", "location": {"address": "Hans-Otto-Stra\u00dfe 12", "lat": 52.53050375660785, "lng": 13.43552827835083, "labeledLatLngs": [{"label": "display", "lat": 52.53050375660785, "lng": 13.43552827835083}], "distance": 845, "postalCode": "10407", "cc": "DE", "city": "Berlin", "state": "Berlin", "country": "Deutschland", "formattedAddress": ["Hans-Otto-Stra\u00dfe 12", "10407 Berlin", "Deutschland"]}, "categories": [{"id": "52f2ab2ebcbc57f1066b8b3c", "name": "Massage Studio", "pluralName": "Massage Studios", "shortName": "Massage Studio", "icon": {"prefix": "https://ss3.4sqi.net/img/categories_v2/shops/spa_", "suffix": ".png"}, "primary": true}], "photos": {"count": 0, "groups": []}}, "referralId": "e-0-4f8424eea17cce0ef8114963-35"}, {"reasons": {"count": 0, "items": [{"summary": "This spot is popular", "type": "general", "reasonName": "globalInteractionReason"}]}, "venue": {"id": "56b1f97d498e3415f86b720f", "name": "L'Herbivore", "location": {"address": "Petersburger Str. 38", "crossStreet": "Stra\u00dfmannstr.", "lat": 52.52277299226268, "lng": 13.44992031954338, "labeledLatLngs": [{"label": "display", "lat": 52.52277299226268, "lng": 13.44992031954338}], "distance": 797, "cc": "DE", "city": "Berlin", "state": "Berlin", "country": "Deutschland", "formattedAddress": ["Petersburger Str. 38 (Stra\u00dfmannstr.)", "Berlin", "Deutschland"]}, "categories": [{"id": "4bf58dd8d48988d1d3941735", "name": "Vegetarian / Vegan Restaurant", "pluralName": "Vegetarian / Vegan Restaurants", "shortName": "Vegetarian / Vegan", "icon": {"prefix": "https://ss3.4sqi.net/img/categories_v2/food/vegetarian_", "suffix": ".png"}, "primary": true}], "photos": {"count": 0, "groups": []}}, "referralId": "e-0-56b1f97d498e3415f86b720f-36"}, {"reasons": {"count": 0, "items": [{"summary": "This spot is popular", "type": "general", "reasonName": "globalInteractionReason"}]}, "venue": {"id": "4d6b904b2ea9b1f7d501d228", "name": "BoConcept", "location": {"address": "Strausberger Platz 19", "crossStreet": "Karl-Marx-Allee", "lat": 52.518643070735315, "lng": 13.426827772283065, "labeledLatLngs": [{"label": "display", "lat": 52.518643070735315, "lng": 13.426827772283065}], "distance": 912, "postalCode": "10243", "cc": "DE", "city": "Berlin", "state": "Berlin", "country": "Deutschland", "formattedAddress": ["Strausberger Platz 19 (Karl-Marx-Allee)", "10243 Berlin", "Deutschland"]}, "categories": [{"id": "4bf58dd8d48988d1f8941735", "name": "Furniture / Home Store", "pluralName": "Furniture / Home Stores", "shortName": "Furniture / Home", "icon": {"prefix": "https://ss3.4sqi.net/img/categories_v2/shops/furniture_", "suffix": ".png"}, "primary": true}], "photos": {"count": 0, "groups": []}}, "referralId": "e-0-4d6b904b2ea9b1f7d501d228-37"}, {"reasons": {"count": 0, "items": [{"summary": "This spot is popular", "type": "general", "reasonName": "globalInteractionReason"}]}, "venue": {"id": "53fdfa3d498ea0a7ab06d965", "name": "Summergarten", "location": {"lat": 52.51768043102631, "lng": 13.44132409749751, "labeledLatLngs": [{"label": "display", "lat": 52.51768043102631, "lng": 13.44132409749751}], "distance": 638, "cc": "DE", "city": "Berlin", "state": "Berlin", "country": "Deutschland", "formattedAddress": ["Berlin", "Deutschland"]}, "categories": [{"id": "4bf58dd8d48988d117941735", "name": "Beer Garden", "pluralName": "Beer Gardens", "shortName": "Beer Garden", "icon": {"prefix": "https://ss3.4sqi.net/img/categories_v2/nightlife/beergarden_", "suffix": ".png"}, "primary": true}], "photos": {"count": 0, "groups": []}}, "referralId": "e-0-53fdfa3d498ea0a7ab06d965-38"}, {"reasons": {"count": 0, "items": [{"summary": "This spot is popular", "type": "general", "reasonName": "globalInteractionReason"}]}, "venue": {"id": "5623756c498ef05d74b08f02", "name": "Saaldeck", "location": {"address": "Karl-Marx-Allee 103a", "lat": 52.517096253535165, "lng": 13.443556244525634, "labeledLatLngs": [{"label": "display", "lat": 52.517096253535165, "lng": 13.443556244525634}], "distance": 760, "postalCode": "10243", "cc": "DE", "neighborhood": "Friedrichshain", "city": "Berlin", "state": "Berlin", "country": "Deutschland", "formattedAddress": ["Karl-Marx-Allee 103a", "10243 Berlin", "Deutschland"]}, "categories": [{"id": "4bf58dd8d48988d16d941735", "name": "Caf\u00e9", "pluralName": "Caf\u00e9s", "shortName": "Caf\u00e9", "icon": {"prefix": "https://ss3.4sqi.net/img/categories_v2/food/cafe_", "suffix": ".png"}, "primary": true}], "photos": {"count": 0, "groups": []}}, "referralId": "e-0-5623756c498ef05d74b08f02-39"}, {"reasons": {"count": 0, "items": [{"summary": "This spot is popular", "type": "general", "reasonName": "globalInteractionReason"}]}, "venue": {"id": "5c152e49033693002c729a8c", "name": "Small Block", "location": {"lat": 52.519109, "lng": 13.450669, "labeledLatLngs": [{"label": "display", "lat": 52.519109, "lng": 13.450669}], "distance": 956, "cc": "DE", "city": "Berlin", "state": "Berlin", "country": "Deutschland", "formattedAddress": ["Berlin", "Deutschland"]}, "categories": [{"id": "4bf58dd8d48988d16d941735", "name": "Caf\u00e9", "pluralName": "Caf\u00e9s", "shortName": "Caf\u00e9", "icon": {"prefix": "https://ss3.4sqi.net/img/categories_v2/food/cafe_", "suffix": ".png"}, "primary": true}], "photos": {"count": 0, "groups": []}}, "referralId": "e-0-5c152e49033693002c729a8c-40"}, {"reasons": {"count": 0, "items": [{"summary": "This spot is popular", "type": "general", "reasonName": "globalInteractionReason"}]}, "venue": {"id": "4bf79c81b182c9b6140c765a", "name": "Ristorante Vesuvio Trattoria", "location": {"address": "Strausberger Platz 8", "lat": 52.51863059281663, "lng": 13.428923249145129, "labeledLatLngs": [{"label": "display", "lat": 52.51863059281663, "lng": 13.428923249145129}], "distance": 797, "postalCode": "10243", "cc": "DE", "city": "Berlin", "state": "Berlin", "country": "Deutschland", "formattedAddress": ["Strausberger Platz 8", "10243 Berlin", "Deutschland"]}, "categories": [{"id": "55a5a1ebe4b013909087cb7f", "name": "Trattoria/Osteria", "pluralName": "Trattorias/Osterias", "shortName": "Trattoria/Osteria", "icon": {"prefix": "https://ss3.4sqi.net/img/categories_v2/food/italian_", "suffix": ".png"}, "primary": true}], "photos": {"count": 0, "groups": []}, "venuePage": {"id": "566888442"}}, "referralId": "e-0-4bf79c81b182c9b6140c765a-41"}, {"reasons": {"count": 0, "items": [{"summary": "This spot is popular", "type": "general", "reasonName": "globalInteractionReason"}]}, "venue": {"id": "50420dd5e4b08d5b622377e4", "name": "Kahrmann's Own", "location": {"address": "B\u00f6tzowstr. 21", "crossStreet": "Hufelandstrasse", "lat": 52.53090414997427, "lng": 13.433274343253295, "labeledLatLngs": [{"label": "display", "lat": 52.53090414997427, "lng": 13.433274343253295}], "distance": 931, "postalCode": "10407", "cc": "DE", "city": "Berlin", "state": "Berlin", "country": "Deutschland", "formattedAddress": ["B\u00f6tzowstr. 21 (Hufelandstrasse)", "10407 Berlin", "Deutschland"]}, "categories": [{"id": "4bf58dd8d48988d16d941735", "name": "Caf\u00e9", "pluralName": "Caf\u00e9s", "shortName": "Caf\u00e9", "icon": {"prefix": "https://ss3.4sqi.net/img/categories_v2/food/cafe_", "suffix": ".png"}, "primary": true}], "photos": {"count": 0, "groups": []}, "venuePage": {"id": "49498767"}}, "referralId": "e-0-50420dd5e4b08d5b622377e4-42"}, {"reasons": {"count": 0, "items": [{"summary": "This spot is popular", "type": "general", "reasonName": "globalInteractionReason"}]}, "venue": {"id": "4b9109cdf964a52059a033e3", "name": "Xigon - vietnam & asiatische esskunst", "location": {"address": "Petersburger Platz 2", "crossStreet": "Stra\u00dfmannstrasse", "lat": 52.521748486356984, "lng": 13.449900478913884, "labeledLatLngs": [{"label": "display", "lat": 52.521748486356984, "lng": 13.449900478913884}], "distance": 809, "postalCode": "10249", "cc": "DE", "city": "Berlin", "state": "Berlin", "country": "Deutschland", "formattedAddress": ["Petersburger Platz 2 (Stra\u00dfmannstrasse)", "10249 Berlin", "Deutschland"]}, "categories": [{"id": "4bf58dd8d48988d14a941735", "name": "Vietnamese Restaurant", "pluralName": "Vietnamese Restaurants", "shortName": "Vietnamese", "icon": {"prefix": "https://ss3.4sqi.net/img/categories_v2/food/vietnamese_", "suffix": ".png"}, "primary": true}], "photos": {"count": 0, "groups": []}}, "referralId": "e-0-4b9109cdf964a52059a033e3-43"}, {"reasons": {"count": 0, "items": [{"summary": "This spot is popular", "type": "general", "reasonName": "globalInteractionReason"}]}, "venue": {"id": "4adcda7af964a520164721e3", "name": "Pavillon", "location": {"address": "Friedenstr. 101", "crossStreet": "Volkspark Friedrichshain", "lat": 52.524985010239455, "lng": 13.432064962829257, "labeledLatLngs": [{"label": "display", "lat": 52.524985010239455, "lng": 13.432064962829257}], "distance": 463, "postalCode": "10249", "cc": "DE", "city": "Berlin", "state": "Berlin", "country": "Deutschland", "formattedAddress": ["Friedenstr. 101 (Volkspark Friedrichshain)", "10249 Berlin", "Deutschland"]}, "categories": [{"id": "4bf58dd8d48988d117941735", "name": "Beer Garden", "pluralName": "Beer Gardens", "shortName": "Beer Garden", "icon": {"prefix": "https://ss3.4sqi.net/img/categories_v2/nightlife/beergarden_", "suffix": ".png"}, "primary": true}], "photos": {"count": 0, "groups": []}}, "referralId": "e-0-4adcda7af964a520164721e3-44"}, {"reasons": {"count": 0, "items": [{"summary": "This spot is popular", "type": "general", "reasonName": "globalInteractionReason"}]}, "venue": {"id": "5083ae1ce4b0361f67112388", "name": "Kleiner Bunkerberg", "location": {"address": "Am Friedrichshain", "crossStreet": "Virchowstr.", "lat": 52.528036707636275, "lng": 13.436351093489924, "labeledLatLngs": [{"label": "display", "lat": 52.528036707636275, "lng": 13.436351093489924}], "distance": 565, "postalCode": "10249", "cc": "DE", "city": "Berlin", "state": "Berlin", "country": "Deutschland", "formattedAddress": ["Am Friedrichshain (Virchowstr.)", "10249 Berlin", "Deutschland"]}, "categories": [{"id": "4eb1d4d54b900d56c88a45fc", "name": "Mountain", "pluralName": "Mountains", "shortName": "Mountain", "icon": {"prefix": "https://ss3.4sqi.net/img/categories_v2/parks_outdoors/mountain_", "suffix": ".png"}, "primary": true}], "photos": {"count": 0, "groups": []}}, "referralId": "e-0-5083ae1ce4b0361f67112388-45"}, {"reasons": {"count": 0, "items": [{"summary": "This spot is popular", "type": "general", "reasonName": "globalInteractionReason"}]}, "venue": {"id": "4c0229160d0e0f4715cb009a", "name": "LEKR", "location": {"address": "B\u00f6tzowstr. 23", "lat": 52.5312622324579, "lng": 13.433425255575496, "labeledLatLngs": [{"label": "display", "lat": 52.5312622324579, "lng": 13.433425255575496}], "distance": 965, "postalCode": "10407", "cc": "DE", "city": "Berlin", "state": "Berlin", "country": "Deutschland", "formattedAddress": ["B\u00f6tzowstr. 23", "10407 Berlin", "Deutschland"]}, "categories": [{"id": "4bf58dd8d48988d118951735", "name": "Grocery Store", "pluralName": "Grocery Stores", "shortName": "Grocery Store", "icon": {"prefix": "https://ss3.4sqi.net/img/categories_v2/shops/food_grocery_", "suffix": ".png"}, "primary": true}], "photos": {"count": 0, "groups": []}}, "referralId": "e-0-4c0229160d0e0f4715cb009a-46"}, {"reasons": {"count": 0, "items": [{"summary": "This spot is popular", "type": "general", "reasonName": "globalInteractionReason"}]}, "venue": {"id": "595bcbf2464d651c9a255f2d", "name": "Pizza Koons - Fhain", "location": {"address": "Ebertystr. 4", "lat": 52.526661, "lng": 13.451162, "labeledLatLngs": [{"label": "display", "lat": 52.526661, "lng": 13.451162}], "distance": 967, "postalCode": "10249", "cc": "DE", "city": "Berlin", "state": "Berlin", "country": "Deutschland", "formattedAddress": ["Ebertystr. 4", "10249 Berlin", "Deutschland"]}, "categories": [{"id": "4bf58dd8d48988d1ca941735", "name": "Pizza Place", "pluralName": "Pizza Places", "shortName": "Pizza", "icon": {"prefix": "https://ss3.4sqi.net/img/categories_v2/food/pizza_", "suffix": ".png"}, "primary": true}], "photos": {"count": 0, "groups": []}}, "referralId": "e-0-595bcbf2464d651c9a255f2d-47"}, {"reasons": {"count": 0, "items": [{"summary": "This spot is popular", "type": "general", "reasonName": "globalInteractionReason"}]}, "venue": {"id": "4bdf36b6ffdec928851feba1", "name": "Zimt und Zunder", "location": {"address": "Stra\u00dfmannstr. 30", "lat": 52.52269575377686, "lng": 13.45179312184393, "labeledLatLngs": [{"label": "display", "lat": 52.52269575377686, "lng": 13.45179312184393}], "distance": 924, "postalCode": "10249", "cc": "DE", "city": "Berlin", "state": "Berlin", "country": "Deutschland", "formattedAddress": ["Stra\u00dfmannstr. 30", "10249 Berlin", "Deutschland"]}, "categories": [{"id": "4bf58dd8d48988d116941735", "name": "Bar", "pluralName": "Bars", "shortName": "Bar", "icon": {"prefix": "https://ss3.4sqi.net/img/categories_v2/nightlife/pub_", "suffix": ".png"}, "primary": true}], "photos": {"count": 0, "groups": []}}, "referralId": "e-0-4bdf36b6ffdec928851feba1-48"}, {"reasons": {"count": 0, "items": [{"summary": "This spot is popular", "type": "general", "reasonName": "globalInteractionReason"}]}, "venue": {"id": "507af394582f7e3f07cd3319", "name": "ehem. Karl-Marx-Buchhandlung", "location": {"address": "Karl-Marx-Allee 78", "lat": 52.51728436779343, "lng": 13.438109188993739, "labeledLatLngs": [{"label": "display", "lat": 52.51728436779343, "lng": 13.438109188993739}], "distance": 645, "postalCode": "10243", "cc": "DE", "city": "Berlin", "state": "Berlin", "country": "Deutschland", "formattedAddress": ["Karl-Marx-Allee 78", "10243 Berlin", "Deutschland"]}, "categories": [{"id": "4deefb944765f83613cdba6e", "name": "Historic Site", "pluralName": "Historic Sites", "shortName": "Historic Site", "icon": {"prefix": "https://ss3.4sqi.net/img/categories_v2/arts_entertainment/historicsite_", "suffix": ".png"}, "primary": true}], "photos": {"count": 0, "groups": []}}, "referralId": "e-0-507af394582f7e3f07cd3319-49"}, {"reasons": {"count": 0, "items": [{"summary": "This spot is popular", "type": "general", "reasonName": "globalInteractionReason"}]}, "venue": {"id": "4b6e8925f964a5200fc12ce3", "name": "Caf\u00e9 B\u00e4ckerei Olive", "location": {"address": "Stra\u00dfmannstr. 5", "lat": 52.52178965550562, "lng": 13.447676002979277, "labeledLatLngs": [{"label": "display", "lat": 52.52178965550562, "lng": 13.447676002979277}], "distance": 660, "postalCode": "10249", "cc": "DE", "city": "Berlin", "state": "Berlin", "country": "Deutschland", "formattedAddress": ["Stra\u00dfmannstr. 5", "10249 Berlin", "Deutschland"]}, "categories": [{"id": "4bf58dd8d48988d16a941735", "name": "Bakery", "pluralName": "Bakeries", "shortName": "Bakery", "icon": {"prefix": "https://ss3.4sqi.net/img/categories_v2/food/bakery_", "suffix": ".png"}, "primary": true}], "photos": {"count": 0, "groups": []}}, "referralId": "e-0-4b6e8925f964a5200fc12ce3-50"}, {"reasons": {"count": 0, "items": [{"summary": "This spot is popular", "type": "general", "reasonName": "globalInteractionReason"}]}, "venue": {"id": "4d7b2c48da568cfae00d4cff", "name": "Altberliner B\u00e4ckerei", "location": {"address": "Strausberger Str. 46", "lat": 52.52200508109163, "lng": 13.432588577270508, "labeledLatLngs": [{"label": "display", "lat": 52.52200508109163, "lng": 13.432588577270508}], "distance": 395, "postalCode": "10243", "cc": "DE", "city": "Berlin", "state": "Berlin", "country": "Deutschland", "formattedAddress": ["Strausberger Str. 46", "10243 Berlin", "Deutschland"]}, "categories": [{"id": "4bf58dd8d48988d16a941735", "name": "Bakery", "pluralName": "Bakeries", "shortName": "Bakery", "icon": {"prefix": "https://ss3.4sqi.net/img/categories_v2/food/bakery_", "suffix": ".png"}, "primary": true}], "photos": {"count": 0, "groups": []}}, "referralId": "e-0-4d7b2c48da568cfae00d4cff-51"}, {"reasons": {"count": 0, "items": [{"summary": "This spot is popular", "type": "general", "reasonName": "globalInteractionReason"}]}, "venue": {"id": "4dbbe4391e72b351caa40af1", "name": "Petersburger Platz", "location": {"address": "Petersburger Platz", "crossStreet": "M\u00fchsamstra\u00dfe", "lat": 52.52138040879472, "lng": 13.450418687219699, "labeledLatLngs": [{"label": "display", "lat": 52.52138040879472, "lng": 13.450418687219699}], "distance": 852, "cc": "DE", "city": "Berlin", "state": "Berlin", "country": "Deutschland", "formattedAddress": ["Petersburger Platz (M\u00fchsamstra\u00dfe)", "Berlin", "Deutschland"]}, "categories": [{"id": "4bf58dd8d48988d164941735", "name": "Plaza", "pluralName": "Plazas", "shortName": "Plaza", "icon": {"prefix": "https://ss3.4sqi.net/img/categories_v2/parks_outdoors/plaza_", "suffix": ".png"}, "primary": true}], "photos": {"count": 0, "groups": []}}, "referralId": "e-0-4dbbe4391e72b351caa40af1-52"}, {"reasons": {"count": 0, "items": [{"summary": "This spot is popular", "type": "general", "reasonName": "globalInteractionReason"}]}, "venue": {"id": "4c0ba4bcffb8c9b639806d61", "name": "Knorke", "location": {"address": "B\u00f6tzowstra\u00dfe 18", "lat": 52.530607004648665, "lng": 13.432820058176185, "labeledLatLngs": [{"label": "display", "lat": 52.530607004648665, "lng": 13.432820058176185}], "distance": 912, "postalCode": "10407", "cc": "DE", "city": "Berlin", "state": "Berlin", "country": "Deutschland", "formattedAddress": ["B\u00f6tzowstra\u00dfe 18", "10407 Berlin", "Deutschland"]}, "categories": [{"id": "4bf58dd8d48988d16d941735", "name": "Caf\u00e9", "pluralName": "Caf\u00e9s", "shortName": "Caf\u00e9", "icon": {"prefix": "https://ss3.4sqi.net/img/categories_v2/food/cafe_", "suffix": ".png"}, "primary": true}], "photos": {"count": 0, "groups": []}}, "referralId": "e-0-4c0ba4bcffb8c9b639806d61-53"}, {"reasons": {"count": 0, "items": [{"summary": "This spot is popular", "type": "general", "reasonName": "globalInteractionReason"}]}, "venue": {"id": "4e2b36f7d4c0e5c89ac26b08", "name": "Tia Maria", "location": {"lat": 52.519771775636876, "lng": 13.448070849814355, "labeledLatLngs": [{"label": "display", "lat": 52.519771775636876, "lng": 13.448070849814355}], "distance": 766, "cc": "DE", "city": "Berlin", "state": "Berlin", "country": "Deutschland", "formattedAddress": ["Berlin", "Deutschland"]}, "categories": [{"id": "4bf58dd8d48988d110941735", "name": "Italian Restaurant", "pluralName": "Italian Restaurants", "shortName": "Italian", "icon": {"prefix": "https://ss3.4sqi.net/img/categories_v2/food/italian_", "suffix": ".png"}, "primary": true}], "photos": {"count": 0, "groups": []}}, "referralId": "e-0-4e2b36f7d4c0e5c89ac26b08-54"}, {"reasons": {"count": 0, "items": [{"summary": "This spot is popular", "type": "general", "reasonName": "globalInteractionReason"}]}, "venue": {"id": "4bed6f2d91380f4705dd9f18", "name": "Strausberger Platz", "location": {"address": "Karl-Marx-Allee", "crossStreet": "Lichtenberger Str.", "lat": 52.518462, "lng": 13.428307, "labeledLatLngs": [{"label": "display", "lat": 52.518462, "lng": 13.428307}], "distance": 842, "postalCode": "10243", "cc": "DE", "city": "Berlin", "state": "Berlin", "country": "Deutschland", "formattedAddress": ["Karl-Marx-Allee (Lichtenberger Str.)", "10243 Berlin", "Deutschland"]}, "categories": [{"id": "4bf58dd8d48988d164941735", "name": "Plaza", "pluralName": "Plazas", "shortName": "Plaza", "icon": {"prefix": "https://ss3.4sqi.net/img/categories_v2/parks_outdoors/plaza_", "suffix": ".png"}, "primary": true}], "photos": {"count": 0, "groups": []}}, "referralId": "e-0-4bed6f2d91380f4705dd9f18-55"}, {"reasons": {"count": 0, "items": [{"summary": "This spot is popular", "type": "general", "reasonName": "globalInteractionReason"}]}, "venue": {"id": "4cb8744ea33bb1f7ae2481fd", "name": "bei Jens und Viola", "location": {"address": "Ebertystr. 49", "lat": 52.525645302732954, "lng": 13.451554899599062, "labeledLatLngs": [{"label": "display", "lat": 52.525645302732954, "lng": 13.451554899599062}], "distance": 951, "postalCode": "10249", "cc": "DE", "city": "Berlin", "state": "Berlin", "country": "Deutschland", "formattedAddress": ["Ebertystr. 49", "10249 Berlin", "Deutschland"]}, "categories": [{"id": "4bf58dd8d48988d1d0941735", "name": "Dessert Shop", "pluralName": "Dessert Shops", "shortName": "Desserts", "icon": {"prefix": "https://ss3.4sqi.net/img/categories_v2/food/dessert_", "suffix": ".png"}, "primary": true}], "photos": {"count": 0, "groups": []}}, "referralId": "e-0-4cb8744ea33bb1f7ae2481fd-56"}, {"reasons": {"count": 0, "items": [{"summary": "This spot is popular", "type": "general", "reasonName": "globalInteractionReason"}]}, "venue": {"id": "5a6b7c6dff19023776adf47b", "name": "REWE", "location": {"address": "Landsberger Allee 68d", "crossStreet": "Petersburger Str.", "lat": 52.52585135, "lng": 13.44702808, "labeledLatLngs": [{"label": "display", "lat": 52.52585135, "lng": 13.44702808}], "distance": 675, "postalCode": "10249", "cc": "DE", "city": "Berlin", "state": "Berlin", "country": "Deutschland", "formattedAddress": ["Landsberger Allee 68d (Petersburger Str.)", "10249 Berlin", "Deutschland"]}, "categories": [{"id": "52f2ab2ebcbc57f1066b8b46", "name": "Supermarket", "pluralName": "Supermarkets", "shortName": "Supermarket", "icon": {"prefix": "https://ss3.4sqi.net/img/categories_v2/shops/food_grocery_", "suffix": ".png"}, "primary": true}], "photos": {"count": 0, "groups": []}, "venuePage": {"id": "559118432"}}, "referralId": "e-0-5a6b7c6dff19023776adf47b-57"}, {"reasons": {"count": 0, "items": [{"summary": "This spot is popular", "type": "general", "reasonName": "globalInteractionReason"}]}, "venue": {"id": "4c07f8df009a0f477a5ce5bf", "name": "Sommergarten am FaF", "location": {"address": "B\u00f6tzowstra\u00dfe 1", "lat": 52.52922818493385, "lng": 13.43029830544499, "labeledLatLngs": [{"label": "display", "lat": 52.52922818493385, "lng": 13.43029830544499}], "distance": 866, "cc": "DE", "city": "Berlin", "state": "Berlin", "country": "Deutschland", "formattedAddress": ["B\u00f6tzowstra\u00dfe 1", "Berlin", "Deutschland"]}, "categories": [{"id": "4bf58dd8d48988d117941735", "name": "Beer Garden", "pluralName": "Beer Gardens", "shortName": "Beer Garden", "icon": {"prefix": "https://ss3.4sqi.net/img/categories_v2/nightlife/beergarden_", "suffix": ".png"}, "primary": true}], "photos": {"count": 0, "groups": []}}, "referralId": "e-0-4c07f8df009a0f477a5ce5bf-58"}, {"reasons": {"count": 0, "items": [{"summary": "This spot is popular", "type": "general", "reasonName": "globalInteractionReason"}]}, "venue": {"id": "5751953b498e7cf9f3749be0", "name": "Langosch", "location": {"lat": 52.521979, "lng": 13.449657, "labeledLatLngs": [{"label": "display", "lat": 52.521979, "lng": 13.449657}], "distance": 788, "cc": "DE", "city": "Berlin", "state": "Berlin", "country": "Deutschland", "formattedAddress": ["Berlin", "Deutschland"]}, "categories": [{"id": "52e81612bcbc57f1066b79f9", "name": "Modern European Restaurant", "pluralName": "Modern European Restaurants", "shortName": "Modern European", "icon": {"prefix": "https://ss3.4sqi.net/img/categories_v2/food/default_", "suffix": ".png"}, "primary": true}], "photos": {"count": 0, "groups": []}}, "referralId": "e-0-5751953b498e7cf9f3749be0-59"}, {"reasons": {"count": 0, "items": [{"summary": "This spot is popular", "type": "general", "reasonName": "globalInteractionReason"}]}, "venue": {"id": "54a891aa498e83d7144295cc", "name": "Fairytale", "location": {"address": "Am Friedrichshain 24", "lat": 52.52856867159962, "lng": 13.428241232598793, "labeledLatLngs": [{"label": "display", "lat": 52.52856867159962, "lng": 13.428241232598793}], "distance": 907, "postalCode": "10407", "cc": "DE", "city": "Berlin", "state": "Berlin", "country": "Deutschland", "formattedAddress": ["Am Friedrichshain 24", "10407 Berlin", "Deutschland"]}, "categories": [{"id": "4bf58dd8d48988d11e941735", "name": "Cocktail Bar", "pluralName": "Cocktail Bars", "shortName": "Cocktail", "icon": {"prefix": "https://ss3.4sqi.net/img/categories_v2/nightlife/cocktails_", "suffix": ".png"}, "primary": true}], "photos": {"count": 0, "groups": []}}, "referralId": "e-0-54a891aa498e83d7144295cc-60"}, {"reasons": {"count": 0, "items": [{"summary": "This spot is popular", "type": "general", "reasonName": "globalInteractionReason"}]}, "venue": {"id": "4adcda8cf964a5200f4a21e3", "name": "Berliner Kriminal Theater", "location": {"address": "Palisadenstr. 48", "lat": 52.518181271792784, "lng": 13.439904724300069, "labeledLatLngs": [{"label": "display", "lat": 52.518181271792784, "lng": 13.439904724300069}], "distance": 558, "postalCode": "10243", "cc": "DE", "city": "Berlin", "state": "Berlin", "country": "Deutschland", "formattedAddress": ["Palisadenstr. 48", "10243 Berlin", "Deutschland"]}, "categories": [{"id": "4bf58dd8d48988d137941735", "name": "Theater", "pluralName": "Theaters", "shortName": "Theater", "icon": {"prefix": "https://ss3.4sqi.net/img/categories_v2/arts_entertainment/performingarts_theater_", "suffix": ".png"}, "primary": true}], "photos": {"count": 0, "groups": []}}, "referralId": "e-0-4adcda8cf964a5200f4a21e3-61"}, {"reasons": {"count": 0, "items": [{"summary": "This spot is popular", "type": "general", "reasonName": "globalInteractionReason"}]}, "venue": {"id": "518bbee5498eb850767039c2", "name": "James June", "location": {"address": "Karl-Marx-Allee 93", "crossStreet": "Stra\u00dfe der Pariser Kommune", "lat": 52.51759354207551, "lng": 13.44109803185832, "labeledLatLngs": [{"label": "display", "lat": 52.51759354207551, "lng": 13.44109803185832}], "distance": 642, "postalCode": "10243", "cc": "DE", "city": "Berlin", "state": "Berlin", "country": "Deutschland", "formattedAddress": ["Karl-Marx-Allee 93 (Stra\u00dfe der Pariser Kommune)", "10243 Berlin", "Deutschland"]}, "categories": [{"id": "4bf58dd8d48988d117941735", "name": "Beer Garden", "pluralName": "Beer Gardens", "shortName": "Beer Garden", "icon": {"prefix": "https://ss3.4sqi.net/img/categories_v2/nightlife/beergarden_", "suffix": ".png"}, "primary": true}], "photos": {"count": 0, "groups": []}}, "referralId": "e-0-518bbee5498eb850767039c2-62"}, {"reasons": {"count": 0, "items": [{"summary": "This spot is popular", "type": "general", "reasonName": "globalInteractionReason"}]}, "venue": {"id": "5020d289e4b0aa8c3250e14e", "name": "Rossmann", "location": {"address": "Karl-Marx-Allee 86", "lat": 52.517242446024156, "lng": 13.43924831196027, "labeledLatLngs": [{"label": "display", "lat": 52.517242446024156, "lng": 13.43924831196027}], "distance": 654, "postalCode": "10243", "cc": "DE", "city": "Berlin", "state": "Berlin", "country": "Deutschland", "formattedAddress": ["Karl-Marx-Allee 86", "10243 Berlin", "Deutschland"]}, "categories": [{"id": "5745c2e4498e11e7bccabdbd", "name": "Drugstore", "pluralName": "Drugstores", "shortName": "Drugstore", "icon": {"prefix": "https://ss3.4sqi.net/img/categories_v2/shops/pharmacy_", "suffix": ".png"}, "primary": true}], "photos": {"count": 0, "groups": []}}, "referralId": "e-0-5020d289e4b0aa8c3250e14e-63"}, {"reasons": {"count": 0, "items": [{"summary": "This spot is popular", "type": "general", "reasonName": "globalInteractionReason"}]}, "venue": {"id": "51a8a87a498ee9ab23ccad82", "name": "KGB:Bioladen", "location": {"address": "Ebertystr. 51", "lat": 52.52605980834528, "lng": 13.451438168084284, "labeledLatLngs": [{"label": "display", "lat": 52.52605980834528, "lng": 13.451438168084284}], "distance": 959, "postalCode": "10249", "cc": "DE", "city": "Berlin", "state": "Berlin", "country": "Deutschland", "formattedAddress": ["Ebertystr. 51", "10249 Berlin", "Deutschland"]}, "categories": [{"id": "52f2ab2ebcbc57f1066b8b45", "name": "Organic Grocery", "pluralName": "Organic Groceries", "shortName": "Organic Grocery", "icon": {"prefix": "https://ss3.4sqi.net/img/categories_v2/shops/food_grocery_", "suffix": ".png"}, "primary": true}], "photos": {"count": 0, "groups": []}}, "referralId": "e-0-51a8a87a498ee9ab23ccad82-64"}, {"reasons": {"count": 0, "items": [{"summary": "This spot is popular", "type": "general", "reasonName": "globalInteractionReason"}]}, "venue": {"id": "5184e94a498ee8df01d690f4", "name": "Kosan Caf\u00e9 & B\u00e4ckerei", "location": {"address": "Karl-Marx-Allee 123", "lat": 52.516836688484595, "lng": 13.447888056902215, "labeledLatLngs": [{"label": "display", "lat": 52.516836688484595, "lng": 13.447888056902215}], "distance": 958, "postalCode": "10243", "cc": "DE", "city": "Berlin", "state": "Berlin", "country": "Deutschland", "formattedAddress": ["Karl-Marx-Allee 123", "10243 Berlin", "Deutschland"]}, "categories": [{"id": "4bf58dd8d48988d1e0931735", "name": "Coffee Shop", "pluralName": "Coffee Shops", "shortName": "Coffee Shop", "icon": {"prefix": "https://ss3.4sqi.net/img/categories_v2/food/coffeeshop_", "suffix": ".png"}, "primary": true}], "photos": {"count": 0, "groups": []}}, "referralId": "e-0-5184e94a498ee8df01d690f4-65"}, {"reasons": {"count": 0, "items": [{"summary": "This spot is popular", "type": "general", "reasonName": "globalInteractionReason"}]}, "venue": {"id": "4c4f0dd2fb742d7fa6f1502f", "name": "Restaurant Haus Berlin", "location": {"address": "Strausberger  Platz 1", "lat": 52.51919858880218, "lng": 13.426562961884635, "labeledLatLngs": [{"label": "display", "lat": 52.51919858880218, "lng": 13.426562961884635}], "distance": 896, "postalCode": "10243", "cc": "DE", "city": "Berlin", "state": "Berlin", "country": "Deutschland", "formattedAddress": ["Strausberger  Platz 1", "10243 Berlin", "Deutschland"]}, "categories": [{"id": "4bf58dd8d48988d1c4941735", "name": "Restaurant", "pluralName": "Restaurants", "shortName": "Restaurant", "icon": {"prefix": "https://ss3.4sqi.net/img/categories_v2/food/default_", "suffix": ".png"}, "primary": true}], "photos": {"count": 0, "groups": []}}, "referralId": "e-0-4c4f0dd2fb742d7fa6f1502f-66"}, {"reasons": {"count": 0, "items": [{"summary": "This spot is popular", "type": "general", "reasonName": "globalInteractionReason"}]}, "venue": {"id": "4ba4f500f964a5206dc838e3", "name": "Lidl", "location": {"address": "Friedenstr. 94 a", "lat": 52.52242, "lng": 13.43514, "labeledLatLngs": [{"label": "display", "lat": 52.52242, "lng": 13.43514}], "distance": 216, "postalCode": "10249", "cc": "DE", "city": "Berlin", "state": "Berlin", "country": "Deutschland", "formattedAddress": ["Friedenstr. 94 a", "10249 Berlin", "Deutschland"]}, "categories": [{"id": "52f2ab2ebcbc57f1066b8b46", "name": "Supermarket", "pluralName": "Supermarkets", "shortName": "Supermarket", "icon": {"prefix": "https://ss3.4sqi.net/img/categories_v2/shops/food_grocery_", "suffix": ".png"}, "primary": true}], "photos": {"count": 0, "groups": []}, "venuePage": {"id": "580264644"}}, "referralId": "e-0-4ba4f500f964a5206dc838e3-67"}, {"reasons": {"count": 0, "items": [{"summary": "This spot is popular", "type": "general", "reasonName": "globalInteractionReason"}]}, "venue": {"id": "5193dc8f498ec9f598f77537", "name": "Helga", "location": {"address": "Stra\u00dfmannstra\u00dfe 31", "lat": 52.52274194103192, "lng": 13.451990706998556, "labeledLatLngs": [{"label": "display", "lat": 52.52274194103192, "lng": 13.451990706998556}], "distance": 938, "postalCode": "10249", "cc": "DE", "city": "Berlin", "state": "Berlin", "country": "Deutschland", "formattedAddress": ["Stra\u00dfmannstra\u00dfe 31", "10249 Berlin", "Deutschland"]}, "categories": [{"id": "4bf58dd8d48988d1c4941735", "name": "Restaurant", "pluralName": "Restaurants", "shortName": "Restaurant", "icon": {"prefix": "https://ss3.4sqi.net/img/categories_v2/food/default_", "suffix": ".png"}, "primary": true}], "photos": {"count": 0, "groups": []}}, "referralId": "e-0-5193dc8f498ec9f598f77537-68"}, {"reasons": {"count": 0, "items": [{"summary": "This spot is popular", "type": "general", "reasonName": "globalInteractionReason"}]}, "venue": {"id": "4ba87757f964a52023dc39e3", "name": "Victor's Residenz Hotel Berlin", "location": {"address": "Am Friedrichshain 17", "lat": 52.5288415150445, "lng": 13.42871421141673, "labeledLatLngs": [{"label": "display", "lat": 52.5288415150445, "lng": 13.42871421141673}], "distance": 905, "postalCode": "10407", "cc": "DE", "city": "Berlin", "state": "Berlin", "country": "Deutschland", "formattedAddress": ["Am Friedrichshain 17", "10407 Berlin", "Deutschland"]}, "categories": [{"id": "4bf58dd8d48988d1fa931735", "name": "Hotel", "pluralName": "Hotels", "shortName": "Hotel", "icon": {"prefix": "https://ss3.4sqi.net/img/categories_v2/travel/hotel_", "suffix": ".png"}, "primary": true}], "photos": {"count": 0, "groups": []}}, "referralId": "e-0-4ba87757f964a52023dc39e3-69"}, {"reasons": {"count": 0, "items": [{"summary": "This spot is popular", "type": "general", "reasonName": "globalInteractionReason"}]}, "venue": {"id": "597c9fbd3b830715fc9bece3", "name": "Happy Food", "location": {"address": "Danziger Str. 245", "crossStreet": "Landsberger Allee", "lat": 52.52660603545047, "lng": 13.447684247360502, "labeledLatLngs": [{"label": "display", "lat": 52.52660603545047, "lng": 13.447684247360502}], "distance": 755, "postalCode": "10407", "cc": "DE", "neighborhood": "Storkower Stra\u00dfe", "city": "Berlin", "state": "Berlin", "country": "Deutschland", "formattedAddress": ["Danziger Str. 245 (Landsberger Allee)", "10407 Berlin", "Deutschland"]}, "categories": [{"id": "5283c7b4e4b094cb91ec88d8", "name": "Doner Restaurant", "pluralName": "Doner Restaurants", "shortName": "Doner", "icon": {"prefix": "https://ss3.4sqi.net/img/categories_v2/food/turkish_", "suffix": ".png"}, "primary": true}], "photos": {"count": 0, "groups": []}}, "referralId": "e-0-597c9fbd3b830715fc9bece3-70"}, {"reasons": {"count": 0, "items": [{"summary": "This spot is popular", "type": "general", "reasonName": "globalInteractionReason"}]}, "venue": {"id": "4bc580dd0a30d13afd1b5a9c", "name": "B\u00e4ckerei & Bistro", "location": {"address": "Stra\u00dfmannstra\u00dfe 23", "crossStreet": "Petersburger Stra\u00dfe", "lat": 52.52250409634135, "lng": 13.450918714346885, "labeledLatLngs": [{"label": "display", "lat": 52.52250409634135, "lng": 13.450918714346885}], "distance": 867, "postalCode": "10249", "cc": "DE", "city": "Berlin", "state": "Berlin", "country": "Deutschland", "formattedAddress": ["Stra\u00dfmannstra\u00dfe 23 (Petersburger Stra\u00dfe)", "10249 Berlin", "Deutschland"]}, "categories": [{"id": "4bf58dd8d48988d16a941735", "name": "Bakery", "pluralName": "Bakeries", "shortName": "Bakery", "icon": {"prefix": "https://ss3.4sqi.net/img/categories_v2/food/bakery_", "suffix": ".png"}, "primary": true}], "photos": {"count": 0, "groups": []}}, "referralId": "e-0-4bc580dd0a30d13afd1b5a9c-71"}, {"reasons": {"count": 0, "items": [{"summary": "This spot is popular", "type": "general", "reasonName": "globalInteractionReason"}]}, "venue": {"id": "4e0b02edd4c091ae45d78549", "name": "EDEKA Riebe", "location": {"address": "Platz der Vereinten Nationen 14", "lat": 52.52246558719172, "lng": 13.42900282272377, "labeledLatLngs": [{"label": "display", "lat": 52.52246558719172, "lng": 13.42900282272377}], "distance": 623, "postalCode": "10249", "cc": "DE", "city": "Berlin", "state": "Berlin", "country": "Deutschland", "formattedAddress": ["Platz der Vereinten Nationen 14", "10249 Berlin", "Deutschland"]}, "categories": [{"id": "52f2ab2ebcbc57f1066b8b46", "name": "Supermarket", "pluralName": "Supermarkets", "shortName": "Supermarket", "icon": {"prefix": "https://ss3.4sqi.net/img/categories_v2/shops/food_grocery_", "suffix": ".png"}, "primary": true}], "photos": {"count": 0, "groups": []}, "venuePage": {"id": "556249073"}}, "referralId": "e-0-4e0b02edd4c091ae45d78549-72"}, {"reasons": {"count": 0, "items": [{"summary": "This spot is popular", "type": "general", "reasonName": "globalInteractionReason"}]}, "venue": {"id": "4b74646ef964a520a8d92de3", "name": "Blue Label", "location": {"address": "B\u00f6tzowstr.7", "lat": 52.52936648091263, "lng": 13.431085525201672, "labeledLatLngs": [{"label": "display", "lat": 52.52936648091263, "lng": 13.431085525201672}], "distance": 847, "postalCode": "10407", "cc": "DE", "city": "Berlin", "state": "Berlin", "country": "Deutschland", "formattedAddress": ["B\u00f6tzowstr.7", "10407 Berlin", "Deutschland"]}, "categories": [{"id": "4bf58dd8d48988d10d941735", "name": "German Restaurant", "pluralName": "German Restaurants", "shortName": "German", "icon": {"prefix": "https://ss3.4sqi.net/img/categories_v2/food/german_", "suffix": ".png"}, "primary": true}], "photos": {"count": 0, "groups": []}}, "referralId": "e-0-4b74646ef964a520a8d92de3-73"}, {"reasons": {"count": 0, "items": [{"summary": "This spot is popular", "type": "general", "reasonName": "globalInteractionReason"}]}, "venue": {"id": "4bb79e9e7421a59362c3c040", "name": "Acapulco", "location": {"address": "Karl-Marx-Allee 115", "lat": 52.517123, "lng": 13.446718, "labeledLatLngs": [{"label": "display", "lat": 52.517123, "lng": 13.446718}], "distance": 881, "postalCode": "10243", "cc": "DE", "city": "Berlin", "state": "Berlin", "country": "Deutschland", "formattedAddress": ["Karl-Marx-Allee 115", "10243 Berlin", "Deutschland"]}, "categories": [{"id": "4bf58dd8d48988d1c1941735", "name": "Mexican Restaurant", "pluralName": "Mexican Restaurants", "shortName": "Mexican", "icon": {"prefix": "https://ss3.4sqi.net/img/categories_v2/food/mexican_", "suffix": ".png"}, "primary": true}], "photos": {"count": 0, "groups": []}}, "referralId": "e-0-4bb79e9e7421a59362c3c040-74"}, {"reasons": {"count": 0, "items": [{"summary": "This spot is popular", "type": "general", "reasonName": "globalInteractionReason"}]}, "venue": {"id": "500ee45fe4b0bf5c6b364a37", "name": "Packstation 214", "location": {"address": "Landsberger Allee 63", "lat": 52.5251410709408, "lng": 13.443830318060828, "labeledLatLngs": [{"label": "display", "lat": 52.5251410709408, "lng": 13.443830318060828}], "distance": 447, "postalCode": "10249", "cc": "DE", "city": "Berlin", "state": "Berlin", "country": "Deutschland", "formattedAddress": ["Landsberger Allee 63", "10249 Berlin", "Deutschland"]}, "categories": [{"id": "52f2ab2ebcbc57f1066b8b1f", "name": "Shipping Store", "pluralName": "Shipping Stores", "shortName": "Shipping Store", "icon": {"prefix": "https://ss3.4sqi.net/img/categories_v2/shops/default_", "suffix": ".png"}, "primary": true}], "photos": {"count": 0, "groups": []}}, "referralId": "e-0-500ee45fe4b0bf5c6b364a37-75"}, {"reasons": {"count": 0, "items": [{"summary": "This spot is popular", "type": "general", "reasonName": "globalInteractionReason"}]}, "venue": {"id": "4dfcae37aeb7594e8620baf7", "name": "Rosengarten", "location": {"address": "Karl-Marx-Allee", "lat": 52.51739683282921, "lng": 13.444450655257388, "labeledLatLngs": [{"label": "display", "lat": 52.51739683282921, "lng": 13.444450655257388}], "distance": 763, "cc": "DE", "city": "Berlin", "state": "Berlin", "country": "Deutschland", "formattedAddress": ["Karl-Marx-Allee", "Berlin", "Deutschland"]}, "categories": [{"id": "4bf58dd8d48988d163941735", "name": "Park", "pluralName": "Parks", "shortName": "Park", "icon": {"prefix": "https://ss3.4sqi.net/img/categories_v2/parks_outdoors/park_", "suffix": ".png"}, "primary": true}], "photos": {"count": 0, "groups": []}}, "referralId": "e-0-4dfcae37aeb7594e8620baf7-76"}, {"reasons": {"count": 0, "items": [{"summary": "This spot is popular", "type": "general", "reasonName": "globalInteractionReason"}]}, "venue": {"id": "4be2efe2660ec928c3a0ca3b", "name": "Alpha Copyservice", "location": {"address": "Karl-Marx-Allee 53", "lat": 52.5184909836995, "lng": 13.42995308262954, "labeledLatLngs": [{"label": "display", "lat": 52.5184909836995, "lng": 13.42995308262954}], "distance": 754, "postalCode": "10243", "cc": "DE", "city": "Berlin", "state": "Berlin", "country": "Deutschland", "formattedAddress": ["Karl-Marx-Allee 53", "10243 Berlin", "Deutschland"]}, "categories": [{"id": "52f2ab2ebcbc57f1066b8b28", "name": "Print Shop", "pluralName": "Print Shops", "shortName": "Print Shop", "icon": {"prefix": "https://ss3.4sqi.net/img/categories_v2/shops/default_", "suffix": ".png"}, "primary": true}], "photos": {"count": 0, "groups": []}}, "referralId": "e-0-4be2efe2660ec928c3a0ca3b-77"}, {"reasons": {"count": 0, "items": [{"summary": "This spot is popular", "type": "general", "reasonName": "globalInteractionReason"}]}, "venue": {"id": "4ba3b38ef964a520135638e3", "name": "Il Gelataio", "location": {"address": "Am Friedrichshain 6", "lat": 52.52969581063523, "lng": 13.435080700502835, "labeledLatLngs": [{"label": "display", "lat": 52.52969581063523, "lng": 13.435080700502835}], "distance": 765, "postalCode": "10407", "cc": "DE", "city": "Berlin", "state": "Berlin", "country": "Deutschland", "formattedAddress": ["Am Friedrichshain 6", "10407 Berlin", "Deutschland"]}, "categories": [{"id": "4bf58dd8d48988d1c9941735", "name": "Ice Cream Shop", "pluralName": "Ice Cream Shops", "shortName": "Ice Cream", "icon": {"prefix": "https://ss3.4sqi.net/img/categories_v2/food/icecream_", "suffix": ".png"}, "primary": true}], "photos": {"count": 0, "groups": []}}, "referralId": "e-0-4ba3b38ef964a520135638e3-78"}, {"reasons": {"count": 0, "items": [{"summary": "This spot is popular", "type": "general", "reasonName": "globalInteractionReason"}]}, "venue": {"id": "51e52bfd498e1f838a2f4bc4", "name": "Kiosk im Volkspark Friedrichshain", "location": {"address": "Am Schwanenteich", "lat": 52.528104083611105, "lng": 13.433613181114195, "labeledLatLngs": [{"label": "display", "lat": 52.528104083611105, "lng": 13.433613181114195}], "distance": 638, "postalCode": "10249", "cc": "DE", "city": "Berlin", "state": "Berlin", "country": "Deutschland", "formattedAddress": ["Am Schwanenteich", "10249 Berlin", "Deutschland"]}, "categories": [{"id": "4d954b0ea243a5684a65b473", "name": "Convenience Store", "pluralName": "Convenience Stores", "shortName": "Convenience Store", "icon": {"prefix": "https://ss3.4sqi.net/img/categories_v2/shops/conveniencestore_", "suffix": ".png"}, "primary": true}], "photos": {"count": 0, "groups": []}}, "referralId": "e-0-51e52bfd498e1f838a2f4bc4-79"}, {"reasons": {"count": 0, "items": [{"summary": "This spot is popular", "type": "general", "reasonName": "globalInteractionReason"}]}, "venue": {"id": "4bc63284d35d9c741054e23a", "name": "Hotel NH Berlin Alexanderplatz", "location": {"address": "Landsberger Allee 26-32", "lat": 52.522989229849024, "lng": 13.43702979879226, "labeledLatLngs": [{"label": "display", "lat": 52.522989229849024, "lng": 13.43702979879226}], "distance": 76, "postalCode": "10249", "cc": "DE", "neighborhood": "Friedrichshain, Berlin", "city": "Berlin", "state": "Berlin", "country": "Deutschland", "formattedAddress": ["Landsberger Allee 26-32", "10249 Berlin", "Deutschland"]}, "categories": [{"id": "4bf58dd8d48988d1fa931735", "name": "Hotel", "pluralName": "Hotels", "shortName": "Hotel", "icon": {"prefix": "https://ss3.4sqi.net/img/categories_v2/travel/hotel_", "suffix": ".png"}, "primary": true}], "photos": {"count": 0, "groups": []}}, "referralId": "e-0-4bc63284d35d9c741054e23a-80"}, {"reasons": {"count": 0, "items": [{"summary": "This spot is popular", "type": "general", "reasonName": "globalInteractionReason"}]}, "venue": {"id": "564637cf498e488e5d60bb6f", "name": "wok & Grill", "location": {"lat": 52.525536073027816, "lng": 13.445488099328983, "labeledLatLngs": [{"label": "display", "lat": 52.525536073027816, "lng": 13.445488099328983}], "distance": 567, "cc": "DE", "city": "Berlin", "state": "Berlin", "country": "Deutschland", "formattedAddress": ["Berlin", "Deutschland"]}, "categories": [{"id": "4bf58dd8d48988d142941735", "name": "Asian Restaurant", "pluralName": "Asian Restaurants", "shortName": "Asian", "icon": {"prefix": "https://ss3.4sqi.net/img/categories_v2/food/asian_", "suffix": ".png"}, "primary": true}], "photos": {"count": 0, "groups": []}}, "referralId": "e-0-564637cf498e488e5d60bb6f-81"}, {"reasons": {"count": 0, "items": [{"summary": "This spot is popular", "type": "general", "reasonName": "globalInteractionReason"}]}, "venue": {"id": "4b75cd05f964a520ad252ee3", "name": "Platz der Vereinten Nationen", "location": {"address": "Platz der Vereinten Nationen", "lat": 52.523265211207644, "lng": 13.43034663424009, "labeledLatLngs": [{"label": "display", "lat": 52.523265211207644, "lng": 13.43034663424009}], "distance": 529, "postalCode": "10249", "cc": "DE", "city": "Berlin", "state": "Berlin", "country": "Deutschland", "formattedAddress": ["Platz der Vereinten Nationen", "10249 Berlin", "Deutschland"]}, "categories": [{"id": "4bf58dd8d48988d164941735", "name": "Plaza", "pluralName": "Plazas", "shortName": "Plaza", "icon": {"prefix": "https://ss3.4sqi.net/img/categories_v2/parks_outdoors/plaza_", "suffix": ".png"}, "primary": true}], "photos": {"count": 0, "groups": []}}, "referralId": "e-0-4b75cd05f964a520ad252ee3-82"}, {"reasons": {"count": 0, "items": [{"summary": "This spot is popular", "type": "general", "reasonName": "globalInteractionReason"}]}, "venue": {"id": "4b6dac5af964a52027852ce3", "name": "Block House", "location": {"address": "Karl-Marx-Allee 91", "lat": 52.51741506389423, "lng": 13.440629660171565, "labeledLatLngs": [{"label": "display", "lat": 52.51741506389423, "lng": 13.440629660171565}], "distance": 652, "postalCode": "10243", "cc": "DE", "city": "Berlin", "state": "Berlin", "country": "Deutschland", "formattedAddress": ["Karl-Marx-Allee 91", "10243 Berlin", "Deutschland"]}, "categories": [{"id": "4bf58dd8d48988d1cc941735", "name": "Steakhouse", "pluralName": "Steakhouses", "shortName": "Steakhouse", "icon": {"prefix": "https://ss3.4sqi.net/img/categories_v2/food/steakhouse_", "suffix": ".png"}, "primary": true}], "photos": {"count": 0, "groups": []}}, "referralId": "e-0-4b6dac5af964a52027852ce3-83"}, {"reasons": {"count": 0, "items": [{"summary": "This spot is popular", "type": "general", "reasonName": "globalInteractionReason"}]}, "venue": {"id": "4b9a4100f964a5208da735e3", "name": "Al Mondo", "location": {"address": "M\u00fchsamstr. 45", "lat": 52.52002077914538, "lng": 13.450284615204376, "labeledLatLngs": [{"label": "display", "lat": 52.52002077914538, "lng": 13.450284615204376}], "distance": 889, "postalCode": "10249", "cc": "DE", "city": "Berlin", "state": "Berlin", "country": "Deutschland", "formattedAddress": ["M\u00fchsamstr. 45", "10249 Berlin", "Deutschland"]}, "categories": [{"id": "4bf58dd8d48988d110941735", "name": "Italian Restaurant", "pluralName": "Italian Restaurants", "shortName": "Italian", "icon": {"prefix": "https://ss3.4sqi.net/img/categories_v2/food/italian_", "suffix": ".png"}, "primary": true}], "photos": {"count": 0, "groups": []}}, "referralId": "e-0-4b9a4100f964a5208da735e3-84"}, {"reasons": {"count": 0, "items": [{"summary": "This spot is popular", "type": "general", "reasonName": "globalInteractionReason"}]}, "venue": {"id": "4b19b957f964a520d1e223e3", "name": "Budike", "location": {"address": "Kochhannstr. 24", "lat": 52.525081003319485, "lng": 13.452071264814464, "labeledLatLngs": [{"label": "display", "lat": 52.525081003319485, "lng": 13.452071264814464}], "distance": 968, "postalCode": "10249", "cc": "DE", "city": "Berlin", "state": "Berlin", "country": "Deutschland", "formattedAddress": ["Kochhannstr. 24", "10249 Berlin", "Deutschland"]}, "categories": [{"id": "4bf58dd8d48988d10d941735", "name": "German Restaurant", "pluralName": "German Restaurants", "shortName": "German", "icon": {"prefix": "https://ss3.4sqi.net/img/categories_v2/food/german_", "suffix": ".png"}, "primary": true}], "photos": {"count": 0, "groups": []}}, "referralId": "e-0-4b19b957f964a520d1e223e3-85"}, {"reasons": {"count": 0, "items": [{"summary": "This spot is popular", "type": "general", "reasonName": "globalInteractionReason"}]}, "venue": {"id": "4b5b2948f964a5209be728e3", "name": "EDEKA Kelz", "location": {"address": "Str. der Pariser Kommune 38", "lat": 52.51627066145956, "lng": 13.44054057304736, "labeledLatLngs": [{"label": "display", "lat": 52.51627066145956, "lng": 13.44054057304736}], "distance": 775, "postalCode": "10243", "cc": "DE", "city": "Berlin", "state": "Berlin", "country": "Deutschland", "formattedAddress": ["Str. der Pariser Kommune 38", "10243 Berlin", "Deutschland"]}, "categories": [{"id": "52f2ab2ebcbc57f1066b8b46", "name": "Supermarket", "pluralName": "Supermarkets", "shortName": "Supermarket", "icon": {"prefix": "https://ss3.4sqi.net/img/categories_v2/shops/food_grocery_", "suffix": ".png"}, "primary": true}], "photos": {"count": 0, "groups": []}, "venuePage": {"id": "554188706"}}, "referralId": "e-0-4b5b2948f964a5209be728e3-86"}, {"reasons": {"count": 0, "items": [{"summary": "This spot is popular", "type": "general", "reasonName": "globalInteractionReason"}]}, "venue": {"id": "520f96c011d2e8a742a9cd6c", "name": "denn's Biomarkt", "location": {"address": "M\u00fchsamstr. 54", "lat": 52.52024872491971, "lng": 13.45139752276236, "labeledLatLngs": [{"label": "display", "lat": 52.52024872491971, "lng": 13.45139752276236}], "distance": 950, "postalCode": "10249", "cc": "DE", "city": "Berlin", "state": "Berlin", "country": "Deutschland", "formattedAddress": ["M\u00fchsamstr. 54", "10249 Berlin", "Deutschland"]}, "categories": [{"id": "52f2ab2ebcbc57f1066b8b45", "name": "Organic Grocery", "pluralName": "Organic Groceries", "shortName": "Organic Grocery", "icon": {"prefix": "https://ss3.4sqi.net/img/categories_v2/shops/food_grocery_", "suffix": ".png"}, "primary": true}], "photos": {"count": 0, "groups": []}}, "referralId": "e-0-520f96c011d2e8a742a9cd6c-87"}, {"reasons": {"count": 0, "items": [{"summary": "This spot is popular", "type": "general", "reasonName": "globalInteractionReason"}]}, "venue": {"id": "532ec759498e47ee1bee0676", "name": "TanzSuite PanoramaLounge", "location": {"address": "Strausberger Platz 1", "lat": 52.519202097883905, "lng": 13.427023292909277, "labeledLatLngs": [{"label": "display", "lat": 52.519202097883905, "lng": 13.427023292909277}], "distance": 868, "postalCode": "10243", "cc": "DE", "city": "Berlin", "state": "Berlin", "country": "Deutschland", "formattedAddress": ["Strausberger Platz 1", "10243 Berlin", "Deutschland"]}, "categories": [{"id": "4bf58dd8d48988d134941735", "name": "Dance Studio", "pluralName": "Dance Studios", "shortName": "Dance Studio", "icon": {"prefix": "https://ss3.4sqi.net/img/categories_v2/arts_entertainment/performingarts_dancestudio_", "suffix": ".png"}, "primary": true}], "photos": {"count": 0, "groups": []}}, "referralId": "e-0-532ec759498e47ee1bee0676-88"}, {"reasons": {"count": 0, "items": [{"summary": "This spot is popular", "type": "general", "reasonName": "globalInteractionReason"}]}, "venue": {"id": "4b2bc383f964a52078ba24e3", "name": "\u010cSA Bar", "location": {"address": "Karl-Marx-Allee 96", "lat": 52.51664007851132, "lng": 13.442428871953815, "labeledLatLngs": [{"label": "display", "lat": 52.51664007851132, "lng": 13.442428871953815}], "distance": 773, "postalCode": "10243", "cc": "DE", "city": "Berlin", "state": "Berlin", "country": "Deutschland", "formattedAddress": ["Karl-Marx-Allee 96", "10243 Berlin", "Deutschland"]}, "categories": [{"id": "4bf58dd8d48988d11e941735", "name": "Cocktail Bar", "pluralName": "Cocktail Bars", "shortName": "Cocktail", "icon": {"prefix": "https://ss3.4sqi.net/img/categories_v2/nightlife/cocktails_", "suffix": ".png"}, "primary": true}], "photos": {"count": 0, "groups": []}, "venuePage": {"id": "347071666"}}, "referralId": "e-0-4b2bc383f964a52078ba24e3-89"}, {"reasons": {"count": 0, "items": [{"summary": "This spot is popular", "type": "general", "reasonName": "globalInteractionReason"}]}, "venue": {"id": "4bd050489854d13a196ef74d", "name": "H Platz der Vereinten Nationen", "location": {"address": "Platz der Vereinten Nationen", "crossStreet": "Friedenstr.", "lat": 52.52321271704847, "lng": 13.432991561662105, "labeledLatLngs": [{"label": "display", "lat": 52.52321271704847, "lng": 13.432991561662105}], "distance": 349, "postalCode": "10249", "cc": "DE", "city": "Berlin", "state": "Berlin", "country": "Deutschland", "formattedAddress": ["Platz der Vereinten Nationen (Friedenstr.)", "10249 Berlin", "Deutschland"]}, "categories": [{"id": "52f2ab2ebcbc57f1066b8b51", "name": "Tram Station", "pluralName": "Tram Stations", "shortName": "Tram", "icon": {"prefix": "https://ss3.4sqi.net/img/categories_v2/travel/trainstation_", "suffix": ".png"}, "primary": true}], "photos": {"count": 0, "groups": []}}, "referralId": "e-0-4bd050489854d13a196ef74d-90"}, {"reasons": {"count": 0, "items": [{"summary": "This spot is popular", "type": "general", "reasonName": "globalInteractionReason"}]}, "venue": {"id": "4c7d20cd7a856dcb5412e4a7", "name": "Blaue Adria - Kroatisches Restaurant", "location": {"address": "Cotheniusstr. 8", "crossStreet": "Conrad-Blenkle-Str. 62", "lat": 52.52867622324605, "lng": 13.449175357818604, "labeledLatLngs": [{"label": "display", "lat": 52.52867622324605, "lng": 13.449175357818604}], "distance": 972, "postalCode": "10407", "cc": "DE", "city": "Berlin", "state": "Berlin", "country": "Deutschland", "formattedAddress": ["Cotheniusstr. 8 (Conrad-Blenkle-Str. 62)", "10407 Berlin", "Deutschland"]}, "categories": [{"id": "4bf58dd8d48988d109941735", "name": "Eastern European Restaurant", "pluralName": "Eastern European Restaurants", "shortName": "Eastern European", "icon": {"prefix": "https://ss3.4sqi.net/img/categories_v2/food/default_", "suffix": ".png"}, "primary": true}], "photos": {"count": 0, "groups": []}}, "referralId": "e-0-4c7d20cd7a856dcb5412e4a7-91"}, {"reasons": {"count": 0, "items": [{"summary": "This spot is popular", "type": "general", "reasonName": "globalInteractionReason"}]}, "venue": {"id": "5093c103e4b024b7d6e860c3", "name": "Gro\u00dfer Teich", "location": {"address": "Am Friedrichshain", "crossStreet": "Volkspark Friedrichshain", "lat": 52.527308786939436, "lng": 13.433403968811035, "labeledLatLngs": [{"label": "display", "lat": 52.527308786939436, "lng": 13.433403968811035}], "distance": 570, "postalCode": "10249", "cc": "DE", "neighborhood": "Greifswalder Stra\u00dfe-S\u00fcd", "city": "Berlin", "state": "Berlin", "country": "Deutschland", "formattedAddress": ["Am Friedrichshain (Volkspark Friedrichshain)", "10249 Berlin", "Deutschland"]}, "categories": [{"id": "4bf58dd8d48988d161941735", "name": "Lake", "pluralName": "Lakes", "shortName": "Lake", "icon": {"prefix": "https://ss3.4sqi.net/img/categories_v2/parks_outdoors/lake_", "suffix": ".png"}, "primary": true}], "photos": {"count": 0, "groups": []}}, "referralId": "e-0-5093c103e4b024b7d6e860c3-92"}, {"reasons": {"count": 0, "items": [{"summary": "This spot is popular", "type": "general", "reasonName": "globalInteractionReason"}]}, "venue": {"id": "512e503029a65ad24235a48f", "name": "Boulderfelsen Friedrichshain", "location": {"address": "Danziger Str.", "crossStreet": "Margarete-Sommer-Str.", "lat": 52.52806267713797, "lng": 13.4412682056427, "labeledLatLngs": [{"label": "display", "lat": 52.52806267713797, "lng": 13.4412682056427}], "distance": 593, "postalCode": "10407", "cc": "DE", "city": "Berlin", "state": "Berlin", "country": "Deutschland", "formattedAddress": ["Danziger Str. (Margarete-Sommer-Str.)", "10407 Berlin", "Deutschland"]}, "categories": [{"id": "50328a4b91d4c4b30a586d6b", "name": "Rock Climbing Spot", "pluralName": "Rock Climbing Spots", "shortName": "Rock Climbing", "icon": {"prefix": "https://ss3.4sqi.net/img/categories_v2/parks_outdoors/rockclimbing_", "suffix": ".png"}, "primary": true}], "photos": {"count": 0, "groups": []}}, "referralId": "e-0-512e503029a65ad24235a48f-93"}, {"reasons": {"count": 0, "items": [{"summary": "This spot is popular", "type": "general", "reasonName": "globalInteractionReason"}]}, "venue": {"id": "4beacde1a9900f47f0ee1640", "name": "ALDI NORD", "location": {"address": "Weinstr. 9", "lat": 52.52603878830929, "lng": 13.426809869949661, "labeledLatLngs": [{"label": "display", "lat": 52.52603878830929, "lng": 13.426809869949661}], "distance": 835, "postalCode": "10249", "cc": "DE", "city": "Berlin", "state": "Berlin", "country": "Deutschland", "formattedAddress": ["Weinstr. 9", "10249 Berlin", "Deutschland"]}, "categories": [{"id": "52f2ab2ebcbc57f1066b8b46", "name": "Supermarket", "pluralName": "Supermarkets", "shortName": "Supermarket", "icon": {"prefix": "https://ss3.4sqi.net/img/categories_v2/shops/food_grocery_", "suffix": ".png"}, "primary": true}], "photos": {"count": 0, "groups": []}}, "referralId": "e-0-4beacde1a9900f47f0ee1640-94"}, {"reasons": {"count": 0, "items": [{"summary": "This spot is popular", "type": "general", "reasonName": "globalInteractionReason"}]}, "venue": {"id": "4bed63873372c928b5861114", "name": "Caf\u00e9 Sibylle", "location": {"address": "Karl-Marx-Allee 72", "lat": 52.5174956869039, "lng": 13.437046761268476, "labeledLatLngs": [{"label": "display", "lat": 52.5174956869039, "lng": 13.437046761268476}], "distance": 626, "postalCode": "10243", "cc": "DE", "city": "Berlin", "state": "Berlin", "country": "Deutschland", "formattedAddress": ["Karl-Marx-Allee 72", "10243 Berlin", "Deutschland"]}, "categories": [{"id": "4bf58dd8d48988d16d941735", "name": "Caf\u00e9", "pluralName": "Caf\u00e9s", "shortName": "Caf\u00e9", "icon": {"prefix": "https://ss3.4sqi.net/img/categories_v2/food/cafe_", "suffix": ".png"}, "primary": true}], "photos": {"count": 0, "groups": []}}, "referralId": "e-0-4bed63873372c928b5861114-95"}, {"reasons": {"count": 0, "items": [{"summary": "This spot is popular", "type": "general", "reasonName": "globalInteractionReason"}]}, "venue": {"id": "511fb221e4b0f55431f8b592", "name": "Peres Projects", "location": {"address": "Karl-Marx-Allee 82", "lat": 52.517281964615485, "lng": 13.438970635148243, "labeledLatLngs": [{"label": "display", "lat": 52.517281964615485, "lng": 13.438970635148243}], "distance": 647, "postalCode": "10243", "cc": "DE", "city": "Berlin", "state": "Berlin", "country": "Deutschland", "formattedAddress": ["Karl-Marx-Allee 82", "10243 Berlin", "Deutschland"]}, "categories": [{"id": "4bf58dd8d48988d1e2931735", "name": "Art Gallery", "pluralName": "Art Galleries", "shortName": "Art Gallery", "icon": {"prefix": "https://ss3.4sqi.net/img/categories_v2/arts_entertainment/artgallery_", "suffix": ".png"}, "primary": true}], "photos": {"count": 0, "groups": []}}, "referralId": "e-0-511fb221e4b0f55431f8b592-96"}, {"reasons": {"count": 0, "items": [{"summary": "This spot is popular", "type": "general", "reasonName": "globalInteractionReason"}]}, "venue": {"id": "4de65321e4cde71744bccebd", "name": "Cafe Toscana", "location": {"address": "Karl-Marx-Allee 67", "lat": 52.51809472817691, "lng": 13.432603702293578, "labeledLatLngs": [{"label": "display", "lat": 52.51809472817691, "lng": 13.432603702293578}], "distance": 670, "postalCode": "10243", "cc": "DE", "city": "Berlin", "state": "Berlin", "country": "Deutschland", "formattedAddress": ["Karl-Marx-Allee 67", "10243 Berlin", "Deutschland"]}, "categories": [{"id": "4bf58dd8d48988d110941735", "name": "Italian Restaurant", "pluralName": "Italian Restaurants", "shortName": "Italian", "icon": {"prefix": "https://ss3.4sqi.net/img/categories_v2/food/italian_", "suffix": ".png"}, "primary": true}], "photos": {"count": 0, "groups": []}}, "referralId": "e-0-4de65321e4cde71744bccebd-97"}, {"reasons": {"count": 0, "items": [{"summary": "This spot is popular", "type": "general", "reasonName": "globalInteractionReason"}]}, "venue": {"id": "4fac1cb4e4b03481b4e44309", "name": "Volleyballfeld im Volkspark Friedrichshain", "location": {"address": "Danziger Str.", "crossStreet": "Volkspark Friedrichshain", "lat": 52.52875363769034, "lng": 13.441707800677195, "labeledLatLngs": [{"label": "display", "lat": 52.52875363769034, "lng": 13.441707800677195}], "distance": 675, "postalCode": "10407", "cc": "DE", "city": "Berlin", "state": "Berlin", "country": "Deutschland", "formattedAddress": ["Danziger Str. (Volkspark Friedrichshain)", "10407 Berlin", "Deutschland"]}, "categories": [{"id": "4eb1bf013b7b6f98df247e07", "name": "Volleyball Court", "pluralName": "Volleyball Courts", "shortName": "Volleyball Court", "icon": {"prefix": "https://ss3.4sqi.net/img/categories_v2/parks_outdoors/volleyballcourt_", "suffix": ".png"}, "primary": true}], "photos": {"count": 0, "groups": []}}, "referralId": "e-0-4fac1cb4e4b03481b4e44309-98"}, {"reasons": {"count": 0, "items": [{"summary": "This spot is popular", "type": "general", "reasonName": "globalInteractionReason"}]}, "venue": {"id": "4e527a9b45ddae62fc81a766", "name": "Kasters Fleischwaren", "location": {"address": "Karl-Marx-Allee 68", "lat": 52.517761655324506, "lng": 13.432245254516602, "labeledLatLngs": [{"label": "display", "lat": 52.517761655324506, "lng": 13.432245254516602}], "distance": 714, "postalCode": "10243", "cc": "DE", "city": "Berlin", "state": "Berlin", "country": "Deutschland", "formattedAddress": ["Karl-Marx-Allee 68", "10243 Berlin", "Deutschland"]}, "categories": [{"id": "5283c7b4e4b094cb91ec88d8", "name": "Doner Restaurant", "pluralName": "Doner Restaurants", "shortName": "Doner", "icon": {"prefix": "https://ss3.4sqi.net/img/categories_v2/food/turkish_", "suffix": ".png"}, "primary": true}], "photos": {"count": 0, "groups": []}}, "referralId": "e-0-4e527a9b45ddae62fc81a766-99"}]