[{"reasons": {"count": 0, "items": [{"summary": "This spot is popular", "type": "general", "reasonName": "globalInteractionReason"}]}, "venue": {"id": "51fe0940454a7d0920bc85d1", "name": "dm-drogerie markt", "location": {"address": "Hubertusdamm 56", "lat": 52.616544284295216, "lng": 13.471997587011856, "labeledLatLngs": [{"label": "display", "lat": 52.616544284295216, "lng": 13.471997587011856}], "distance": 707, "postalCode": "13125", "cc": "DE", "city": "Berlin", "state": "Berlin", "country": "Deutschland", "formattedAddress": ["Hubertusdamm 56", "13125 Berlin", "Deutschland"]}, "categories": [{"id": "5745c2e4498e11e7bccabdbd", "name": "Drugstore", "pluralName": "Drugstores", "shortName": "Drugstore", "icon": {"prefix": "https://ss3.4sqi.net/img/categories_v2/shops/pharmacy_", "suffix": ".png"}, "primary": true}], "photos": {"count": 0, "groups": []}, "venuePage": {"id": "452070848"}}, "referralId": "e-0-51fe0940454a7d0920bc85d1-0"}, {"reasons": {"count": 0, "items": [{"summary": "This spot is popular", "type": "general", "reasonName": "globalInteractionReason"}]}, "venue": {"id": "4d67c977c406f04d9889f24c", "name": "Lidl", "location": {"address": "Blankenburger Chaussee 10", "lat": 52.60796682421691, "lng": 13.478057384490967, "labeledLatLngs": [{"label": "display", "lat": 52.60796682421691, "lng": 13.478057384490967}], "distance": 480, "postalCode": "13125", "cc": "DE", "city": "Berlin", "state": "Berlin", "country": "Deutschland", "formattedAddress": ["Blankenburger Chaussee 10", "13125 Berlin-Pankow", "Deutschland"]}, "categories": [{"id": "52f2ab2ebcbc57f1066b8b46", "name": "Supermarket", "pluralName": "Supermarkets", "shortName": "Supermarket", "icon": {"prefix": "https://ss3.4sqi.net/img/categories_v2/shops/food_grocery_", "suffix": ".png"}, "primary": true}], "photos": {"count": 0, "groups": []}, "venuePage": {"id": "574766266"}}, "referralId": "e-0-4d67c977c406f04d9889f24c-1"}, {"reasons": {"count": 0, "items": [{"summary": "This spot is popular", "type": "general", "reasonName": "globalInteractionReason"}]}, "venue": {"id": "4dcebebd22718eed7a40195a", "name": "Restaurant Alt-Karow", "location": {"address": "Alt-Karow 2", "lat": 52.60930949119546, "lng": 13.481371444395082, "labeledLatLngs": [{"label": "display", "lat": 52.60930949119546, "lng": 13.481371444395082}], "distance": 340, "postalCode": "13125", "cc": "DE", "city": "Berlin", "state": "Berlin", "country": "Deutschland", "formattedAddress": ["Alt-Karow 2", "13125 Berlin", "Deutschland"]}, "categories": [{"id": "4bf58dd8d48988d10d941735", "name": "German Restaurant", "pluralName": "German Restaurants", "shortName": "German", "icon": {"prefix": "https://ss3.4sqi.net/img/categories_v2/food/german_", "suffix": ".png"}, "primary": true}], "photos": {"count": 0, "groups": []}}, "referralId": "e-0-4dcebebd22718eed7a40195a-2"}, {"reasons": {"count": 0, "items": [{"summary": "This spot is popular", "type": "general", "reasonName": "globalInteractionReason"}]}, "venue": {"id": "4badb977f964a52064653be3", "name": "B\u00e4ckerei und Konditorei Thomas Wildsch\u00fctz", "location": {"address": "Blankenburger Chaussee 86", "lat": 52.60761499926979, "lng": 13.479580879211426, "labeledLatLngs": [{"label": "display", "lat": 52.60761499926979, "lng": 13.479580879211426}], "distance": 507, "postalCode": "13125", "cc": "DE", "city": "Berlin", "state": "Berlin", "country": "Deutschland", "formattedAddress": ["Blankenburger Chaussee 86", "13125 Berlin", "Deutschland"]}, "categories": [{"id": "4bf58dd8d48988d16a941735", "name": "Bakery", "pluralName": "Bakeries", "shortName": "Bakery", "icon": {"prefix": "https://ss3.4sqi.net/img/categories_v2/food/bakery_", "suffix": ".png"}, "primary": true}], "photos": {"count": 0, "groups": []}}, "referralId": "e-0-4badb977f964a52064653be3-3"}, {"reasons": {"count": 0, "items": [{"summary": "This spot is popular", "type": "general", "reasonName": "globalInteractionReason"}]}, "venue": {"id": "4d5626f7a747b60c282b252b", "name": "Netto Marken-Discount", "location": {"address": "Bucher Chaussee 6", "crossStreet": "Hofzeichendamm", "lat": 52.6162629, "lng": 13.48659358, "labeledLatLngs": [{"label": "display", "lat": 52.6162629, "lng": 13.48659358}], "distance": 655, "postalCode": "13125", "cc": "DE", "city": "Karow", "state": "Berlin", "country": "Deutschland", "formattedAddress": ["Bucher Chaussee 6 (Hofzeichendamm)", "13125 Berlin-Karow", "Deutschland"]}, "categories": [{"id": "52f2ab2ebcbc57f1066b8b46", "name": "Supermarket", "pluralName": "Supermarkets", "shortName": "Supermarket", "icon": {"prefix": "https://ss3.4sqi.net/img/categories_v2/shops/food_grocery_", "suffix": ".png"}, "primary": true}], "photos": {"count": 0, "groups": []}, "venuePage": {"id": "540532343"}}, "referralId": "e-0-4d5626f7a747b60c282b252b-4"}, {"reasons": {"count": 0, "items": [{"summary": "This spot is popular", "type": "general", "reasonName": "globalInteractionReason"}]}, "venue": {"id": "50294a19e4b039d48cf047fe", "name": "Netto Marken-Discount", "location": {"address": "Hubertusdamm 64/65", "lat": 52.61521807, "lng": 13.47042117, "labeledLatLngs": [{"label": "display", "lat": 52.61521807, "lng": 13.47042117}], "distance": 707, "postalCode": "13125", "cc": "DE", "city": "Karow", "state": "Berlin", "country": "Deutschland", "formattedAddress": ["Hubertusdamm 64/65", "13125 Berlin-Karow", "Deutschland"]}, "categories": [{"id": "52f2ab2ebcbc57f1066b8b46", "name": "Supermarket", "pluralName": "Supermarkets", "shortName": "Supermarket", "icon": {"prefix": "https://ss3.4sqi.net/img/categories_v2/shops/food_grocery_", "suffix": ".png"}, "primary": true}], "photos": {"count": 0, "groups": []}, "venuePage": {"id": "538783002"}}, "referralId": "e-0-50294a19e4b039d48cf047fe-5"}, {"reasons": {"count": 0, "items": [{"summary": "This spot is popular", "type": "general", "reasonName": "globalInteractionReason"}]}, "venue": {"id": "5192399b498e27c749bbbbe2", "name": "REWE", "location": {"address": "Hubertusdamm 53-59", "lat": 52.616515025381254, "lng": 13.471946916930847, "labeledLatLngs": [{"label": "display", "lat": 52.616515025381254, "lng": 13.471946916930847}], "distance": 708, "postalCode": "13125", "cc": "DE", "city": "Berlin", "state": "Berlin", "country": "Deutschland", "formattedAddress": ["Hubertusdamm 53-59", "13125 Berlin", "Deutschland"]}, "categories": [{"id": "52f2ab2ebcbc57f1066b8b46", "name": "Supermarket", "pluralName": "Supermarkets", "shortName": "Supermarket", "icon": {"prefix": "https://ss3.4sqi.net/img/categories_v2/shops/food_grocery_", "suffix": ".png"}, "primary": true}], "photos": {"count": 0, "groups": []}, "venuePage": {"id": "577019220"}}, "referralId": "e-0-5192399b498e27c749bbbbe2-6"}, {"reasons": {"count": 0, "items": [{"summary": "This spot is popular", "type": "general", "reasonName": "globalInteractionReason"}]}, "venue": {"id": "4be53dfa910020a1b2bfd214", "name": "REWE", "location": {"address": "Achillesstra\u00dfe 46", "crossStreet": "Bucher Chaussee", "lat": 52.61851507637205, "lng": 13.486827630042058, "labeledLatLngs": [{"label": "display", "lat": 52.61851507637205, "lng": 13.486827630042058}], "distance": 858, "postalCode": "13125", "cc": "DE", "city": "Berlin", "state": "Berlin", "country": "Deutschland", "formattedAddress": ["Achillesstra\u00dfe 46 (Bucher Chaussee)", "13125 Berlin", "Deutschland"]}, "categories": [{"id": "52f2ab2ebcbc57f1066b8b46", "name": "Supermarket", "pluralName": "Supermarkets", "shortName": "Supermarket", "icon": {"prefix": "https://ss3.4sqi.net/img/categories_v2/shops/food_grocery_", "suffix": ".png"}, "primary": true}], "photos": {"count": 0, "groups": []}, "venuePage": {"id": "569445107"}}, "referralId": "e-0-4be53dfa910020a1b2bfd214-7"}, {"reasons": {"count": 0, "items": [{"summary": "This spot is popular", "type": "general", "reasonName": "globalInteractionReason"}]}, "venue": {"id": "51a0bb0c498e8382f4e7f7c6", "name": "Karow D\u00f6ner", "location": {"address": "Hubertusdamm", "crossStreet": "Bahnhofstrasse", "lat": 52.61449741102633, "lng": 13.469296787726988, "labeledLatLngs": [{"label": "display", "lat": 52.61449741102633, "lng": 13.469296787726988}], "distance": 743, "postalCode": "13125", "cc": "DE", "city": "Berlin", "state": "Berlin", "country": "Deutschland", "formattedAddress": ["Hubertusdamm (Bahnhofstrasse)", "13125 Berlin", "Deutschland"]}, "categories": [{"id": "5283c7b4e4b094cb91ec88d8", "name": "Doner Restaurant", "pluralName": "Doner Restaurants", "shortName": "Doner", "icon": {"prefix": "https://ss3.4sqi.net/img/categories_v2/food/turkish_", "suffix": ".png"}, "primary": true}], "photos": {"count": 0, "groups": []}}, "referralId": "e-0-51a0bb0c498e8382f4e7f7c6-8"}, {"reasons": {"count": 0, "items": [{"summary": "This spot is popular", "type": "general", "reasonName": "globalInteractionReason"}]}, "venue": {"id": "4b98a9f4f964a520a14a35e3", "name": "S Karow", "location": {"address": "Bahnhofstr.", "crossStreet": "Hubertusdamm", "lat": 52.61529328480953, "lng": 13.469522302773171, "labeledLatLngs": [{"label": "display", "lat": 52.61529328480953, "lng": 13.469522302773171}], "distance": 764, "cc": "DE", "city": "Berlin", "state": "Berlin", "country": "Deutschland", "formattedAddress": ["Bahnhofstr. (Hubertusdamm)", "Berlin", "Deutschland"]}, "categories": [{"id": "4bf58dd8d48988d1fc931735", "name": "Light Rail Station", "pluralName": "Light Rail Stations", "shortName": "Light Rail", "icon": {"prefix": "https://ss3.4sqi.net/img/categories_v2/travel/lightrail_", "suffix": ".png"}, "primary": true}], "photos": {"count": 0, "groups": []}}, "referralId": "e-0-4b98a9f4f964a520a14a35e3-9"}, {"reasons": {"count": 0, "items": [{"summary": "This spot is popular", "type": "general", "reasonName": "globalInteractionReason"}]}, "venue": {"id": "54dea766498eab5eadfcb898", "name": "Werner Klein Tabakwaren + Zeitschriften + Lotto", "location": {"address": "Achillesstr. 65", "lat": 52.6176223, "lng": 13.4897382, "labeledLatLngs": [{"label": "display", "lat": 52.6176223, "lng": 13.4897382}], "distance": 914, "postalCode": "13125", "cc": "DE", "city": "Berlin", "state": "Berlin", "country": "Deutschland", "formattedAddress": ["Achillesstr. 65", "13125 Berlin", "Deutschland"]}, "categories": [{"id": "4bf58dd8d48988d1ff941735", "name": "Miscellaneous Shop", "pluralName": "Miscellaneous Shops", "shortName": "Shop", "icon": {"prefix": "https://ss3.4sqi.net/img/categories_v2/shops/default_", "suffix": ".png"}, "primary": true}], "photos": {"count": 0, "groups": []}}, "referralId": "e-0-54dea766498eab5eadfcb898-10"}]