[{"reasons": {"count": 0, "items": [{"summary": "This spot is popular", "type": "general", "reasonName": "globalInteractionReason"}]}, "venue": {"id": "4adcda81f964a5204c4821e3", "name": "Schloss K\u00f6penick", "location": {"address": "Schlo\u00dfinsel 1", "crossStreet": "Alt-K\u00f6penick", "lat": 52.443679, "lng": 13.572549, "labeledLatLngs": [{"label": "display", "lat": 52.443679, "lng": 13.572549}], "distance": 593, "postalCode": "12557", "cc": "DE", "city": "Berlin", "state": "Berlin", "country": "Deutschland", "formattedAddress": ["Schlo\u00dfinsel 1 (Alt-K\u00f6penick)", "12557 Berlin", "Deutschland"]}, "categories": [{"id": "52e81612bcbc57f1066b7a14", "name": "Palace", "pluralName": "Palaces", "shortName": "Palace", "icon": {"prefix": "https://ss3.4sqi.net/img/categories_v2/parks_outdoors/default_", "suffix": ".png"}, "primary": true}], "photos": {"count": 0, "groups": []}}, "referralId": "e-0-4adcda81f964a5204c4821e3-0"}, {"reasons": {"count": 0, "items": [{"summary": "This spot is popular", "type": "general", "reasonName": "globalInteractionReason"}]}, "venue": {"id": "4baf2cd0f964a52027ef3be3", "name": "pentahotel Berlin-K\u00f6penick", "location": {"address": "Gr\u00fcnauer Str. 1", "lat": 52.443894717487595, "lng": 13.569829693539708, "labeledLatLngs": [{"label": "display", "lat": 52.443894717487595, "lng": 13.569829693539708}], "distance": 487, "postalCode": "12557", "cc": "DE", "city": "Berlin", "state": "Berlin", "country": "Deutschland", "formattedAddress": ["Gr\u00fcnauer Str. 1", "12557 Berlin", "Deutschland"]}, "categories": [{"id": "4bf58dd8d48988d1fa931735", "name": "Hotel", "pluralName": "Hotels", "shortName": "Hotel", "icon": {"prefix": "https://ss3.4sqi.net/img/categories_v2/travel/hotel_", "suffix": ".png"}, "primary": true}], "photos": {"count": 0, "groups": []}}, "referralId": "e-0-4baf2cd0f964a52027ef3be3-1"}, {"reasons": {"count": 0, "items": [{"summary": "This spot is popular", "type": "general", "reasonName": "globalInteractionReason"}]}, "venue": {"id": "4c3e0580b8b4be9a2d8ecbef", "name": "Krokodil", "location": {"address": "Gartenstr. 46-48", "lat": 52.44085175946797, "lng": 13.575794425185892, "labeledLatLngs": [{"label": "display", "lat": 52.44085175946797, "lng": 13.575794425185892}], "distance": 678, "postalCode": "12557", "cc": "DE", "city": "Berlin", "state": "Berlin", "country": "Deutschland", "formattedAddress": ["Gartenstr. 46-48", "12557 Berlin", "Deutschland"]}, "categories": [{"id": "4bf58dd8d48988d10d941735", "name": "German Restaurant", "pluralName": "German Restaurants", "shortName": "German", "icon": {"prefix": "https://ss3.4sqi.net/img/categories_v2/food/german_", "suffix": ".png"}, "primary": true}], "photos": {"count": 0, "groups": []}}, "referralId": "e-0-4c3e0580b8b4be9a2d8ecbef-2"}, {"reasons": {"count": 0, "items": [{"summary": "This spot is popular", "type": "general", "reasonName": "globalInteractionReason"}]}, "venue": {"id": "4f941051e4b04b1ee29a1039", "name": "Eisbar Friederici", "location": {"address": "Alt-K\u00f6penick 33", "lat": 52.44492207361581, "lng": 13.574279220023264, "labeledLatLngs": [{"label": "display", "lat": 52.44492207361581, "lng": 13.574279220023264}], "distance": 773, "postalCode": "12555", "cc": "DE", "city": "Berlin", "state": "Berlin", "country": "Deutschland", "formattedAddress": ["Alt-K\u00f6penick 33", "12555 Berlin", "Deutschland"]}, "categories": [{"id": "4bf58dd8d48988d1c9941735", "name": "Ice Cream Shop", "pluralName": "Ice Cream Shops", "shortName": "Ice Cream", "icon": {"prefix": "https://ss3.4sqi.net/img/categories_v2/food/icecream_", "suffix": ".png"}, "primary": true}], "photos": {"count": 0, "groups": []}}, "referralId": "e-0-4f941051e4b04b1ee29a1039-3"}, {"reasons": {"count": 0, "items": [{"summary": "This spot is popular", "type": "general", "reasonName": "globalInteractionReason"}]}, "venue": {"id": "4f23d26ce4b0831875ebddbb", "name": "Caf\u00e9 Mutter Lustig", "location": {"address": "M\u00fcggelheimer Str. 1", "lat": 52.44398015790186, "lng": 13.57490674317666, "labeledLatLngs": [{"label": "display", "lat": 52.44398015790186, "lng": 13.57490674317666}], "distance": 742, "postalCode": "12555", "cc": "DE", "city": "Berlin", "state": "Berlin", "country": "Deutschland", "formattedAddress": ["M\u00fcggelheimer Str. 1", "12555 Berlin", "Deutschland"]}, "categories": [{"id": "4bf58dd8d48988d16d941735", "name": "Caf\u00e9", "pluralName": "Caf\u00e9s", "shortName": "Caf\u00e9", "icon": {"prefix": "https://ss3.4sqi.net/img/categories_v2/food/cafe_", "suffix": ".png"}, "primary": true}], "photos": {"count": 0, "groups": []}}, "referralId": "e-0-4f23d26ce4b0831875ebddbb-4"}, {"reasons": {"count": 0, "items": [{"summary": "This spot is popular", "type": "general", "reasonName": "globalInteractionReason"}]}, "venue": {"id": "56d58d88498eae82c228c2a5", "name": "Caf\u00e9 Anton\u00ed", "location": {"address": "Gr\u00fcnstr. 10", "lat": 52.44481, "lng": 13.57603, "labeledLatLngs": [{"label": "display", "lat": 52.44481, "lng": 13.57603}], "distance": 857, "cc": "DE", "city": "Berlin", "state": "Berlin", "country": "Deutschland", "formattedAddress": ["Gr\u00fcnstr. 10", "Berlin", "Deutschland"]}, "categories": [{"id": "4bf58dd8d48988d16d941735", "name": "Caf\u00e9", "pluralName": "Caf\u00e9s", "shortName": "Caf\u00e9", "icon": {"prefix": "https://ss3.4sqi.net/img/categories_v2/food/cafe_", "suffix": ".png"}, "primary": true}], "photos": {"count": 0, "groups": []}}, "referralId": "e-0-56d58d88498eae82c228c2a5-5"}, {"reasons": {"count": 0, "items": [{"summary": "This spot is popular", "type": "general", "reasonName": "globalInteractionReason"}]}, "venue": {"id": "4f538e17e4b0ddd8f8454ec3", "name": "Schlosspark K\u00f6penick", "location": {"address": "Schlossinsel", "crossStreet": "Alt-K\u00f6penick", "lat": 52.44287, "lng": 13.572872, "labeledLatLngs": [{"label": "display", "lat": 52.44287, "lng": 13.572872}], "distance": 559, "postalCode": "12555", "cc": "DE", "city": "Berlin", "state": "Berlin", "country": "Deutschland", "formattedAddress": ["Schlossinsel (Alt-K\u00f6penick)", "12555 Berlin", "Deutschland"]}, "categories": [{"id": "4bf58dd8d48988d163941735", "name": "Park", "pluralName": "Parks", "shortName": "Park", "icon": {"prefix": "https://ss3.4sqi.net/img/categories_v2/parks_outdoors/park_", "suffix": ".png"}, "primary": true}], "photos": {"count": 0, "groups": []}}, "referralId": "e-0-4f538e17e4b0ddd8f8454ec3-6"}, {"reasons": {"count": 0, "items": [{"summary": "This spot is popular", "type": "general", "reasonName": "globalInteractionReason"}]}, "venue": {"id": "4c279c0d905a0f47da2e6560", "name": "Kikko Grill & Sushi", "location": {"address": "Alt K\u00f6penick 36", "lat": 52.44464318053369, "lng": 13.57424591334495, "labeledLatLngs": [{"label": "display", "lat": 52.44464318053369, "lng": 13.57424591334495}], "distance": 751, "postalCode": "12555", "cc": "DE", "city": "Berlin", "state": "Berlin", "country": "Deutschland", "formattedAddress": ["Alt K\u00f6penick 36", "12555 Berlin", "Deutschland"]}, "categories": [{"id": "4bf58dd8d48988d1d2941735", "name": "Sushi Restaurant", "pluralName": "Sushi Restaurants", "shortName": "Sushi", "icon": {"prefix": "https://ss3.4sqi.net/img/categories_v2/food/sushi_", "suffix": ".png"}, "primary": true}], "photos": {"count": 0, "groups": []}}, "referralId": "e-0-4c279c0d905a0f47da2e6560-7"}, {"reasons": {"count": 0, "items": [{"summary": "This spot is popular", "type": "general", "reasonName": "globalInteractionReason"}]}, "venue": {"id": "4d66dae06d6a236ae16c2a2a", "name": "Zur Alten Laterne", "location": {"lat": 52.44514650154421, "lng": 13.574190615245312, "labeledLatLngs": [{"label": "display", "lat": 52.44514650154421, "lng": 13.574190615245312}], "distance": 786, "cc": "DE", "city": "Berlin", "state": "Berlin", "country": "Deutschland", "formattedAddress": ["Berlin", "Deutschland"]}, "categories": [{"id": "4bf58dd8d48988d116941735", "name": "Bar", "pluralName": "Bars", "shortName": "Bar", "icon": {"prefix": "https://ss3.4sqi.net/img/categories_v2/nightlife/pub_", "suffix": ".png"}, "primary": true}], "photos": {"count": 0, "groups": []}}, "referralId": "e-0-4d66dae06d6a236ae16c2a2a-8"}, {"reasons": {"count": 0, "items": [{"summary": "This spot is popular", "type": "general", "reasonName": "globalInteractionReason"}]}, "venue": {"id": "4adcda88f964a520534921e3", "name": "Ratskeller K\u00f6penick", "location": {"address": "Alt-K\u00f6penick 21", "lat": 52.44558129407464, "lng": 13.57449759934094, "labeledLatLngs": [{"label": "display", "lat": 52.44558129407464, "lng": 13.57449759934094}], "distance": 834, "postalCode": "12555", "cc": "DE", "city": "Berlin", "state": "Berlin", "country": "Deutschland", "formattedAddress": ["Alt-K\u00f6penick 21", "12555 Berlin", "Deutschland"]}, "categories": [{"id": "4bf58dd8d48988d10d941735", "name": "German Restaurant", "pluralName": "German Restaurants", "shortName": "German", "icon": {"prefix": "https://ss3.4sqi.net/img/categories_v2/food/german_", "suffix": ".png"}, "primary": true}], "photos": {"count": 0, "groups": []}}, "referralId": "e-0-4adcda88f964a520534921e3-9"}, {"reasons": {"count": 0, "items": [{"summary": "This spot is popular", "type": "general", "reasonName": "globalInteractionReason"}]}, "venue": {"id": "5379daf8498efa79122f0d1b", "name": "Asteria", "location": {"address": "Alt K\u00f6penick 6", "lat": 52.4470886325136, "lng": 13.574690281626037, "labeledLatLngs": [{"label": "display", "lat": 52.4470886325136, "lng": 13.574690281626037}], "distance": 969, "postalCode": "12555", "cc": "DE", "city": "Berlin", "state": "Berlin", "country": "Deutschland", "formattedAddress": ["Alt K\u00f6penick 6", "12555 K\u00f6penick", "Deutschland"]}, "categories": [{"id": "4bf58dd8d48988d10e941735", "name": "Greek Restaurant", "pluralName": "Greek Restaurants", "shortName": "Greek", "icon": {"prefix": "https://ss3.4sqi.net/img/categories_v2/food/greek_", "suffix": ".png"}, "primary": true}], "photos": {"count": 0, "groups": []}}, "referralId": "e-0-5379daf8498efa79122f0d1b-10"}, {"reasons": {"count": 0, "items": [{"summary": "This spot is popular", "type": "general", "reasonName": "globalInteractionReason"}]}, "venue": {"id": "4f271849e4b05160b1154319", "name": "Schlossplatzbrauerei Coepenick", "location": {"address": "Gr\u00fcnstr. 24", "crossStreet": "Schlo\u00dfpl.", "lat": 52.44458168509351, "lng": 13.574419369275315, "labeledLatLngs": [{"label": "display", "lat": 52.44458168509351, "lng": 13.574419369275315}], "distance": 755, "postalCode": "12555", "cc": "DE", "city": "Berlin", "state": "Berlin", "country": "Deutschland", "formattedAddress": ["Gr\u00fcnstr. 24 (Schlo\u00dfpl.)", "12555 Berlin", "Deutschland"]}, "categories": [{"id": "50327c8591d4c4b30a586d5d", "name": "Brewery", "pluralName": "Breweries", "shortName": "Brewery", "icon": {"prefix": "https://ss3.4sqi.net/img/categories_v2/food/brewery_", "suffix": ".png"}, "primary": true}], "photos": {"count": 0, "groups": []}}, "referralId": "e-0-4f271849e4b05160b1154319-11"}, {"reasons": {"count": 0, "items": [{"summary": "This spot is popular", "type": "general", "reasonName": "globalInteractionReason"}]}, "venue": {"id": "4c2b0a98355cef3b6a28cd56", "name": "Best Western Hotel am Schloss K\u00f6penick", "location": {"address": "Gr\u00fcnauer Str. 17-21", "lat": 52.442621136891574, "lng": 13.569779774959034, "labeledLatLngs": [{"label": "display", "lat": 52.442621136891574, "lng": 13.569779774959034}], "distance": 375, "postalCode": "12557", "cc": "DE", "city": "Berlin", "state": "Berlin", "country": "Deutschland", "formattedAddress": ["Gr\u00fcnauer Str. 17-21", "12557 Berlin", "Deutschland"]}, "categories": [{"id": "4bf58dd8d48988d1fa931735", "name": "Hotel", "pluralName": "Hotels", "shortName": "Hotel", "icon": {"prefix": "https://ss3.4sqi.net/img/categories_v2/travel/hotel_", "suffix": ".png"}, "primary": true}], "photos": {"count": 0, "groups": []}}, "referralId": "e-0-4c2b0a98355cef3b6a28cd56-12"}, {"reasons": {"count": 0, "items": [{"summary": "This spot is popular", "type": "general", "reasonName": "globalInteractionReason"}]}, "venue": {"id": "4d85fe2261676dcbd7b195e4", "name": "Mokkafee", "location": {"address": "Gr\u00fcnstr. 21", "lat": 52.44491801008545, "lng": 13.5755769793644, "labeledLatLngs": [{"label": "display", "lat": 52.44491801008545, "lng": 13.5755769793644}], "distance": 840, "postalCode": "12555", "cc": "DE", "city": "Berlin", "state": "Berlin", "country": "Deutschland", "formattedAddress": ["Gr\u00fcnstr. 21", "12555 Berlin", "Deutschland"]}, "categories": [{"id": "4bf58dd8d48988d16d941735", "name": "Caf\u00e9", "pluralName": "Caf\u00e9s", "shortName": "Caf\u00e9", "icon": {"prefix": "https://ss3.4sqi.net/img/categories_v2/food/cafe_", "suffix": ".png"}, "primary": true}], "photos": {"count": 0, "groups": []}}, "referralId": "e-0-4d85fe2261676dcbd7b195e4-13"}, {"reasons": {"count": 0, "items": [{"summary": "This spot is popular", "type": "general", "reasonName": "globalInteractionReason"}]}, "venue": {"id": "4e440c38d22de4060ef0b3b8", "name": "Schlossplatz", "location": {"address": "Schlossplatz", "lat": 52.444035, "lng": 13.575189, "labeledLatLngs": [{"label": "display", "lat": 52.444035, "lng": 13.575189}], "distance": 761, "postalCode": "12555", "cc": "DE", "neighborhood": "K\u00f6penick", "city": "Berlin", "state": "Berlin", "country": "Deutschland", "formattedAddress": ["Schlossplatz", "12555 Berlin", "Deutschland"]}, "categories": [{"id": "4bf58dd8d48988d164941735", "name": "Plaza", "pluralName": "Plazas", "shortName": "Plaza", "icon": {"prefix": "https://ss3.4sqi.net/img/categories_v2/parks_outdoors/plaza_", "suffix": ".png"}, "primary": true}], "photos": {"count": 0, "groups": []}}, "referralId": "e-0-4e440c38d22de4060ef0b3b8-14"}, {"reasons": {"count": 0, "items": [{"summary": "This spot is popular", "type": "general", "reasonName": "globalInteractionReason"}]}, "venue": {"id": "4c23482a502b95218e296e21", "name": "Altstadtcaf\u00e9 C\u00f6penick", "location": {"address": "Alt-K\u00f6penick 16", "lat": 52.44625517732477, "lng": 13.574837288493715, "labeledLatLngs": [{"label": "display", "lat": 52.44625517732477, "lng": 13.574837288493715}], "distance": 905, "postalCode": "12555", "cc": "DE", "city": "Berlin", "state": "Berlin", "country": "Deutschland", "formattedAddress": ["Alt-K\u00f6penick 16", "12555 Berlin", "Deutschland"]}, "categories": [{"id": "4bf58dd8d48988d16d941735", "name": "Caf\u00e9", "pluralName": "Caf\u00e9s", "shortName": "Caf\u00e9", "icon": {"prefix": "https://ss3.4sqi.net/img/categories_v2/food/cafe_", "suffix": ".png"}, "primary": true}], "photos": {"count": 0, "groups": []}}, "referralId": "e-0-4c23482a502b95218e296e21-15"}, {"reasons": {"count": 0, "items": [{"summary": "This spot is popular", "type": "general", "reasonName": "globalInteractionReason"}]}, "venue": {"id": "4c9e03c354c8a1cd0013894b", "name": "Milchkaffee", "location": {"address": "Kirchstr. 5", "lat": 52.44608643123333, "lng": 13.576188897667334, "labeledLatLngs": [{"label": "display", "lat": 52.44608643123333, "lng": 13.576188897667334}], "distance": 956, "postalCode": "12555", "cc": "DE", "city": "Berlin", "state": "Berlin", "country": "Deutschland", "formattedAddress": ["Kirchstr. 5", "12555 Berlin", "Deutschland"]}, "categories": [{"id": "4bf58dd8d48988d16d941735", "name": "Caf\u00e9", "pluralName": "Caf\u00e9s", "shortName": "Caf\u00e9", "icon": {"prefix": "https://ss3.4sqi.net/img/categories_v2/food/cafe_", "suffix": ".png"}, "primary": true}], "photos": {"count": 0, "groups": []}}, "referralId": "e-0-4c9e03c354c8a1cd0013894b-16"}, {"reasons": {"count": 0, "items": [{"summary": "This spot is popular", "type": "general", "reasonName": "globalInteractionReason"}]}, "venue": {"id": "4c431130cc410f47a7a1ad61", "name": "Schlosscaf\u00e9", "location": {"address": "Schlossinsel 1", "lat": 52.443293, "lng": 13.573818, "labeledLatLngs": [{"label": "display", "lat": 52.443293, "lng": 13.573818}], "distance": 638, "postalCode": "12557", "cc": "DE", "city": "Berlin", "state": "Berlin", "country": "Deutschland", "formattedAddress": ["Schlossinsel 1", "12557 Berlin", "Deutschland"]}, "categories": [{"id": "4bf58dd8d48988d16d941735", "name": "Caf\u00e9", "pluralName": "Caf\u00e9s", "shortName": "Caf\u00e9", "icon": {"prefix": "https://ss3.4sqi.net/img/categories_v2/food/cafe_", "suffix": ".png"}, "primary": true}], "photos": {"count": 0, "groups": []}}, "referralId": "e-0-4c431130cc410f47a7a1ad61-17"}, {"reasons": {"count": 0, "items": [{"summary": "This spot is popular", "type": "general", "reasonName": "globalInteractionReason"}]}, "venue": {"id": "4d81c37baff72d43424452bf", "name": "REWE", "location": {"address": "Oberspreestra\u00dfe 145", "lat": 52.4461504579152, "lng": 13.56417863973752, "labeledLatLngs": [{"label": "display", "lat": 52.4461504579152, "lng": 13.56417863973752}], "distance": 666, "postalCode": "12555", "cc": "DE", "city": "Berlin", "state": "Berlin", "country": "Deutschland", "formattedAddress": ["Oberspreestra\u00dfe 145", "12555 Berlin", "Deutschland"]}, "categories": [{"id": "52f2ab2ebcbc57f1066b8b46", "name": "Supermarket", "pluralName": "Supermarkets", "shortName": "Supermarket", "icon": {"prefix": "https://ss3.4sqi.net/img/categories_v2/shops/food_grocery_", "suffix": ".png"}, "primary": true}], "photos": {"count": 0, "groups": []}, "venuePage": {"id": "577770248"}}, "referralId": "e-0-4d81c37baff72d43424452bf-18"}, {"reasons": {"count": 0, "items": [{"summary": "This spot is popular", "type": "general", "reasonName": "globalInteractionReason"}]}, "venue": {"id": "4f4779f4e4b0db1b33d5ff2f", "name": "Lidl", "location": {"address": "Gr\u00fcnauer Str. 118", "lat": 52.4367441, "lng": 13.5705023, "labeledLatLngs": [{"label": "display", "lat": 52.4367441, "lng": 13.5705023}], "distance": 502, "postalCode": "12557", "cc": "DE", "city": "Berlin", "state": "Berlin", "country": "Deutschland", "formattedAddress": ["Gr\u00fcnauer Str. 118", "12557 Berlin-Treptow-K\u00f6penick", "Deutschland"]}, "categories": [{"id": "52f2ab2ebcbc57f1066b8b46", "name": "Supermarket", "pluralName": "Supermarkets", "shortName": "Supermarket", "icon": {"prefix": "https://ss3.4sqi.net/img/categories_v2/shops/food_grocery_", "suffix": ".png"}, "primary": true}], "photos": {"count": 0, "groups": []}, "venuePage": {"id": "580264502"}}, "referralId": "e-0-4f4779f4e4b0db1b33d5ff2f-19"}, {"reasons": {"count": 0, "items": [{"summary": "This spot is popular", "type": "general", "reasonName": "globalInteractionReason"}]}, "venue": {"id": "51421e07e4b0fb9a2f9394f0", "name": "Vero Ristorante", "location": {"address": "Alt K\u00f6penick 20", "lat": 52.44598383982776, "lng": 13.574881710370088, "labeledLatLngs": [{"label": "display", "lat": 52.44598383982776, "lng": 13.574881710370088}], "distance": 885, "postalCode": "12555", "cc": "DE", "city": "Berlin", "state": "Berlin", "country": "Deutschland", "formattedAddress": ["Alt K\u00f6penick 20", "12555 Berlin", "Deutschland"]}, "categories": [{"id": "4bf58dd8d48988d110941735", "name": "Italian Restaurant", "pluralName": "Italian Restaurants", "shortName": "Italian", "icon": {"prefix": "https://ss3.4sqi.net/img/categories_v2/food/italian_", "suffix": ".png"}, "primary": true}], "photos": {"count": 0, "groups": []}}, "referralId": "e-0-51421e07e4b0fb9a2f9394f0-20"}, {"reasons": {"count": 0, "items": [{"summary": "This spot is popular", "type": "general", "reasonName": "globalInteractionReason"}]}, "venue": {"id": "4d26239395e8f04d1719404d", "name": "Luise", "location": {"address": "Alt-K\u00f6penick 20", "lat": 52.44593578772007, "lng": 13.573819616315847, "labeledLatLngs": [{"label": "display", "lat": 52.44593578772007, "lng": 13.573819616315847}], "distance": 832, "postalCode": "12555", "cc": "DE", "city": "Berlin", "state": "Berlin", "country": "Deutschland", "formattedAddress": ["Alt-K\u00f6penick 20", "12555 Berlin", "Deutschland"]}, "categories": [{"id": "4bf58dd8d48988d10d941735", "name": "German Restaurant", "pluralName": "German Restaurants", "shortName": "German", "icon": {"prefix": "https://ss3.4sqi.net/img/categories_v2/food/german_", "suffix": ".png"}, "primary": true}], "photos": {"count": 0, "groups": []}}, "referralId": "e-0-4d26239395e8f04d1719404d-21"}, {"reasons": {"count": 0, "items": [{"summary": "This spot is popular", "type": "general", "reasonName": "globalInteractionReason"}]}, "venue": {"id": "579478ab498ee2536ab32748", "name": "PENNY", "location": {"address": "Glienicker Stra\u00dfe 60", "lat": 52.43838496, "lng": 13.56312533, "labeledLatLngs": [{"label": "display", "lat": 52.43838496, "lng": 13.56312533}], "distance": 277, "postalCode": "12557", "cc": "DE", "city": "Berlin", "state": "Berlin", "country": "Deutschland", "formattedAddress": ["Glienicker Stra\u00dfe 60", "12557 Berlin", "Deutschland"]}, "categories": [{"id": "4bf58dd8d48988d186941735", "name": "Liquor Store", "pluralName": "Liquor Stores", "shortName": "Liquor Store", "icon": {"prefix": "https://ss3.4sqi.net/img/categories_v2/shops/food_liquor_", "suffix": ".png"}, "primary": true}], "photos": {"count": 0, "groups": []}, "venuePage": {"id": "473952989"}}, "referralId": "e-0-579478ab498ee2536ab32748-22"}, {"reasons": {"count": 0, "items": [{"summary": "This spot is popular", "type": "general", "reasonName": "globalInteractionReason"}]}, "venue": {"id": "4df25d82b0fb807158be28b2", "name": "Posadas Steakhouse Bar", "location": {"address": "D\u00f6rpfeldstr. 69", "lat": 52.43970163739141, "lng": 13.553226339049985, "labeledLatLngs": [{"label": "display", "lat": 52.43970163739141, "lng": 13.553226339049985}], "distance": 858, "postalCode": "12489", "cc": "DE", "city": "Berlin", "state": "Berlin", "country": "Deutschland", "formattedAddress": ["D\u00f6rpfeldstr. 69", "12489 Berlin", "Deutschland"]}, "categories": [{"id": "4bf58dd8d48988d1cc941735", "name": "Steakhouse", "pluralName": "Steakhouses", "shortName": "Steakhouse", "icon": {"prefix": "https://ss3.4sqi.net/img/categories_v2/food/steakhouse_", "suffix": ".png"}, "primary": true}], "photos": {"count": 0, "groups": []}}, "referralId": "e-0-4df25d82b0fb807158be28b2-23"}, {"reasons": {"count": 0, "items": [{"summary": "This spot is popular", "type": "general", "reasonName": "globalInteractionReason"}]}, "venue": {"id": "4df7112962845f605bb5d27e", "name": "Sportplatz D\u00f6rpfeldstra\u00dfe", "location": {"address": "D\u00f6rpfeldstr.", "lat": 52.4398140835154, "lng": 13.555844673426133, "labeledLatLngs": [{"label": "display", "lat": 52.4398140835154, "lng": 13.555844673426133}], "distance": 680, "cc": "DE", "city": "Berlin", "state": "Berlin", "country": "Deutschland", "formattedAddress": ["D\u00f6rpfeldstr.", "Berlin", "Deutschland"]}, "categories": [{"id": "4f4528bc4b90abdf24c9de85", "name": "Athletics & Sports", "pluralName": "Athletics & Sports", "shortName": "Athletics & Sports", "icon": {"prefix": "https://ss3.4sqi.net/img/categories_v2/shops/sports_outdoors_", "suffix": ".png"}, "primary": true}], "photos": {"count": 0, "groups": []}}, "referralId": "e-0-4df7112962845f605bb5d27e-24"}, {"reasons": {"count": 0, "items": [{"summary": "This spot is popular", "type": "general", "reasonName": "globalInteractionReason"}]}, "venue": {"id": "4f2eace0e4b010c5f70c1023", "name": "HerrmannsEck", "location": {"address": "B\u00fcchnerweg 32", "lat": 52.43607392277399, "lng": 13.555360141443371, "labeledLatLngs": [{"label": "display", "lat": 52.43607392277399, "lng": 13.555360141443371}], "distance": 849, "postalCode": "12489\u200e", "cc": "DE", "city": "Berlin", "state": "Berlin", "country": "Deutschland", "formattedAddress": ["B\u00fcchnerweg 32", "12489\u200e Berlin", "Deutschland"]}, "categories": [{"id": "4bf58dd8d48988d10d941735", "name": "German Restaurant", "pluralName": "German Restaurants", "shortName": "German", "icon": {"prefix": "https://ss3.4sqi.net/img/categories_v2/food/german_", "suffix": ".png"}, "primary": true}], "photos": {"count": 0, "groups": []}}, "referralId": "e-0-4f2eace0e4b010c5f70c1023-25"}, {"reasons": {"count": 0, "items": [{"summary": "This spot is popular", "type": "general", "reasonName": "globalInteractionReason"}]}, "venue": {"id": "5156c12ee4b0226f7d8455e7", "name": "Arndtplatz", "location": {"lat": 52.435871592697204, "lng": 13.555113674953127, "labeledLatLngs": [{"label": "display", "lat": 52.435871592697204, "lng": 13.555113674953127}], "distance": 876, "cc": "DE", "country": "Deutschland", "formattedAddress": ["Deutschland"]}, "categories": [{"id": "4bf58dd8d48988d164941735", "name": "Plaza", "pluralName": "Plazas", "shortName": "Plaza", "icon": {"prefix": "https://ss3.4sqi.net/img/categories_v2/parks_outdoors/plaza_", "suffix": ".png"}, "primary": true}], "photos": {"count": 0, "groups": []}}, "referralId": "e-0-5156c12ee4b0226f7d8455e7-26"}, {"reasons": {"count": 0, "items": [{"summary": "This spot is popular", "type": "general", "reasonName": "globalInteractionReason"}]}, "venue": {"id": "4c34958309a99c74ba2e0c2a", "name": "Mentzelpark", "location": {"address": "Mentzelstr. 33", "lat": 52.44818944795439, "lng": 13.569402694702148, "labeledLatLngs": [{"label": "display", "lat": 52.44818944795439, "lng": 13.569402694702148}], "distance": 916, "postalCode": "12555", "cc": "DE", "city": "Berlin", "state": "Berlin", "country": "Deutschland", "formattedAddress": ["Mentzelstr. 33", "12555 Berlin", "Deutschland"]}, "categories": [{"id": "4bf58dd8d48988d163941735", "name": "Park", "pluralName": "Parks", "shortName": "Park", "icon": {"prefix": "https://ss3.4sqi.net/img/categories_v2/parks_outdoors/park_", "suffix": ".png"}, "primary": true}], "photos": {"count": 0, "groups": []}}, "referralId": "e-0-4c34958309a99c74ba2e0c2a-27"}, {"reasons": {"count": 0, "items": [{"summary": "This spot is popular", "type": "general", "reasonName": "globalInteractionReason"}]}, "venue": {"id": "4c389cee1a38ef3b8bad9221", "name": "NETTO", "location": {"address": "Glienicker Weg 126", "lat": 52.4337805, "lng": 13.5560936, "labeledLatLngs": [{"label": "display", "lat": 52.4337805, "lng": 13.5560936}], "distance": 977, "postalCode": "12489", "cc": "DE", "city": "Berlin", "state": "Berlin", "country": "Deutschland", "formattedAddress": ["Glienicker Weg 126", "12489 Berlin", "Deutschland"]}, "categories": [{"id": "52f2ab2ebcbc57f1066b8b46", "name": "Supermarket", "pluralName": "Supermarkets", "shortName": "Supermarket", "icon": {"prefix": "https://ss3.4sqi.net/img/categories_v2/shops/food_grocery_", "suffix": ".png"}, "primary": true}], "photos": {"count": 0, "groups": []}, "venuePage": {"id": "451033328"}}, "referralId": "e-0-4c389cee1a38ef3b8bad9221-28"}]