[{"reasons": {"count": 0, "items": [{"summary": "This spot is popular", "type": "general", "reasonName": "globalInteractionReason"}]}, "venue": {"id": "553f327a498ef304d458806a", "name": "Hugo Ball", "location": {"address": "Saalestr. 38", "crossStreet": "Siegfried-Aufh\u00e4user-Platz", "lat": 52.472613, "lng": 13.45484, "labeledLatLngs": [{"label": "display", "lat": 52.472613, "lng": 13.45484}], "distance": 715, "postalCode": "12055", "cc": "DE", "city": "Berlin", "state": "Berlin", "country": "Deutschland", "formattedAddress": ["Saalestr. 38 (Siegfried-Aufh\u00e4user-Platz)", "12055 Berlin", "Deutschland"]}, "categories": [{"id": "52e81612bcbc57f1066b79f1", "name": "Bistro", "pluralName": "Bistros", "shortName": "Bistro", "icon": {"prefix": "https://ss3.4sqi.net/img/categories_v2/food/default_", "suffix": ".png"}, "primary": true}], "photos": {"count": 0, "groups": []}}, "referralId": "e-0-553f327a498ef304d458806a-0"}, {"reasons": {"count": 0, "items": [{"summary": "This spot is popular", "type": "general", "reasonName": "globalInteractionReason"}]}, "venue": {"id": "4d039544a26854810d9fb2bd", "name": "Geschwister Nothaft", "location": {"address": "Schwarzastr. 9", "lat": 52.472679, "lng": 13.454639, "labeledLatLngs": [{"label": "display", "lat": 52.472679, "lng": 13.454639}], "distance": 731, "postalCode": "12055", "cc": "DE", "city": "Berlin", "state": "Berlin", "country": "Deutschland", "formattedAddress": ["Schwarzastr. 9", "12055 Berlin", "Deutschland"]}, "categories": [{"id": "4bf58dd8d48988d1e0931735", "name": "Coffee Shop", "pluralName": "Coffee Shops", "shortName": "Coffee Shop", "icon": {"prefix": "https://ss3.4sqi.net/img/categories_v2/food/coffeeshop_", "suffix": ".png"}, "primary": true}], "photos": {"count": 0, "groups": []}, "venuePage": {"id": "404620307"}}, "referralId": "e-0-4d039544a26854810d9fb2bd-1"}, {"reasons": {"count": 0, "items": [{"summary": "This spot is popular", "type": "general", "reasonName": "globalInteractionReason"}]}, "venue": {"id": "4ed29522e3007feb8019214b", "name": "Estrel Stube", "location": {"address": "Sonnenallee 225", "lat": 52.47378085266953, "lng": 13.459008358939503, "labeledLatLngs": [{"label": "display", "lat": 52.47378085266953, "lng": 13.459008358939503}], "distance": 634, "postalCode": "12057", "cc": "DE", "city": "Berlin", "state": "Berlin", "country": "Deutschland", "formattedAddress": ["Sonnenallee 225", "12057 Berlin", "Deutschland"]}, "categories": [{"id": "4bf58dd8d48988d10d941735", "name": "German Restaurant", "pluralName": "German Restaurants", "shortName": "German", "icon": {"prefix": "https://ss3.4sqi.net/img/categories_v2/food/german_", "suffix": ".png"}, "primary": true}], "photos": {"count": 0, "groups": []}, "venuePage": {"id": "33076915"}}, "referralId": "e-0-4ed29522e3007feb8019214b-2"}, {"reasons": {"count": 0, "items": [{"summary": "This spot is popular", "type": "general", "reasonName": "globalInteractionReason"}]}, "venue": {"id": "4c164edba9c220a10e675a9d", "name": "Trattoria La Terrazza", "location": {"address": "Steinbockstr. 20", "lat": 52.470555706260356, "lng": 13.46820742396286, "labeledLatLngs": [{"label": "display", "lat": 52.470555706260356, "lng": 13.46820742396286}], "distance": 399, "postalCode": "12057", "cc": "DE", "city": "Berlin", "state": "Berlin", "country": "Deutschland", "formattedAddress": ["Steinbockstr. 20", "12057 Berlin", "Deutschland"]}, "categories": [{"id": "55a5a1ebe4b013909087cb7f", "name": "Trattoria/Osteria", "pluralName": "Trattorias/Osterias", "shortName": "Trattoria/Osteria", "icon": {"prefix": "https://ss3.4sqi.net/img/categories_v2/food/italian_", "suffix": ".png"}, "primary": true}], "photos": {"count": 0, "groups": []}}, "referralId": "e-0-4c164edba9c220a10e675a9d-3"}, {"reasons": {"count": 0, "items": [{"summary": "This spot is popular", "type": "general", "reasonName": "globalInteractionReason"}]}, "venue": {"id": "5914164be2ead12a20de6b97", "name": "Internet Explorer", "location": {"address": "Ziegrastr. 11", "lat": 52.47642231748866, "lng": 13.4597647190094, "labeledLatLngs": [{"label": "display", "lat": 52.47642231748866, "lng": 13.4597647190094}], "distance": 892, "postalCode": "12057", "cc": "DE", "city": "Berlin", "state": "Berlin", "country": "Deutschland", "formattedAddress": ["Ziegrastr. 11", "12057 Berlin", "Deutschland"]}, "categories": [{"id": "4bf58dd8d48988d1e5931735", "name": "Music Venue", "pluralName": "Music Venues", "shortName": "Music Venue", "icon": {"prefix": "https://ss3.4sqi.net/img/categories_v2/arts_entertainment/musicvenue_", "suffix": ".png"}, "primary": true}], "photos": {"count": 0, "groups": []}}, "referralId": "e-0-5914164be2ead12a20de6b97-4"}, {"reasons": {"count": 0, "items": [{"summary": "This spot is popular", "type": "general", "reasonName": "globalInteractionReason"}]}, "venue": {"id": "4f2dbf03e4b050b64986bb1f", "name": "CockTail D'Amore", "location": {"address": "Ziegrastr. 11-13", "lat": 52.47625154455697, "lng": 13.457641739592098, "labeledLatLngs": [{"label": "display", "lat": 52.47625154455697, "lng": 13.457641739592098}], "distance": 923, "postalCode": "12057", "cc": "DE", "city": "Berlin", "state": "Berlin", "country": "Deutschland", "formattedAddress": ["Ziegrastr. 11-13", "12057 Berlin", "Deutschland"]}, "categories": [{"id": "4bf58dd8d48988d11f941735", "name": "Nightclub", "pluralName": "Nightclubs", "shortName": "Nightclub", "icon": {"prefix": "https://ss3.4sqi.net/img/categories_v2/nightlife/nightclub_", "suffix": ".png"}, "primary": true}], "photos": {"count": 0, "groups": []}}, "referralId": "e-0-4f2dbf03e4b050b64986bb1f-5"}, {"reasons": {"count": 0, "items": [{"summary": "This spot is popular", "type": "general", "reasonName": "globalInteractionReason"}]}, "venue": {"id": "4d4c33477aa6a35df097d470", "name": "Pizzeria Mimo", "location": {"address": "Braunschweiger Stra\u00dfe 12", "lat": 52.473373518737084, "lng": 13.453154411918812, "labeledLatLngs": [{"label": "display", "lat": 52.473373518737084, "lng": 13.453154411918812}], "distance": 857, "postalCode": "12055", "cc": "DE", "city": "Berlin", "state": "Berlin", "country": "Deutschland", "formattedAddress": ["Braunschweiger Stra\u00dfe 12", "12055 Berlin", "Deutschland"]}, "categories": [{"id": "4bf58dd8d48988d110941735", "name": "Italian Restaurant", "pluralName": "Italian Restaurants", "shortName": "Italian", "icon": {"prefix": "https://ss3.4sqi.net/img/categories_v2/food/italian_", "suffix": ".png"}, "primary": true}], "photos": {"count": 0, "groups": []}}, "referralId": "e-0-4d4c33477aa6a35df097d470-6"}, {"reasons": {"count": 0, "items": [{"summary": "This spot is popular", "type": "general", "reasonName": "globalInteractionReason"}]}, "venue": {"id": "4adcda8bf964a520c94921e3", "name": "Stars in Concert", "location": {"address": "Sonnenallee 225", "lat": 52.47510000284005, "lng": 13.459109602764821, "labeledLatLngs": [{"label": "display", "lat": 52.47510000284005, "lng": 13.459109602764821}], "distance": 766, "postalCode": "12057", "cc": "DE", "city": "Berlin", "state": "Berlin", "country": "Deutschland", "formattedAddress": ["Sonnenallee 225", "12057 Berlin", "Deutschland"]}, "categories": [{"id": "4bf58dd8d48988d1f2931735", "name": "Performing Arts Venue", "pluralName": "Performing Arts Venues", "shortName": "Performing Arts", "icon": {"prefix": "https://ss3.4sqi.net/img/categories_v2/arts_entertainment/performingarts_", "suffix": ".png"}, "primary": true}], "photos": {"count": 0, "groups": []}, "venuePage": {"id": "33076919"}}, "referralId": "e-0-4adcda8bf964a520c94921e3-7"}, {"reasons": {"count": 0, "items": [{"summary": "This spot is popular", "type": "general", "reasonName": "globalInteractionReason"}]}, "venue": {"id": "4ff34690e4b07fe9448ad592", "name": "HAS B\u00e4ckerei", "location": {"address": "Braunschweiger Str. 3", "lat": 52.47412715606325, "lng": 13.45389309030341, "labeledLatLngs": [{"label": "display", "lat": 52.47412715606325, "lng": 13.45389309030341}], "distance": 874, "postalCode": "12055", "cc": "DE", "city": "Berlin", "state": "Berlin", "country": "Deutschland", "formattedAddress": ["Braunschweiger Str. 3", "12055 Berlin", "Deutschland"]}, "categories": [{"id": "4bf58dd8d48988d16a941735", "name": "Bakery", "pluralName": "Bakeries", "shortName": "Bakery", "icon": {"prefix": "https://ss3.4sqi.net/img/categories_v2/food/bakery_", "suffix": ".png"}, "primary": true}], "photos": {"count": 0, "groups": []}}, "referralId": "e-0-4ff34690e4b07fe9448ad592-8"}, {"reasons": {"count": 0, "items": [{"summary": "This spot is popular", "type": "general", "reasonName": "globalInteractionReason"}]}, "venue": {"id": "51bb75a0498e4a3ea4eff7f6", "name": "Bei Ruth", "location": {"address": "Ziegrastra\u00dfe 11-13", "lat": 52.47643736542704, "lng": 13.460358583538131, "labeledLatLngs": [{"label": "display", "lat": 52.47643736542704, "lng": 13.460358583538131}], "distance": 884, "postalCode": "12057", "cc": "DE", "neighborhood": "K\u00f6llnische Heide", "city": "Berlin", "state": "Berlin", "country": "Deutschland", "formattedAddress": ["Ziegrastra\u00dfe 11-13", "12057 Berlin", "Deutschland"]}, "categories": [{"id": "4bf58dd8d48988d1e9931735", "name": "Rock Club", "pluralName": "Rock Clubs", "shortName": "Rock Club", "icon": {"prefix": "https://ss3.4sqi.net/img/categories_v2/arts_entertainment/musicvenue_rockclub_", "suffix": ".png"}, "primary": true}], "photos": {"count": 0, "groups": []}}, "referralId": "e-0-51bb75a0498e4a3ea4eff7f6-9"}, {"reasons": {"count": 0, "items": [{"summary": "This spot is popular", "type": "general", "reasonName": "globalInteractionReason"}]}, "venue": {"id": "501c094ae4b01e6a9102fabf", "name": "Estrel Sommergarten", "location": {"address": "Sonnenallee 225", "crossStreet": "Ziegrastr.", "lat": 52.473488092811046, "lng": 13.458294868469238, "labeledLatLngs": [{"label": "display", "lat": 52.473488092811046, "lng": 13.458294868469238}], "distance": 629, "postalCode": "12057", "cc": "DE", "city": "Berlin", "state": "Berlin", "country": "Deutschland", "formattedAddress": ["Sonnenallee 225 (Ziegrastr.)", "12057 Berlin", "Deutschland"]}, "categories": [{"id": "4bf58dd8d48988d117941735", "name": "Beer Garden", "pluralName": "Beer Gardens", "shortName": "Beer Garden", "icon": {"prefix": "https://ss3.4sqi.net/img/categories_v2/nightlife/beergarden_", "suffix": ".png"}, "primary": true}], "photos": {"count": 0, "groups": []}}, "referralId": "e-0-501c094ae4b01e6a9102fabf-10"}, {"reasons": {"count": 0, "items": [{"summary": "This spot is popular", "type": "general", "reasonName": "globalInteractionReason"}]}, "venue": {"id": "4adcda6ef964a520d34421e3", "name": "Estrel Hotel Berlin", "location": {"address": "Sonnenallee 225", "crossStreet": "Ziegrastr.", "lat": 52.47373920517348, "lng": 13.458985090843615, "labeledLatLngs": [{"label": "display", "lat": 52.47373920517348, "lng": 13.458985090843615}], "distance": 631, "postalCode": "12057", "cc": "DE", "city": "Berlin", "state": "Berlin", "country": "Deutschland", "formattedAddress": ["Sonnenallee 225 (Ziegrastr.)", "12057 Berlin", "Deutschland"]}, "categories": [{"id": "4bf58dd8d48988d1fa931735", "name": "Hotel", "pluralName": "Hotels", "shortName": "Hotel", "icon": {"prefix": "https://ss3.4sqi.net/img/categories_v2/travel/hotel_", "suffix": ".png"}, "primary": true}], "photos": {"count": 0, "groups": []}, "venuePage": {"id": "33076914"}}, "referralId": "e-0-4adcda6ef964a520d34421e3-11"}, {"reasons": {"count": 0, "items": [{"summary": "This spot is popular", "type": "general", "reasonName": "globalInteractionReason"}]}, "venue": {"id": "588b350318384c6bf1a20aaf", "name": "Das Pi", "location": {"address": "Saalestr. 39A", "lat": 52.47306216996324, "lng": 13.455258476896844, "labeledLatLngs": [{"label": "display", "lat": 52.47306216996324, "lng": 13.455258476896844}], "distance": 726, "postalCode": "12055", "cc": "DE", "city": "Berlin", "state": "Berlin", "country": "Deutschland", "formattedAddress": ["Saalestr. 39A", "12055 Berlin", "Deutschland"]}, "categories": [{"id": "4bf58dd8d48988d1ca941735", "name": "Pizza Place", "pluralName": "Pizza Places", "shortName": "Pizza", "icon": {"prefix": "https://ss3.4sqi.net/img/categories_v2/food/pizza_", "suffix": ".png"}, "primary": true}], "photos": {"count": 0, "groups": []}}, "referralId": "e-0-588b350318384c6bf1a20aaf-12"}, {"reasons": {"count": 0, "items": [{"summary": "This spot is popular", "type": "general", "reasonName": "globalInteractionReason"}]}, "venue": {"id": "503fbd0b7e2752ec471b5768", "name": "Rossmann", "location": {"address": "Grenzallee 4h", "lat": 52.47060290293858, "lng": 13.461236149108684, "labeledLatLngs": [{"label": "display", "lat": 52.47060290293858, "lng": 13.461236149108684}], "distance": 251, "postalCode": "12057", "cc": "DE", "city": "Berlin", "state": "Berlin", "country": "Deutschland", "formattedAddress": ["Grenzallee 4h", "12057 Berlin", "Deutschland"]}, "categories": [{"id": "5745c2e4498e11e7bccabdbd", "name": "Drugstore", "pluralName": "Drugstores", "shortName": "Drugstore", "icon": {"prefix": "https://ss3.4sqi.net/img/categories_v2/shops/pharmacy_", "suffix": ".png"}, "primary": true}], "photos": {"count": 0, "groups": []}}, "referralId": "e-0-503fbd0b7e2752ec471b5768-13"}, {"reasons": {"count": 0, "items": [{"summary": "This spot is popular", "type": "general", "reasonName": "globalInteractionReason"}]}, "venue": {"id": "4c0f8da97189c9285633dab6", "name": "EDEKA Center Neuk\u00f6lln", "location": {"address": "Grenzallee 4-6", "lat": 52.47003956206447, "lng": 13.46210268517639, "labeledLatLngs": [{"label": "display", "lat": 52.47003956206447, "lng": 13.46210268517639}], "distance": 168, "postalCode": "12057", "cc": "DE", "city": "Berlin", "state": "Berlin", "country": "Deutschland", "formattedAddress": ["Grenzallee 4-6", "12057 Berlin", "Deutschland"]}, "categories": [{"id": "52f2ab2ebcbc57f1066b8b46", "name": "Supermarket", "pluralName": "Supermarkets", "shortName": "Supermarket", "icon": {"prefix": "https://ss3.4sqi.net/img/categories_v2/shops/food_grocery_", "suffix": ".png"}, "primary": true}], "photos": {"count": 0, "groups": []}, "venuePage": {"id": "555202353"}}, "referralId": "e-0-4c0f8da97189c9285633dab6-14"}, {"reasons": {"count": 0, "items": [{"summary": "This spot is popular", "type": "general", "reasonName": "globalInteractionReason"}]}, "venue": {"id": "55d2dd01498e77961c776d13", "name": "La Terrasse", "location": {"address": "Sonnenallee 225", "lat": 52.47372242899785, "lng": 13.458931894957775, "labeledLatLngs": [{"label": "display", "lat": 52.47372242899785, "lng": 13.458931894957775}], "distance": 631, "postalCode": "12057", "cc": "DE", "city": "Berlin", "state": "Berlin", "country": "Deutschland", "formattedAddress": ["Sonnenallee 225", "12057 Berlin", "Deutschland"]}, "categories": [{"id": "4bf58dd8d48988d143941735", "name": "Breakfast Spot", "pluralName": "Breakfast Spots", "shortName": "Breakfast", "icon": {"prefix": "https://ss3.4sqi.net/img/categories_v2/food/breakfast_", "suffix": ".png"}, "primary": true}], "photos": {"count": 0, "groups": []}}, "referralId": "e-0-55d2dd01498e77961c776d13-15"}, {"reasons": {"count": 0, "items": [{"summary": "This spot is popular", "type": "general", "reasonName": "globalInteractionReason"}]}, "venue": {"id": "57322c43498e6b261da728eb", "name": "Kleinod", "location": {"address": "Niemetzstrasse 24", "lat": 52.4717942636079, "lng": 13.451036840567824, "labeledLatLngs": [{"label": "display", "lat": 52.4717942636079, "lng": 13.451036840567824}], "distance": 894, "postalCode": "12053", "cc": "DE", "city": "Berlin", "state": "Berlin", "country": "Deutschland", "formattedAddress": ["Niemetzstrasse 24", "12053 Berlin", "Deutschland"]}, "categories": [{"id": "4bf58dd8d48988d116941735", "name": "Bar", "pluralName": "Bars", "shortName": "Bar", "icon": {"prefix": "https://ss3.4sqi.net/img/categories_v2/nightlife/pub_", "suffix": ".png"}, "primary": true}], "photos": {"count": 0, "groups": []}}, "referralId": "e-0-57322c43498e6b261da728eb-16"}, {"reasons": {"count": 0, "items": [{"summary": "This spot is popular", "type": "general", "reasonName": "globalInteractionReason"}]}, "venue": {"id": "4c3c52954bc9a5931772d271", "name": "A.T.U Berlin - Neuk\u00f6lln", "location": {"address": "Grenzallee 8", "lat": 52.468951, "lng": 13.460809, "labeledLatLngs": [{"label": "display", "lat": 52.468951, "lng": 13.460809}], "distance": 164, "postalCode": "12057", "cc": "DE", "city": "Berlin", "state": "Berlin", "country": "Deutschland", "formattedAddress": ["Grenzallee 8", "12057 Berlin", "Deutschland"]}, "categories": [{"id": "4bf58dd8d48988d124951735", "name": "Automotive Shop", "pluralName": "Automotive Shops", "shortName": "Automotive", "icon": {"prefix": "https://ss3.4sqi.net/img/categories_v2/shops/automotive_", "suffix": ".png"}, "primary": true}], "photos": {"count": 0, "groups": []}}, "referralId": "e-0-4c3c52954bc9a5931772d271-17"}, {"reasons": {"count": 0, "items": [{"summary": "This spot is popular", "type": "general", "reasonName": "globalInteractionReason"}]}, "venue": {"id": "4bdac2022a3a0f4702dfabb6", "name": "Robben & Wientjes", "location": {"address": "Lahnstr. 36-40", "crossStreet": "Mierstr.", "lat": 52.46877867943005, "lng": 13.450374916789261, "labeledLatLngs": [{"label": "display", "lat": 52.46877867943005, "lng": 13.450374916789261}], "distance": 869, "postalCode": "12055", "cc": "DE", "city": "Berlin", "state": "Berlin", "country": "Deutschland", "formattedAddress": ["Lahnstr. 36-40 (Mierstr.)", "12055 Berlin", "Deutschland"]}, "categories": [{"id": "4bf58dd8d48988d1ef941735", "name": "Rental Car Location", "pluralName": "Rental Car Locations", "shortName": "Rental Car", "icon": {"prefix": "https://ss3.4sqi.net/img/categories_v2/shops/airport_rentalcar_", "suffix": ".png"}, "primary": true}], "photos": {"count": 0, "groups": []}}, "referralId": "e-0-4bdac2022a3a0f4702dfabb6-18"}, {"reasons": {"count": 0, "items": [{"summary": "This spot is popular", "type": "general", "reasonName": "globalInteractionReason"}]}, "venue": {"id": "4ec3bdc2c2eed4eacbcdc225", "name": "Portofino", "location": {"address": "Sonnenallee 225", "lat": 52.47381275745735, "lng": 13.459035407227166, "labeledLatLngs": [{"label": "display", "lat": 52.47381275745735, "lng": 13.459035407227166}], "distance": 637, "postalCode": "12057", "cc": "DE", "city": "Berlin", "state": "Berlin", "country": "Deutschland", "formattedAddress": ["Sonnenallee 225", "12057 Berlin", "Deutschland"]}, "categories": [{"id": "4bf58dd8d48988d110941735", "name": "Italian Restaurant", "pluralName": "Italian Restaurants", "shortName": "Italian", "icon": {"prefix": "https://ss3.4sqi.net/img/categories_v2/food/italian_", "suffix": ".png"}, "primary": true}], "photos": {"count": 0, "groups": []}, "venuePage": {"id": "33076916"}}, "referralId": "e-0-4ec3bdc2c2eed4eacbcdc225-19"}, {"reasons": {"count": 0, "items": [{"summary": "This spot is popular", "type": "general", "reasonName": "globalInteractionReason"}]}, "venue": {"id": "5c97bd0786f4cc002c8f0d78", "name": "KFC", "location": {"address": "Grenzallee 37", "lat": 52.465241, "lng": 13.455572, "labeledLatLngs": [{"label": "display", "lat": 52.465241, "lng": 13.455572}], "distance": 643, "postalCode": "12057", "cc": "DE", "city": "Berlin", "state": "Berlin", "country": "Deutschland", "formattedAddress": ["Grenzallee 37", "12057 Berlin", "Deutschland"]}, "categories": [{"id": "4bf58dd8d48988d16e941735", "name": "Fast Food Restaurant", "pluralName": "Fast Food Restaurants", "shortName": "Fast Food", "icon": {"prefix": "https://ss3.4sqi.net/img/categories_v2/food/fastfood_", "suffix": ".png"}, "primary": true}], "photos": {"count": 0, "groups": []}}, "referralId": "e-0-5c97bd0786f4cc002c8f0d78-20"}, {"reasons": {"count": 0, "items": [{"summary": "This spot is popular", "type": "general", "reasonName": "globalInteractionReason"}]}, "venue": {"id": "4c346b8e7cc0c9b68a3bf39a", "name": "EDEKA aktiv markt", "location": {"address": "Braunschweiger Str. 21-25", "lat": 52.4719408955167, "lng": 13.451691162204712, "labeledLatLngs": [{"label": "display", "lat": 52.4719408955167, "lng": 13.451691162204712}], "distance": 860, "postalCode": "12055", "cc": "DE", "city": "Berlin", "state": "Berlin", "country": "Deutschland", "formattedAddress": ["Braunschweiger Str. 21-25", "12055 Berlin", "Deutschland"]}, "categories": [{"id": "52f2ab2ebcbc57f1066b8b46", "name": "Supermarket", "pluralName": "Supermarkets", "shortName": "Supermarket", "icon": {"prefix": "https://ss3.4sqi.net/img/categories_v2/shops/food_grocery_", "suffix": ".png"}, "primary": true}], "photos": {"count": 0, "groups": []}}, "referralId": "e-0-4c346b8e7cc0c9b68a3bf39a-21"}, {"reasons": {"count": 0, "items": [{"summary": "This spot is popular", "type": "general", "reasonName": "globalInteractionReason"}]}, "venue": {"id": "53f62049498e0d297ebcf19e", "name": "Kebab Haus", "location": {"lat": 52.47357841447918, "lng": 13.455802317008919, "labeledLatLngs": [{"label": "display", "lat": 52.47357841447918, "lng": 13.455802317008919}], "distance": 740, "cc": "DE", "city": "Berlin", "state": "Berlin", "country": "Deutschland", "formattedAddress": ["Berlin", "Deutschland"]}, "categories": [{"id": "5283c7b4e4b094cb91ec88d8", "name": "Doner Restaurant", "pluralName": "Doner Restaurants", "shortName": "Doner", "icon": {"prefix": "https://ss3.4sqi.net/img/categories_v2/food/turkish_", "suffix": ".png"}, "primary": true}], "photos": {"count": 0, "groups": []}}, "referralId": "e-0-53f62049498e0d297ebcf19e-22"}, {"reasons": {"count": 0, "items": [{"summary": "This spot is popular", "type": "general", "reasonName": "globalInteractionReason"}]}, "venue": {"id": "5173e832498e0a484f083a81", "name": "King D\u00f6ner", "location": {"address": "Sonnenallee 202", "crossStreet": "Braunschweiger Str.", "lat": 52.47498149884583, "lng": 13.453529123483692, "labeledLatLngs": [{"label": "display", "lat": 52.47498149884583, "lng": 13.453529123483692}], "distance": 959, "postalCode": "12059", "cc": "DE", "city": "Berlin", "state": "Berlin", "country": "Deutschland", "formattedAddress": ["Sonnenallee 202 (Braunschweiger Str.)", "12059 Berlin", "Deutschland"]}, "categories": [{"id": "5283c7b4e4b094cb91ec88d8", "name": "Doner Restaurant", "pluralName": "Doner Restaurants", "shortName": "Doner", "icon": {"prefix": "https://ss3.4sqi.net/img/categories_v2/food/turkish_", "suffix": ".png"}, "primary": true}], "photos": {"count": 0, "groups": []}}, "referralId": "e-0-5173e832498e0a484f083a81-23"}, {"reasons": {"count": 0, "items": [{"summary": "This spot is popular", "type": "general", "reasonName": "globalInteractionReason"}]}, "venue": {"id": "4f51f6cfe4b0b5d9dd7a3873", "name": "ALDI NORD", "location": {"address": "Grenzallee 4l", "lat": 52.470089, "lng": 13.461438, "labeledLatLngs": [{"label": "display", "lat": 52.470089, "lng": 13.461438}], "distance": 196, "postalCode": "12057", "cc": "DE", "city": "Berlin", "state": "Berlin", "country": "Deutschland", "formattedAddress": ["Grenzallee 4l", "12057 Berlin", "Deutschland"]}, "categories": [{"id": "52f2ab2ebcbc57f1066b8b46", "name": "Supermarket", "pluralName": "Supermarkets", "shortName": "Supermarket", "icon": {"prefix": "https://ss3.4sqi.net/img/categories_v2/shops/food_grocery_", "suffix": ".png"}, "primary": true}], "photos": {"count": 0, "groups": []}}, "referralId": "e-0-4f51f6cfe4b0b5d9dd7a3873-24"}, {"reasons": {"count": 0, "items": [{"summary": "This spot is popular", "type": "general", "reasonName": "globalInteractionReason"}]}, "venue": {"id": "5290c39511d25591bafec0ed", "name": "\u0130stikbal", "location": {"lat": 52.47088425499685, "lng": 13.463327354488278, "labeledLatLngs": [{"label": "display", "lat": 52.47088425499685, "lng": 13.463327354488278}], "distance": 245, "cc": "DE", "city": "Berlin", "state": "Berlin", "country": "Deutschland", "formattedAddress": ["Berlin", "Deutschland"]}, "categories": [{"id": "4bf58dd8d48988d1f8941735", "name": "Furniture / Home Store", "pluralName": "Furniture / Home Stores", "shortName": "Furniture / Home", "icon": {"prefix": "https://ss3.4sqi.net/img/categories_v2/shops/furniture_", "suffix": ".png"}, "primary": true}], "photos": {"count": 0, "groups": []}}, "referralId": "e-0-5290c39511d25591bafec0ed-25"}, {"reasons": {"count": 0, "items": [{"summary": "This spot is popular", "type": "general", "reasonName": "globalInteractionReason"}]}, "venue": {"id": "4c3756b43849c9281180bdb1", "name": "H Dammweg / Sonnenallee", "location": {"lat": 52.47116005686609, "lng": 13.464909984440746, "labeledLatLngs": [{"label": "display", "lat": 52.47116005686609, "lng": 13.464909984440746}], "distance": 299, "cc": "DE", "city": "Berlin", "state": "Berlin", "country": "Deutschland", "formattedAddress": ["Berlin", "Deutschland"]}, "categories": [{"id": "52f2ab2ebcbc57f1066b8b4f", "name": "Bus Stop", "pluralName": "Bus Stops", "shortName": "Bus Stop", "icon": {"prefix": "https://ss3.4sqi.net/img/categories_v2/travel/busstation_", "suffix": ".png"}, "primary": true}], "photos": {"count": 0, "groups": []}}, "referralId": "e-0-4c3756b43849c9281180bdb1-26"}, {"reasons": {"count": 0, "items": [{"summary": "This spot is popular", "type": "general", "reasonName": "globalInteractionReason"}]}, "venue": {"id": "4d288e806e27a143f1401b24", "name": "SB M\u00f6bel Boss", "location": {"address": "Grenzallee 34", "lat": 52.466194161220926, "lng": 13.456406593322754, "labeledLatLngs": [{"label": "display", "lat": 52.466194161220926, "lng": 13.456406593322754}], "distance": 536, "postalCode": "12057", "cc": "DE", "city": "Berlin", "state": "Berlin", "country": "Deutschland", "formattedAddress": ["Grenzallee 34", "12057 Berlin", "Deutschland"]}, "categories": [{"id": "4bf58dd8d48988d1f8941735", "name": "Furniture / Home Store", "pluralName": "Furniture / Home Stores", "shortName": "Furniture / Home", "icon": {"prefix": "https://ss3.4sqi.net/img/categories_v2/shops/furniture_", "suffix": ".png"}, "primary": true}], "photos": {"count": 0, "groups": []}}, "referralId": "e-0-4d288e806e27a143f1401b24-27"}, {"reasons": {"count": 0, "items": [{"summary": "This spot is popular", "type": "general", "reasonName": "globalInteractionReason"}]}, "venue": {"id": "57d29287498ed490d2a792b1", "name": "Tischtennisplatten an der Sonneninsel", "location": {"address": "Sonnenallee 223a", "lat": 52.47398992094956, "lng": 13.457397948694375, "labeledLatLngs": [{"label": "display", "lat": 52.47398992094956, "lng": 13.457397948694375}], "distance": 709, "postalCode": "12059", "cc": "DE", "city": "Berlin", "state": "Berlin", "country": "Deutschland", "formattedAddress": ["Sonnenallee 223a", "12059 Berlin", "Deutschland"]}, "categories": [{"id": "4f4528bc4b90abdf24c9de85", "name": "Athletics & Sports", "pluralName": "Athletics & Sports", "shortName": "Athletics & Sports", "icon": {"prefix": "https://ss3.4sqi.net/img/categories_v2/shops/sports_outdoors_", "suffix": ".png"}, "primary": true}], "photos": {"count": 0, "groups": []}}, "referralId": "e-0-57d29287498ed490d2a792b1-28"}, {"reasons": {"count": 0, "items": [{"summary": "This spot is popular", "type": "general", "reasonName": "globalInteractionReason"}]}, "venue": {"id": "4d61083a5c39b1f74f370b4a", "name": "Restaurant Dalmatino", "location": {"address": "Sonnenallee 321", "lat": 52.465477, "lng": 13.472667, "labeledLatLngs": [{"label": "display", "lat": 52.465477, "lng": 13.472667}], "distance": 734, "postalCode": "12057", "cc": "DE", "city": "Berlin", "state": "Berlin", "country": "Deutschland", "formattedAddress": ["Sonnenallee 321", "12057 Berlin", "Deutschland"]}, "categories": [{"id": "4bf58dd8d48988d109941735", "name": "Eastern European Restaurant", "pluralName": "Eastern European Restaurants", "shortName": "Eastern European", "icon": {"prefix": "https://ss3.4sqi.net/img/categories_v2/food/default_", "suffix": ".png"}, "primary": true}], "photos": {"count": 0, "groups": []}}, "referralId": "e-0-4d61083a5c39b1f74f370b4a-29"}, {"reasons": {"count": 0, "items": [{"summary": "This spot is popular", "type": "general", "reasonName": "globalInteractionReason"}]}, "venue": {"id": "5a8ac5d0838e5925cf29c671", "name": "CC Neuk\u00f6lln", "location": {"address": "Sonnenallee 221", "lat": 52.47450673570993, "lng": 13.45741282199021, "labeledLatLngs": [{"label": "display", "lat": 52.47450673570993, "lng": 13.45741282199021}], "distance": 757, "postalCode": "12059", "cc": "DE", "neighborhood": "K\u00f6llnische Heide", "city": "Berlin", "state": "Berlin", "country": "Deutschland", "formattedAddress": ["Sonnenallee 221", "12059 Berlin", "Deutschland"]}, "categories": [{"id": "4bf58dd8d48988d1cb941735", "name": "Food Truck", "pluralName": "Food Trucks", "shortName": "Food Truck", "icon": {"prefix": "https://ss3.4sqi.net/img/categories_v2/food/streetfood_", "suffix": ".png"}, "primary": true}], "photos": {"count": 0, "groups": []}}, "referralId": "e-0-5a8ac5d0838e5925cf29c671-30"}, {"reasons": {"count": 0, "items": [{"summary": "This spot is popular", "type": "general", "reasonName": "globalInteractionReason"}]}, "venue": {"id": "5a1d5b92b546185b18944966", "name": "FR\u00d6BEL-Kindergarten Highdechsen", "location": {"address": "Michael-Bohnen-Ring  52", "lat": 52.46541714901775, "lng": 13.473482877016068, "labeledLatLngs": [{"label": "display", "lat": 52.46541714901775, "lng": 13.473482877016068}], "distance": 786, "postalCode": "12057", "cc": "DE", "city": "Berlin", "state": "Berlin", "country": "Deutschland", "formattedAddress": ["Michael-Bohnen-Ring  52", "12057 Berlin", "Deutschland"]}, "categories": [{"id": "5744ccdfe4b0c0459246b4c7", "name": "Child Care Service", "pluralName": "Child Care Services", "shortName": "Child Care", "icon": {"prefix": "https://ss3.4sqi.net/img/categories_v2/shops/daycare_", "suffix": ".png"}, "primary": true}], "photos": {"count": 0, "groups": []}}, "referralId": "e-0-5a1d5b92b546185b18944966-31"}, {"reasons": {"count": 0, "items": [{"summary": "This spot is popular", "type": "general", "reasonName": "globalInteractionReason"}]}, "venue": {"id": "500d8761e4b0546b29e7e62a", "name": "Grenzstreifen Baumschulenweg", "location": {"address": "H\u00e4nselstr.", "crossStreet": "Heidekampweg", "lat": 52.468674, "lng": 13.474999, "labeledLatLngs": [{"label": "display", "lat": 52.468674, "lng": 13.474999}], "distance": 800, "cc": "DE", "city": "Berlin", "state": "Berlin", "country": "Deutschland", "formattedAddress": ["H\u00e4nselstr. (Heidekampweg)", "Berlin", "Deutschland"]}, "categories": [{"id": "4deefb944765f83613cdba6e", "name": "Historic Site", "pluralName": "Historic Sites", "shortName": "Historic Site", "icon": {"prefix": "https://ss3.4sqi.net/img/categories_v2/arts_entertainment/historicsite_", "suffix": ".png"}, "primary": true}], "photos": {"count": 0, "groups": []}}, "referralId": "e-0-500d8761e4b0546b29e7e62a-32"}, {"reasons": {"count": 0, "items": [{"summary": "This spot is popular", "type": "general", "reasonName": "globalInteractionReason"}]}, "venue": {"id": "503bac19e4b0d0d56bdbc979", "name": "H Frauenlobstra\u00dfe", "location": {"address": "Baumschulenstr.", "crossStreet": "Frauenlobstr.", "lat": 52.4636497269391, "lng": 13.47395797979307, "labeledLatLngs": [{"label": "display", "lat": 52.4636497269391, "lng": 13.47395797979307}], "distance": 920, "postalCode": "12437", "cc": "DE", "city": "Berlin", "state": "Berlin", "country": "Deutschland", "formattedAddress": ["Baumschulenstr. (Frauenlobstr.)", "12437 Berlin", "Deutschland"]}, "categories": [{"id": "52f2ab2ebcbc57f1066b8b4f", "name": "Bus Stop", "pluralName": "Bus Stops", "shortName": "Bus Stop", "icon": {"prefix": "https://ss3.4sqi.net/img/categories_v2/travel/busstation_", "suffix": ".png"}, "primary": true}], "photos": {"count": 0, "groups": []}}, "referralId": "e-0-503bac19e4b0d0d56bdbc979-33"}, {"reasons": {"count": 0, "items": [{"summary": "This spot is popular", "type": "general", "reasonName": "globalInteractionReason"}]}, "venue": {"id": "587474c45eef11699edc163e", "name": "PUK Group | Hauptverwaltung und Werk Berlin, Niederlassung Berlin/Brandenburg", "location": {"address": "Nobelstra\u00dfe 45-55", "lat": 52.46047875, "lng": 13.46139528, "labeledLatLngs": [{"label": "display", "lat": 52.46047875, "lng": 13.46139528}], "distance": 920, "postalCode": "12057", "cc": "DE", "city": "Berlin", "state": "Berlin", "country": "Deutschland", "formattedAddress": ["Nobelstra\u00dfe 45-55", "12057 Berlin", "Deutschland"]}, "categories": [{"id": "5454144b498ec1f095bff2f2", "name": "Construction & Landscaping", "pluralName": "Construction & Landscaping", "shortName": "Construction", "icon": {"prefix": "https://ss3.4sqi.net/img/categories_v2/shops/realestate_", "suffix": ".png"}, "primary": true}], "photos": {"count": 0, "groups": []}, "venuePage": {"id": "581433707"}}, "referralId": "e-0-587474c45eef11699edc163e-34"}]