[{"reasons": {"count": 0, "items": [{"summary": "This spot is popular", "type": "general", "reasonName": "globalInteractionReason"}]}, "venue": {"id": "4fddc220e4b0f11e359caa0a", "name": "What do you fancy love?", "location": {"address": "Knesebeckstr. 68-69", "lat": 52.502873, "lng": 13.322322, "labeledLatLngs": [{"label": "display", "lat": 52.502873, "lng": 13.322322}], "distance": 41, "postalCode": "10623", "cc": "DE", "neighborhood": "Charlottenburg", "city": "Berlin", "state": "Berlin", "country": "Deutschland", "formattedAddress": ["Knesebeckstr. 68-69", "10623 Berlin", "Deutschland"]}, "categories": [{"id": "4bf58dd8d48988d16d941735", "name": "Caf\u00e9", "pluralName": "Caf\u00e9s", "shortName": "Caf\u00e9", "icon": {"prefix": "https://ss3.4sqi.net/img/categories_v2/food/cafe_", "suffix": ".png"}, "primary": true}], "photos": {"count": 0, "groups": []}}, "referralId": "e-0-4fddc220e4b0f11e359caa0a-0"}, {"reasons": {"count": 0, "items": [{"summary": "This spot is popular", "type": "general", "reasonName": "globalInteractionReason"}]}, "venue": {"id": "55b0b181498e97dbb0547ef2", "name": "KLX - Koshary Lux", "location": {"address": "Grolmanstr. 27", "crossStreet": "Otto-Ludwig-Str.", "lat": 52.504594634694435, "lng": 13.32315981388092, "labeledLatLngs": [{"label": "display", "lat": 52.504594634694435, "lng": 13.32315981388092}], "distance": 190, "postalCode": "10623", "cc": "DE", "neighborhood": "Charlottenburg", "city": "Berlin", "state": "Berlin", "country": "Deutschland", "formattedAddress": ["Grolmanstr. 27 (Otto-Ludwig-Str.)", "10623 Berlin", "Deutschland"]}, "categories": [{"id": "4bf58dd8d48988d115941735", "name": "Middle Eastern Restaurant", "pluralName": "Middle Eastern Restaurants", "shortName": "Middle Eastern", "icon": {"prefix": "https://ss3.4sqi.net/img/categories_v2/food/middleeastern_", "suffix": ".png"}, "primary": true}], "photos": {"count": 0, "groups": []}}, "referralId": "e-0-55b0b181498e97dbb0547ef2-1"}, {"reasons": {"count": 0, "items": [{"summary": "This spot is popular", "type": "general", "reasonName": "globalInteractionReason"}]}, "venue": {"id": "4bed62c89868a59354475d46", "name": "dm-drogerie markt", "location": {"address": "Kurf\u00fcrstendamm 34", "lat": 52.5026738240238, "lng": 13.324120071835068, "labeledLatLngs": [{"label": "display", "lat": 52.5026738240238, "lng": 13.324120071835068}], "distance": 83, "postalCode": "10719", "cc": "DE", "city": "Berlin", "state": "Berlin", "country": "Deutschland", "formattedAddress": ["Kurf\u00fcrstendamm 34", "10719 Berlin", "Deutschland"]}, "categories": [{"id": "5745c2e4498e11e7bccabdbd", "name": "Drugstore", "pluralName": "Drugstores", "shortName": "Drugstore", "icon": {"prefix": "https://ss3.4sqi.net/img/categories_v2/shops/pharmacy_", "suffix": ".png"}, "primary": true}], "photos": {"count": 0, "groups": []}, "venuePage": {"id": "453289355"}}, "referralId": "e-0-4bed62c89868a59354475d46-2"}, {"reasons": {"count": 0, "items": [{"summary": "This spot is popular", "type": "general", "reasonName": "globalInteractionReason"}]}, "venue": {"id": "4adcda8ef964a520954a21e3", "name": "B\u00fccherbogen", "location": {"address": "Stadtbahnbogen 593", "crossStreet": "Savignyplatz", "lat": 52.505095181456156, "lng": 13.321961290189389, "labeledLatLngs": [{"label": "display", "lat": 52.505095181456156, "lng": 13.321961290189389}], "distance": 254, "postalCode": "10623", "cc": "DE", "city": "Berlin", "state": "Berlin", "country": "Deutschland", "formattedAddress": ["Stadtbahnbogen 593 (Savignyplatz)", "10623 Berlin", "Deutschland"]}, "categories": [{"id": "4bf58dd8d48988d114951735", "name": "Bookstore", "pluralName": "Bookstores", "shortName": "Bookstore", "icon": {"prefix": "https://ss3.4sqi.net/img/categories_v2/shops/bookstore_", "suffix": ".png"}, "primary": true}], "photos": {"count": 0, "groups": []}}, "referralId": "e-0-4adcda8ef964a520954a21e3-3"}, {"reasons": {"count": 0, "items": [{"summary": "This spot is popular", "type": "general", "reasonName": "globalInteractionReason"}]}, "venue": {"id": "5d053dbb10fe5a0023e0eaf9", "name": "The Catch", "location": {"address": "Bleibtreustra\u00dfe 41", "lat": 52.502867, "lng": 13.319718, "labeledLatLngs": [{"label": "display", "lat": 52.502867, "lng": 13.319718}], "distance": 217, "cc": "DE", "country": "Deutschland", "formattedAddress": ["Bleibtreustra\u00dfe 41", "Deutschland"]}, "categories": [{"id": "4bf58dd8d48988d1ce941735", "name": "Seafood Restaurant", "pluralName": "Seafood Restaurants", "shortName": "Seafood", "icon": {"prefix": "https://ss3.4sqi.net/img/categories_v2/food/seafood_", "suffix": ".png"}, "primary": true}], "photos": {"count": 0, "groups": []}}, "referralId": "e-0-5d053dbb10fe5a0023e0eaf9-4"}, {"reasons": {"count": 0, "items": [{"summary": "This spot is popular", "type": "general", "reasonName": "globalInteractionReason"}]}, "venue": {"id": "4d481aa4febd8eec4f651282", "name": "BERLINRODEO interior concepts GmbH", "location": {"address": "Kadiner Stra\u00dfe 20a", "lat": 52.50116261839336, "lng": 13.325813509105057, "labeledLatLngs": [{"label": "display", "lat": 52.50116261839336, "lng": 13.325813509105057}], "distance": 273, "postalCode": "10243", "cc": "DE", "city": "Berlin", "state": "Berlin", "country": "Deutschland", "formattedAddress": ["Kadiner Stra\u00dfe 20a", "10243 Berlin", "Deutschland"]}, "categories": [{"id": "4bf58dd8d48988d1f8941735", "name": "Furniture / Home Store", "pluralName": "Furniture / Home Stores", "shortName": "Furniture / Home", "icon": {"prefix": "https://ss3.4sqi.net/img/categories_v2/shops/furniture_", "suffix": ".png"}, "primary": true}], "photos": {"count": 0, "groups": []}}, "referralId": "e-0-4d481aa4febd8eec4f651282-5"}, {"reasons": {"count": 0, "items": [{"summary": "This spot is popular", "type": "general", "reasonName": "globalInteractionReason"}]}, "venue": {"id": "4b9ff279f964a520b44c37e3", "name": "Hotel Q!", "location": {"address": "Knesebeckstr. 67", "lat": 52.50260284042012, "lng": 13.322196759843308, "labeledLatLngs": [{"label": "display", "lat": 52.50260284042012, "lng": 13.322196759843308}], "distance": 59, "postalCode": "10623", "cc": "DE", "city": "Berlin", "state": "Berlin", "country": "Deutschland", "formattedAddress": ["Knesebeckstr. 67", "10623 Berlin", "Deutschland"]}, "categories": [{"id": "4bf58dd8d48988d1fa931735", "name": "Hotel", "pluralName": "Hotels", "shortName": "Hotel", "icon": {"prefix": "https://ss3.4sqi.net/img/categories_v2/travel/hotel_", "suffix": ".png"}, "primary": true}], "photos": {"count": 0, "groups": []}}, "referralId": "e-0-4b9ff279f964a520b44c37e3-6"}, {"reasons": {"count": 0, "items": [{"summary": "This spot is popular", "type": "general", "reasonName": "globalInteractionReason"}]}, "venue": {"id": "4adcda88f964a520794921e3", "name": "Cassambalis", "location": {"address": "Grolmanstr. 35", "lat": 52.503586739447165, "lng": 13.32429905428063, "labeledLatLngs": [{"label": "display", "lat": 52.503586739447165, "lng": 13.32429905428063}], "distance": 121, "postalCode": "10623", "cc": "DE", "city": "Berlin", "state": "Berlin", "country": "Deutschland", "formattedAddress": ["Grolmanstr. 35", "10623 Berlin", "Deutschland"]}, "categories": [{"id": "4bf58dd8d48988d10e941735", "name": "Greek Restaurant", "pluralName": "Greek Restaurants", "shortName": "Greek", "icon": {"prefix": "https://ss3.4sqi.net/img/categories_v2/food/greek_", "suffix": ".png"}, "primary": true}], "photos": {"count": 0, "groups": []}}, "referralId": "e-0-4adcda88f964a520794921e3-7"}, {"reasons": {"count": 0, "items": [{"summary": "This spot is popular", "type": "general", "reasonName": "globalInteractionReason"}]}, "venue": {"id": "4b59ddfaf964a520099d28e3", "name": "Camera Work", "location": {"address": "Kantstr. 149", "lat": 52.50496767779486, "lng": 13.324428520656017, "labeledLatLngs": [{"label": "display", "lat": 52.50496767779486, "lng": 13.324428520656017}], "distance": 253, "postalCode": "10623", "cc": "DE", "city": "Berlin", "state": "Berlin", "country": "Deutschland", "formattedAddress": ["Kantstr. 149", "10623 Berlin", "Deutschland"]}, "categories": [{"id": "4bf58dd8d48988d1e2931735", "name": "Art Gallery", "pluralName": "Art Galleries", "shortName": "Art Gallery", "icon": {"prefix": "https://ss3.4sqi.net/img/categories_v2/arts_entertainment/artgallery_", "suffix": ".png"}, "primary": true}], "photos": {"count": 0, "groups": []}}, "referralId": "e-0-4b59ddfaf964a520099d28e3-8"}, {"reasons": {"count": 0, "items": [{"summary": "This spot is popular", "type": "general", "reasonName": "globalInteractionReason"}]}, "venue": {"id": "5aca1ac73b830774007324d6", "name": "Princess Cheesecake", "location": {"address": "Knesebeckstra\u00dfe 32", "lat": 52.50334, "lng": 13.321935, "labeledLatLngs": [{"label": "display", "lat": 52.50334, "lng": 13.321935}], "distance": 84, "postalCode": "10623", "cc": "DE", "city": "Berlin", "state": "Berlin", "country": "Deutschland", "formattedAddress": ["Knesebeckstra\u00dfe 32", "10623 Berlin", "Deutschland"]}, "categories": [{"id": "4bf58dd8d48988d1d0941735", "name": "Dessert Shop", "pluralName": "Dessert Shops", "shortName": "Desserts", "icon": {"prefix": "https://ss3.4sqi.net/img/categories_v2/food/dessert_", "suffix": ".png"}, "primary": true}], "photos": {"count": 0, "groups": []}}, "referralId": "e-0-5aca1ac73b830774007324d6-9"}, {"reasons": {"count": 0, "items": [{"summary": "This spot is popular", "type": "general", "reasonName": "globalInteractionReason"}]}, "venue": {"id": "4b1a34d7f964a5201fe823e3", "name": "1900 Caf\u00e9 Bistro", "location": {"address": "Knesebeckstr. 76", "lat": 52.50396320957807, "lng": 13.322120490108057, "labeledLatLngs": [{"label": "display", "lat": 52.50396320957807, "lng": 13.322120490108057}], "distance": 132, "postalCode": "10623", "cc": "DE", "city": "Berlin", "state": "Berlin", "country": "Deutschland", "formattedAddress": ["Knesebeckstr. 76", "10623 Berlin", "Deutschland"]}, "categories": [{"id": "4bf58dd8d48988d16d941735", "name": "Caf\u00e9", "pluralName": "Caf\u00e9s", "shortName": "Caf\u00e9", "icon": {"prefix": "https://ss3.4sqi.net/img/categories_v2/food/cafe_", "suffix": ".png"}, "primary": true}], "photos": {"count": 0, "groups": []}}, "referralId": "e-0-4b1a34d7f964a5201fe823e3-10"}, {"reasons": {"count": 0, "items": [{"summary": "This spot is popular", "type": "general", "reasonName": "globalInteractionReason"}]}, "venue": {"id": "5618dacd498eac6e7f54ca29", "name": "Lubitsch", "location": {"address": "Bleibtreustr. 47", "lat": 52.504459005663584, "lng": 13.319873410846645, "labeledLatLngs": [{"label": "display", "lat": 52.504459005663584, "lng": 13.319873410846645}], "distance": 271, "postalCode": "10623", "cc": "DE", "city": "Berlin", "state": "Berlin", "country": "Deutschland", "formattedAddress": ["Bleibtreustr. 47", "10623 Berlin", "Deutschland"]}, "categories": [{"id": "4bf58dd8d48988d1c4941735", "name": "Restaurant", "pluralName": "Restaurants", "shortName": "Restaurant", "icon": {"prefix": "https://ss3.4sqi.net/img/categories_v2/food/default_", "suffix": ".png"}, "primary": true}], "photos": {"count": 0, "groups": []}}, "referralId": "e-0-5618dacd498eac6e7f54ca29-11"}, {"reasons": {"count": 0, "items": [{"summary": "This spot is popular", "type": "general", "reasonName": "globalInteractionReason"}]}, "venue": {"id": "4adcda76f964a520ca4521e3", "name": "Schwarzes Caf\u00e9", "location": {"address": "Kantstr. 148", "lat": 52.505455, "lng": 13.324221, "labeledLatLngs": [{"label": "display", "lat": 52.505455, "lng": 13.324221}], "distance": 299, "postalCode": "10623", "cc": "DE", "city": "Berlin", "state": "Berlin", "country": "Deutschland", "formattedAddress": ["Kantstr. 148", "10623 Berlin", "Deutschland"]}, "categories": [{"id": "4bf58dd8d48988d16d941735", "name": "Caf\u00e9", "pluralName": "Caf\u00e9s", "shortName": "Caf\u00e9", "icon": {"prefix": "https://ss3.4sqi.net/img/categories_v2/food/cafe_", "suffix": ".png"}, "primary": true}], "photos": {"count": 0, "groups": []}}, "referralId": "e-0-4adcda76f964a520ca4521e3-12"}, {"reasons": {"count": 0, "items": [{"summary": "This spot is popular", "type": "general", "reasonName": "globalInteractionReason"}]}, "venue": {"id": "4c55af2e479fc928c39b4895", "name": "Repke Sp\u00e4tzlerei", "location": {"address": "Bleibtreustr. 46", "lat": 52.50423719054426, "lng": 13.319840023285504, "labeledLatLngs": [{"label": "display", "lat": 52.50423719054426, "lng": 13.319840023285504}], "distance": 258, "postalCode": "10623", "cc": "DE", "city": "Berlin", "state": "Berlin", "country": "Deutschland", "formattedAddress": ["Bleibtreustr. 46", "10623 Berlin", "Deutschland"]}, "categories": [{"id": "56aa371ce4b08b9a8d573576", "name": "Swabian Restaurant", "pluralName": "Swabian Restaurants", "shortName": "Swabian", "icon": {"prefix": "https://ss3.4sqi.net/img/categories_v2/food/german_", "suffix": ".png"}, "primary": true}], "photos": {"count": 0, "groups": []}}, "referralId": "e-0-4c55af2e479fc928c39b4895-13"}, {"reasons": {"count": 0, "items": [{"summary": "This spot is popular", "type": "general", "reasonName": "globalInteractionReason"}]}, "venue": {"id": "4bbe353b9474c9b63e41d9b6", "name": "Kushinoya", "location": {"address": "Bleibtreustr. 6", "lat": 52.50537184202184, "lng": 13.31998218055456, "labeledLatLngs": [{"label": "display", "lat": 52.50537184202184, "lng": 13.31998218055456}], "distance": 341, "postalCode": "10623", "cc": "DE", "city": "Berlin", "state": "Berlin", "country": "Deutschland", "formattedAddress": ["Bleibtreustr. 6", "10623 Berlin", "Deutschland"]}, "categories": [{"id": "4bf58dd8d48988d111941735", "name": "Japanese Restaurant", "pluralName": "Japanese Restaurants", "shortName": "Japanese", "icon": {"prefix": "https://ss3.4sqi.net/img/categories_v2/food/japanese_", "suffix": ".png"}, "primary": true}], "photos": {"count": 0, "groups": []}}, "referralId": "e-0-4bbe353b9474c9b63e41d9b6-14"}, {"reasons": {"count": 0, "items": [{"summary": "This spot is popular", "type": "general", "reasonName": "globalInteractionReason"}]}, "venue": {"id": "4dac31cea86e771ea7483544", "name": "Piccola Taormina", "location": {"address": "Uhlandstr. 29", "lat": 52.501230610988856, "lng": 13.324883986963448, "labeledLatLngs": [{"label": "display", "lat": 52.501230610988856, "lng": 13.324883986963448}], "distance": 226, "postalCode": "10719", "cc": "DE", "city": "Berlin", "state": "Berlin", "country": "Deutschland", "formattedAddress": ["Uhlandstr. 29", "10719 Berlin", "Deutschland"]}, "categories": [{"id": "4bf58dd8d48988d110941735", "name": "Italian Restaurant", "pluralName": "Italian Restaurants", "shortName": "Italian", "icon": {"prefix": "https://ss3.4sqi.net/img/categories_v2/food/italian_", "suffix": ".png"}, "primary": true}], "photos": {"count": 0, "groups": []}}, "referralId": "e-0-4dac31cea86e771ea7483544-15"}, {"reasons": {"count": 0, "items": [{"summary": "This spot is popular", "type": "general", "reasonName": "globalInteractionReason"}]}, "venue": {"id": "4c3f731ee26920a175755be7", "name": "Hotel Zoo", "location": {"address": "Kurf\u00fcrstendamm 25", "lat": 52.50367707315144, "lng": 13.329119682312012, "labeledLatLngs": [{"label": "display", "lat": 52.50367707315144, "lng": 13.329119682312012}], "distance": 428, "postalCode": "10719", "cc": "DE", "city": "Berlin", "state": "Berlin", "country": "Deutschland", "formattedAddress": ["Kurf\u00fcrstendamm 25", "10719 Berlin", "Deutschland"]}, "categories": [{"id": "4bf58dd8d48988d1fa931735", "name": "Hotel", "pluralName": "Hotels", "shortName": "Hotel", "icon": {"prefix": "https://ss3.4sqi.net/img/categories_v2/travel/hotel_", "suffix": ".png"}, "primary": true}], "photos": {"count": 0, "groups": []}, "venuePage": {"id": "36475381"}}, "referralId": "e-0-4c3f731ee26920a175755be7-16"}, {"reasons": {"count": 0, "items": [{"summary": "This spot is popular", "type": "general", "reasonName": "globalInteractionReason"}]}, "venue": {"id": "4bbb91b4ed7776b0289e3e51", "name": "Baba Angora", "location": {"address": "Schl\u00fcterstr. 29", "crossStreet": "Niebuhrstr.", "lat": 52.50397748686864, "lng": 13.31718921661377, "labeledLatLngs": [{"label": "display", "lat": 52.50397748686864, "lng": 13.31718921661377}], "distance": 407, "postalCode": "10629", "cc": "DE", "city": "Berlin", "state": "Berlin", "country": "Deutschland", "formattedAddress": ["Schl\u00fcterstr. 29 (Niebuhrstr.)", "10629 Berlin", "Deutschland"]}, "categories": [{"id": "5283c7b4e4b094cb91ec88d8", "name": "Doner Restaurant", "pluralName": "Doner Restaurants", "shortName": "Doner", "icon": {"prefix": "https://ss3.4sqi.net/img/categories_v2/food/turkish_", "suffix": ".png"}, "primary": true}], "photos": {"count": 0, "groups": []}}, "referralId": "e-0-4bbb91b4ed7776b0289e3e51-17"}, {"reasons": {"count": 0, "items": [{"summary": "This spot is popular", "type": "general", "reasonName": "globalInteractionReason"}]}, "venue": {"id": "4adcda7df964a520784721e3", "name": "Savignyplatz", "location": {"address": "Kantstr.", "crossStreet": "Knesebeckstr.", "lat": 52.50543447372109, "lng": 13.32262073012896, "labeledLatLngs": [{"label": "display", "lat": 52.50543447372109, "lng": 13.32262073012896}], "distance": 284, "postalCode": "10623", "cc": "DE", "city": "Berlin", "state": "Berlin", "country": "Deutschland", "formattedAddress": ["Kantstr. (Knesebeckstr.)", "10623 Berlin", "Deutschland"]}, "categories": [{"id": "4bf58dd8d48988d164941735", "name": "Plaza", "pluralName": "Plazas", "shortName": "Plaza", "icon": {"prefix": "https://ss3.4sqi.net/img/categories_v2/parks_outdoors/plaza_", "suffix": ".png"}, "primary": true}], "photos": {"count": 0, "groups": []}}, "referralId": "e-0-4adcda7df964a520784721e3-18"}, {"reasons": {"count": 0, "items": [{"summary": "This spot is popular", "type": "general", "reasonName": "globalInteractionReason"}]}, "venue": {"id": "55745a13498e9ea79119a3a0", "name": "Inizio", "location": {"lat": 52.503626601715276, "lng": 13.327706181848447, "labeledLatLngs": [{"label": "display", "lat": 52.503626601715276, "lng": 13.327706181848447}], "distance": 333, "cc": "DE", "city": "Berlin", "state": "Berlin", "country": "Deutschland", "formattedAddress": ["Berlin", "Deutschland"]}, "categories": [{"id": "52e81612bcbc57f1066b79f9", "name": "Modern European Restaurant", "pluralName": "Modern European Restaurants", "shortName": "Modern European", "icon": {"prefix": "https://ss3.4sqi.net/img/categories_v2/food/default_", "suffix": ".png"}, "primary": true}], "photos": {"count": 0, "groups": []}}, "referralId": "e-0-55745a13498e9ea79119a3a0-19"}, {"reasons": {"count": 0, "items": [{"summary": "This spot is popular", "type": "general", "reasonName": "globalInteractionReason"}]}, "venue": {"id": "4b5b6465f964a52054fa28e3", "name": "Reinhards am Kurf\u00fcrstendamm", "location": {"address": "Kurf\u00fcrstendamm 27", "crossStreet": "Fasanenstr.", "lat": 52.503060794146364, "lng": 13.327363151050251, "labeledLatLngs": [{"label": "display", "lat": 52.503060794146364, "lng": 13.327363151050251}], "distance": 300, "postalCode": "10719", "cc": "DE", "neighborhood": "Charlottenburg, Berlin", "city": "Berlin", "state": "Berlin", "country": "Deutschland", "formattedAddress": ["Kurf\u00fcrstendamm 27 (Fasanenstr.)", "10719 Berlin", "Deutschland"]}, "categories": [{"id": "4bf58dd8d48988d10d941735", "name": "German Restaurant", "pluralName": "German Restaurants", "shortName": "German", "icon": {"prefix": "https://ss3.4sqi.net/img/categories_v2/food/german_", "suffix": ".png"}, "primary": true}], "photos": {"count": 0, "groups": []}, "venuePage": {"id": "127459492"}}, "referralId": "e-0-4b5b6465f964a52054fa28e3-20"}, {"reasons": {"count": 0, "items": [{"summary": "This spot is popular", "type": "general", "reasonName": "globalInteractionReason"}]}, "venue": {"id": "4adcda8ef964a520b94a21e3", "name": "Autorenbuchhandlung", "location": {"address": "Else-Ury-Bogen 599-601", "crossStreet": "Savignyplatz", "lat": 52.50510516288839, "lng": 13.320829779040649, "labeledLatLngs": [{"label": "display", "lat": 52.50510516288839, "lng": 13.320829779040649}], "distance": 285, "postalCode": "10623", "cc": "DE", "city": "Berlin", "state": "Berlin", "country": "Deutschland", "formattedAddress": ["Else-Ury-Bogen 599-601 (Savignyplatz)", "10623 Berlin", "Deutschland"]}, "categories": [{"id": "4bf58dd8d48988d114951735", "name": "Bookstore", "pluralName": "Bookstores", "shortName": "Bookstore", "icon": {"prefix": "https://ss3.4sqi.net/img/categories_v2/shops/bookstore_", "suffix": ".png"}, "primary": true}], "photos": {"count": 0, "groups": []}}, "referralId": "e-0-4adcda8ef964a520b94a21e3-21"}, {"reasons": {"count": 0, "items": [{"summary": "This spot is popular", "type": "general", "reasonName": "globalInteractionReason"}]}, "venue": {"id": "4b4b4584f964a520229626e3", "name": "Astor Film Lounge", "location": {"address": "Kurf\u00fcrstendamm 225", "crossStreet": "Joachimstaler Str.", "lat": 52.503456283007864, "lng": 13.329917022715659, "labeledLatLngs": [{"label": "display", "lat": 52.503456283007864, "lng": 13.329917022715659}], "distance": 477, "postalCode": "10719", "cc": "DE", "city": "Berlin", "state": "Berlin", "country": "Deutschland", "formattedAddress": ["Kurf\u00fcrstendamm 225 (Joachimstaler Str.)", "10719 Berlin", "Deutschland"]}, "categories": [{"id": "4bf58dd8d48988d17f941735", "name": "Movie Theater", "pluralName": "Movie Theaters", "shortName": "Movie Theater", "icon": {"prefix": "https://ss3.4sqi.net/img/categories_v2/arts_entertainment/movietheater_", "suffix": ".png"}, "primary": true}], "photos": {"count": 0, "groups": []}}, "referralId": "e-0-4b4b4584f964a520229626e3-22"}, {"reasons": {"count": 0, "items": [{"summary": "This spot is popular", "type": "general", "reasonName": "globalInteractionReason"}]}, "venue": {"id": "4bc9b8040687ef3bf052dacc", "name": "Berliner Kaffeer\u00f6sterei", "location": {"address": "Uhlandstr. 173", "lat": 52.5014929063876, "lng": 13.325070026890394, "labeledLatLngs": [{"label": "display", "lat": 52.5014929063876, "lng": 13.325070026890394}], "distance": 211, "postalCode": "10719", "cc": "DE", "city": "Berlin", "state": "Berlin", "country": "Deutschland", "formattedAddress": ["Uhlandstr. 173", "10719 Berlin", "Deutschland"]}, "categories": [{"id": "4bf58dd8d48988d16d941735", "name": "Caf\u00e9", "pluralName": "Caf\u00e9s", "shortName": "Caf\u00e9", "icon": {"prefix": "https://ss3.4sqi.net/img/categories_v2/food/cafe_", "suffix": ".png"}, "primary": true}], "photos": {"count": 0, "groups": []}, "venuePage": {"id": "83899149"}}, "referralId": "e-0-4bc9b8040687ef3bf052dacc-23"}, {"reasons": {"count": 0, "items": [{"summary": "This spot is popular", "type": "general", "reasonName": "globalInteractionReason"}]}, "venue": {"id": "4adcda87f964a520344921e3", "name": "Dicke Wirtin", "location": {"address": "Carmerstr. 9", "crossStreet": "Savignyplatz", "lat": 52.50658451800542, "lng": 13.323349590962717, "labeledLatLngs": [{"label": "display", "lat": 52.50658451800542, "lng": 13.323349590962717}], "distance": 412, "postalCode": "10623", "cc": "DE", "city": "Berlin", "state": "Berlin", "country": "Deutschland", "formattedAddress": ["Carmerstr. 9 (Savignyplatz)", "10623 Berlin", "Deutschland"]}, "categories": [{"id": "4bf58dd8d48988d10d941735", "name": "German Restaurant", "pluralName": "German Restaurants", "shortName": "German", "icon": {"prefix": "https://ss3.4sqi.net/img/categories_v2/food/german_", "suffix": ".png"}, "primary": true}], "photos": {"count": 0, "groups": []}}, "referralId": "e-0-4adcda87f964a520344921e3-24"}, {"reasons": {"count": 0, "items": [{"summary": "This spot is popular", "type": "general", "reasonName": "globalInteractionReason"}]}, "venue": {"id": "59233ff31de76541b8976d74", "name": "EDEKA", "location": {"address": "Knesebeckstr. 56-58", "lat": 52.5004541, "lng": 13.3220817, "labeledLatLngs": [{"label": "display", "lat": 52.5004541, "lng": 13.3220817}], "distance": 276, "postalCode": "10719", "cc": "DE", "city": "Berlin", "state": "Berlin", "country": "Deutschland", "formattedAddress": ["Knesebeckstr. 56-58", "10719 Berlin", "Deutschland"]}, "categories": [{"id": "52f2ab2ebcbc57f1066b8b46", "name": "Supermarket", "pluralName": "Supermarkets", "shortName": "Supermarket", "icon": {"prefix": "https://ss3.4sqi.net/img/categories_v2/shops/food_grocery_", "suffix": ".png"}, "primary": true}], "photos": {"count": 0, "groups": []}, "venuePage": {"id": "556453626"}}, "referralId": "e-0-59233ff31de76541b8976d74-25"}, {"reasons": {"count": 0, "items": [{"summary": "This spot is popular", "type": "general", "reasonName": "globalInteractionReason"}]}, "venue": {"id": "4bb70b73ef159c74ddc676f7", "name": "Gasthaus Krombach", "location": {"address": "Meinekestr. 4", "lat": 52.502128, "lng": 13.328775, "labeledLatLngs": [{"label": "display", "lat": 52.502128, "lng": 13.328775}], "distance": 404, "postalCode": "10719", "cc": "DE", "city": "Berlin", "state": "Berlin", "country": "Deutschland", "formattedAddress": ["Meinekestr. 4", "10719 Berlin", "Deutschland"]}, "categories": [{"id": "4bf58dd8d48988d10d941735", "name": "German Restaurant", "pluralName": "German Restaurants", "shortName": "German", "icon": {"prefix": "https://ss3.4sqi.net/img/categories_v2/food/german_", "suffix": ".png"}, "primary": true}], "photos": {"count": 0, "groups": []}}, "referralId": "e-0-4bb70b73ef159c74ddc676f7-26"}, {"reasons": {"count": 0, "items": [{"summary": "This spot is popular", "type": "general", "reasonName": "globalInteractionReason"}]}, "venue": {"id": "553bf924498e5c63a1e4b7b3", "name": "The Hat", "location": {"address": "Lotte-Lenya-Bogen 550", "crossStreet": "Kantstr.", "lat": 52.50507789784243, "lng": 13.32915186882019, "labeledLatLngs": [{"label": "display", "lat": 52.50507789784243, "lng": 13.32915186882019}], "distance": 486, "postalCode": "10623", "cc": "DE", "city": "Berlin", "state": "Berlin", "country": "Deutschland", "formattedAddress": ["Lotte-Lenya-Bogen 550 (Kantstr.)", "10623 Charlottenburg", "Deutschland"]}, "categories": [{"id": "4bf58dd8d48988d1e7931735", "name": "Jazz Club", "pluralName": "Jazz Clubs", "shortName": "Jazz Club", "icon": {"prefix": "https://ss3.4sqi.net/img/categories_v2/arts_entertainment/musicvenue_jazzclub_", "suffix": ".png"}, "primary": true}], "photos": {"count": 0, "groups": []}}, "referralId": "e-0-553bf924498e5c63a1e4b7b3-27"}, {"reasons": {"count": 0, "items": [{"summary": "This spot is popular", "type": "general", "reasonName": "globalInteractionReason"}]}, "venue": {"id": "4b730d7af964a5204a982de3", "name": "Marjellchen Restaurant", "location": {"address": "Mommsenstr. 9", "lat": 52.50306473540549, "lng": 13.317762505288629, "labeledLatLngs": [{"label": "display", "lat": 52.50306473540549, "lng": 13.317762505288629}], "distance": 351, "postalCode": "10629", "cc": "DE", "city": "Berlin", "state": "Berlin", "country": "Deutschland", "formattedAddress": ["Mommsenstr. 9", "10629 Berlin", "Deutschland"]}, "categories": [{"id": "4bf58dd8d48988d10d941735", "name": "German Restaurant", "pluralName": "German Restaurants", "shortName": "German", "icon": {"prefix": "https://ss3.4sqi.net/img/categories_v2/food/german_", "suffix": ".png"}, "primary": true}], "photos": {"count": 0, "groups": []}}, "referralId": "e-0-4b730d7af964a5204a982de3-28"}, {"reasons": {"count": 0, "items": [{"summary": "This spot is popular", "type": "general", "reasonName": "globalInteractionReason"}]}, "venue": {"id": "4be1adb88dd062b5ab793e3c", "name": "Sir Savigny Hotel", "location": {"address": "Kantstra\u00dfe 144", "lat": 52.505749, "lng": 13.320722, "labeledLatLngs": [{"label": "display", "lat": 52.505749, "lng": 13.320722}], "distance": 352, "postalCode": "10623", "cc": "DE", "city": "Berlin", "state": "Berlin", "country": "Deutschland", "formattedAddress": ["Kantstra\u00dfe 144", "10623 Berlin", "Deutschland"]}, "categories": [{"id": "4bf58dd8d48988d1fa931735", "name": "Hotel", "pluralName": "Hotels", "shortName": "Hotel", "icon": {"prefix": "https://ss3.4sqi.net/img/categories_v2/travel/hotel_", "suffix": ".png"}, "primary": true}], "photos": {"count": 0, "groups": []}, "venuePage": {"id": "483284017"}}, "referralId": "e-0-4be1adb88dd062b5ab793e3c-29"}, {"reasons": {"count": 0, "items": [{"summary": "This spot is popular", "type": "general", "reasonName": "globalInteractionReason"}]}, "venue": {"id": "4fd33bf9e4b054c5993d53ac", "name": "M\u00f6venpick Weinkeller", "location": {"address": "Lietzenburger Str. 93-95", "lat": 52.49955597339877, "lng": 13.320364952087402, "labeledLatLngs": [{"label": "display", "lat": 52.49955597339877, "lng": 13.320364952087402}], "distance": 409, "postalCode": "10719", "cc": "DE", "city": "Berlin", "state": "Berlin", "country": "Deutschland", "formattedAddress": ["Lietzenburger Str. 93-95", "10719 Berlin", "Deutschland"]}, "categories": [{"id": "4bf58dd8d48988d119951735", "name": "Wine Shop", "pluralName": "Wine Shops", "shortName": "Wine Shop", "icon": {"prefix": "https://ss3.4sqi.net/img/categories_v2/shops/food_wineshop_", "suffix": ".png"}, "primary": true}], "photos": {"count": 0, "groups": []}}, "referralId": "e-0-4fd33bf9e4b054c5993d53ac-30"}, {"reasons": {"count": 0, "items": [{"summary": "This spot is popular", "type": "general", "reasonName": "globalInteractionReason"}]}, "venue": {"id": "4e805c41b634542476023bac", "name": "Saigon Green", "location": {"address": "Kantstr. 23", "lat": 52.50598341613768, "lng": 13.320860715045661, "labeledLatLngs": [{"label": "display", "lat": 52.50598341613768, "lng": 13.320860715045661}], "distance": 372, "postalCode": "10623", "cc": "DE", "city": "Berlin", "state": "Berlin", "country": "Deutschland", "formattedAddress": ["Kantstr. 23", "10623 Berlin", "Deutschland"]}, "categories": [{"id": "4bf58dd8d48988d14a941735", "name": "Vietnamese Restaurant", "pluralName": "Vietnamese Restaurants", "shortName": "Vietnamese", "icon": {"prefix": "https://ss3.4sqi.net/img/categories_v2/food/vietnamese_", "suffix": ".png"}, "primary": true}], "photos": {"count": 0, "groups": []}}, "referralId": "e-0-4e805c41b634542476023bac-31"}, {"reasons": {"count": 0, "items": [{"summary": "This spot is popular", "type": "general", "reasonName": "globalInteractionReason"}]}, "venue": {"id": "4b6331d8f964a520ba692ae3", "name": "NU Restaurant", "location": {"address": "Schl\u00fcterstr. 55", "crossStreet": "Niebuhrstr.", "lat": 52.504331343704884, "lng": 13.317352328401345, "labeledLatLngs": [{"label": "display", "lat": 52.504331343704884, "lng": 13.317352328401345}], "distance": 411, "postalCode": "10629", "cc": "DE", "city": "Berlin", "state": "Berlin", "country": "Deutschland", "formattedAddress": ["Schl\u00fcterstr. 55 (Niebuhrstr.)", "10629 Berlin", "Deutschland"]}, "categories": [{"id": "4bf58dd8d48988d142941735", "name": "Asian Restaurant", "pluralName": "Asian Restaurants", "shortName": "Asian", "icon": {"prefix": "https://ss3.4sqi.net/img/categories_v2/food/asian_", "suffix": ".png"}, "primary": true}], "photos": {"count": 0, "groups": []}}, "referralId": "e-0-4b6331d8f964a520ba692ae3-32"}, {"reasons": {"count": 0, "items": [{"summary": "This spot is popular", "type": "general", "reasonName": "globalInteractionReason"}]}, "venue": {"id": "56bce1ce498e2d6b8c85c03c", "name": "Zen", "location": {"address": "Uhlandstr. 170 a, 10719 Berlin", "lat": 52.50078766006307, "lng": 13.32588684288832, "labeledLatLngs": [{"label": "display", "lat": 52.50078766006307, "lng": 13.32588684288832}], "distance": 307, "cc": "DE", "city": "Berlin", "state": "Berlin", "country": "Deutschland", "formattedAddress": ["Uhlandstr. 170 a, 10719 Berlin", "Berlin", "Deutschland"]}, "categories": [{"id": "52af3b773cf9994f4e043c03", "name": "Szechuan Restaurant", "pluralName": "Szechuan Restaurants", "shortName": "Szechuan", "icon": {"prefix": "https://ss3.4sqi.net/img/categories_v2/food/asian_", "suffix": ".png"}, "primary": true}], "photos": {"count": 0, "groups": []}}, "referralId": "e-0-56bce1ce498e2d6b8c85c03c-33"}, {"reasons": {"count": 0, "items": [{"summary": "This spot is popular", "type": "general", "reasonName": "globalInteractionReason"}]}, "venue": {"id": "4adcda78f964a5205c4621e3", "name": "Caf\u00e9 Restaurant \"Wintergarten\"", "location": {"address": "Fasanenstr. 23", "lat": 52.502011360604314, "lng": 13.327076329626266, "labeledLatLngs": [{"label": "display", "lat": 52.502011360604314, "lng": 13.327076329626266}], "distance": 297, "postalCode": "10719", "cc": "DE", "city": "Berlin", "state": "Berlin", "country": "Deutschland", "formattedAddress": ["Fasanenstr. 23", "10719 Berlin", "Deutschland"]}, "categories": [{"id": "4bf58dd8d48988d16d941735", "name": "Caf\u00e9", "pluralName": "Caf\u00e9s", "shortName": "Caf\u00e9", "icon": {"prefix": "https://ss3.4sqi.net/img/categories_v2/food/cafe_", "suffix": ".png"}, "primary": true}], "photos": {"count": 0, "groups": []}}, "referralId": "e-0-4adcda78f964a5205c4621e3-34"}, {"reasons": {"count": 0, "items": [{"summary": "This spot is popular", "type": "general", "reasonName": "globalInteractionReason"}]}, "venue": {"id": "4d3181d8eefa8cfaa8032cb3", "name": "Apple Kurf\u00fcrstendamm", "location": {"address": "Kurf\u00fcrstendamm 26", "lat": 52.5035914, "lng": 13.3287535, "labeledLatLngs": [{"label": "display", "lat": 52.5035914, "lng": 13.3287535}], "distance": 402, "postalCode": "10719", "cc": "DE", "city": "Berlin", "state": "Berlin", "country": "Deutschland", "formattedAddress": ["Kurf\u00fcrstendamm 26", "10719 Berlin", "Deutschland"]}, "categories": [{"id": "4bf58dd8d48988d122951735", "name": "Electronics Store", "pluralName": "Electronics Stores", "shortName": "Electronics", "icon": {"prefix": "https://ss3.4sqi.net/img/categories_v2/shops/technology_", "suffix": ".png"}, "primary": true}], "photos": {"count": 0, "groups": []}}, "referralId": "e-0-4d3181d8eefa8cfaa8032cb3-35"}, {"reasons": {"count": 0, "items": [{"summary": "This spot is popular", "type": "general", "reasonName": "globalInteractionReason"}]}, "venue": {"id": "4adcda89f964a520a14921e3", "name": "A-Trane", "location": {"address": "Bleibtreustr. 1", "crossStreet": "Pestalozzistr.", "lat": 52.50728516736879, "lng": 13.320102095603943, "labeledLatLngs": [{"label": "display", "lat": 52.50728516736879, "lng": 13.320102095603943}], "distance": 526, "postalCode": "10625", "cc": "DE", "city": "Berlin", "state": "Berlin", "country": "Deutschland", "formattedAddress": ["Bleibtreustr. 1 (Pestalozzistr.)", "10625 Berlin", "Deutschland"]}, "categories": [{"id": "4bf58dd8d48988d1e7931735", "name": "Jazz Club", "pluralName": "Jazz Clubs", "shortName": "Jazz Club", "icon": {"prefix": "https://ss3.4sqi.net/img/categories_v2/arts_entertainment/musicvenue_jazzclub_", "suffix": ".png"}, "primary": true}], "photos": {"count": 0, "groups": []}}, "referralId": "e-0-4adcda89f964a520a14921e3-36"}, {"reasons": {"count": 0, "items": [{"summary": "This spot is popular", "type": "general", "reasonName": "globalInteractionReason"}]}, "venue": {"id": "4b6a0001f964a520d5c02be3", "name": "Marooush", "location": {"address": "Knesebeckstr. 48", "crossStreet": "Kurf\u00fcrstendamm", "lat": 52.500923111717704, "lng": 13.32170763794281, "labeledLatLngs": [{"label": "display", "lat": 52.500923111717704, "lng": 13.32170763794281}], "distance": 233, "postalCode": "10719", "cc": "DE", "city": "Berlin", "state": "Berlin", "country": "Deutschland", "formattedAddress": ["Knesebeckstr. 48 (Kurf\u00fcrstendamm)", "10719 Berlin", "Deutschland"]}, "categories": [{"id": "4bf58dd8d48988d115941735", "name": "Middle Eastern Restaurant", "pluralName": "Middle Eastern Restaurants", "shortName": "Middle Eastern", "icon": {"prefix": "https://ss3.4sqi.net/img/categories_v2/food/middleeastern_", "suffix": ".png"}, "primary": true}], "photos": {"count": 0, "groups": []}, "venuePage": {"id": "88417532"}}, "referralId": "e-0-4b6a0001f964a520d5c02be3-37"}, {"reasons": {"count": 0, "items": [{"summary": "This spot is popular", "type": "general", "reasonName": "globalInteractionReason"}]}, "venue": {"id": "51cc17bb498e1aed4bf1b66b", "name": "Die Stulle", "location": {"address": "Carmerstr. 10", "crossStreet": "Savignyplatz", "lat": 52.506585, "lng": 13.323513, "labeledLatLngs": [{"label": "display", "lat": 52.506585, "lng": 13.323513}], "distance": 413, "postalCode": "10623", "cc": "DE", "city": "Berlin", "state": "Berlin", "country": "Deutschland", "formattedAddress": ["Carmerstr. 10 (Savignyplatz)", "10623 Berlin", "Deutschland"]}, "categories": [{"id": "4bf58dd8d48988d1c5941735", "name": "Sandwich Place", "pluralName": "Sandwich Places", "shortName": "Sandwiches", "icon": {"prefix": "https://ss3.4sqi.net/img/categories_v2/food/deli_", "suffix": ".png"}, "primary": true}], "photos": {"count": 0, "groups": []}}, "referralId": "e-0-51cc17bb498e1aed4bf1b66b-38"}, {"reasons": {"count": 0, "items": [{"summary": "This spot is popular", "type": "general", "reasonName": "globalInteractionReason"}]}, "venue": {"id": "57d44526498ee2a96528a14e", "name": "Henri Hotel", "location": {"address": "Meinekestra\u00dfe 9", "lat": 52.500897871425096, "lng": 13.328809535230508, "labeledLatLngs": [{"label": "display", "lat": 52.500897871425096, "lng": 13.328809535230508}], "distance": 455, "cc": "DE", "city": "Berlin", "state": "Berlin", "country": "Deutschland", "formattedAddress": ["Meinekestra\u00dfe 9", "Berlin", "Deutschland"]}, "categories": [{"id": "4bf58dd8d48988d1fa931735", "name": "Hotel", "pluralName": "Hotels", "shortName": "Hotel", "icon": {"prefix": "https://ss3.4sqi.net/img/categories_v2/travel/hotel_", "suffix": ".png"}, "primary": true}], "photos": {"count": 0, "groups": []}}, "referralId": "e-0-57d44526498ee2a96528a14e-39"}, {"reasons": {"count": 0, "items": [{"summary": "This spot is popular", "type": "general", "reasonName": "globalInteractionReason"}]}, "venue": {"id": "5c753bf2acb37f002c9f0422", "name": "Kouzina", "location": {"lat": 52.505072, "lng": 13.321311, "labeledLatLngs": [{"label": "display", "lat": 52.505072, "lng": 13.321311}], "distance": 267, "cc": "DE", "country": "Deutschland", "formattedAddress": ["Deutschland"]}, "categories": [{"id": "4bf58dd8d48988d10e941735", "name": "Greek Restaurant", "pluralName": "Greek Restaurants", "shortName": "Greek", "icon": {"prefix": "https://ss3.4sqi.net/img/categories_v2/food/greek_", "suffix": ".png"}, "primary": true}], "photos": {"count": 0, "groups": []}}, "referralId": "e-0-5c753bf2acb37f002c9f0422-40"}, {"reasons": {"count": 0, "items": [{"summary": "This spot is popular", "type": "general", "reasonName": "globalInteractionReason"}]}, "venue": {"id": "577df32c498e861ea267132c", "name": "893 Ry\u014dtei", "location": {"address": "Kantstr. 135", "lat": 52.505975, "lng": 13.31696, "labeledLatLngs": [{"label": "display", "lat": 52.505975, "lng": 13.31696}], "distance": 531, "postalCode": "10625", "cc": "DE", "city": "Berlin", "state": "Berlin", "country": "Deutschland", "formattedAddress": ["Kantstr. 135", "10625 Berlin", "Deutschland"]}, "categories": [{"id": "4bf58dd8d48988d142941735", "name": "Asian Restaurant", "pluralName": "Asian Restaurants", "shortName": "Asian", "icon": {"prefix": "https://ss3.4sqi.net/img/categories_v2/food/asian_", "suffix": ".png"}, "primary": true}], "photos": {"count": 0, "groups": []}}, "referralId": "e-0-577df32c498e861ea267132c-41"}, {"reasons": {"count": 0, "items": [{"summary": "This spot is popular", "type": "general", "reasonName": "globalInteractionReason"}]}, "venue": {"id": "55f9a48e498ee737a1893058", "name": "Heno Heno", "location": {"address": "Wielandstr. 37", "lat": 52.503964035304826, "lng": 13.315577685864188, "labeledLatLngs": [{"label": "display", "lat": 52.503964035304826, "lng": 13.315577685864188}], "distance": 512, "postalCode": "10623", "cc": "DE", "city": "Berlin", "state": "Berlin", "country": "Deutschland", "formattedAddress": ["Wielandstr. 37", "10623 Berlin", "Deutschland"]}, "categories": [{"id": "4bf58dd8d48988d111941735", "name": "Japanese Restaurant", "pluralName": "Japanese Restaurants", "shortName": "Japanese", "icon": {"prefix": "https://ss3.4sqi.net/img/categories_v2/food/japanese_", "suffix": ".png"}, "primary": true}], "photos": {"count": 0, "groups": []}}, "referralId": "e-0-55f9a48e498ee737a1893058-42"}, {"reasons": {"count": 0, "items": [{"summary": "This spot is popular", "type": "general", "reasonName": "globalInteractionReason"}]}, "venue": {"id": "4adcda8af964a520bc4921e3", "name": "Stage Theater des Westens", "location": {"address": "Kantstr. 12", "lat": 52.50567543884809, "lng": 13.328980207443237, "labeledLatLngs": [{"label": "display", "lat": 52.50567543884809, "lng": 13.328980207443237}], "distance": 514, "postalCode": "10623", "cc": "DE", "city": "Berlin", "state": "Berlin", "country": "Deutschland", "formattedAddress": ["Kantstr. 12", "10623 Berlin", "Deutschland"]}, "categories": [{"id": "4bf58dd8d48988d137941735", "name": "Theater", "pluralName": "Theaters", "shortName": "Theater", "icon": {"prefix": "https://ss3.4sqi.net/img/categories_v2/arts_entertainment/performingarts_theater_", "suffix": ".png"}, "primary": true}], "photos": {"count": 0, "groups": []}, "venuePage": {"id": "551262144"}}, "referralId": "e-0-4adcda8af964a520bc4921e3-43"}, {"reasons": {"count": 0, "items": [{"summary": "This spot is popular", "type": "general", "reasonName": "globalInteractionReason"}]}, "venue": {"id": "4b018864f964a5202b4322e3", "name": "Stilwerk", "location": {"address": "Kantstr. 17", "crossStreet": "Uhlandstr.", "lat": 52.505982369321565, "lng": 13.325203657150269, "labeledLatLngs": [{"label": "display", "lat": 52.505982369321565, "lng": 13.325203657150269}], "distance": 377, "postalCode": "10623", "cc": "DE", "city": "Berlin", "state": "Berlin", "country": "Deutschland", "formattedAddress": ["Kantstr. 17 (Uhlandstr.)", "10623 Berlin", "Deutschland"]}, "categories": [{"id": "4bf58dd8d48988d1f8941735", "name": "Furniture / Home Store", "pluralName": "Furniture / Home Stores", "shortName": "Furniture / Home", "icon": {"prefix": "https://ss3.4sqi.net/img/categories_v2/shops/furniture_", "suffix": ".png"}, "primary": true}], "photos": {"count": 0, "groups": []}}, "referralId": "e-0-4b018864f964a5202b4322e3-44"}, {"reasons": {"count": 0, "items": [{"summary": "This spot is popular", "type": "general", "reasonName": "globalInteractionReason"}]}, "venue": {"id": "584699ac9b7eac34cc11269e", "name": "MINE restaurant / WINE bar", "location": {"address": "Meinekestr. 10", "lat": 52.500789219898465, "lng": 13.3288627155921, "labeledLatLngs": [{"label": "display", "lat": 52.500789219898465, "lng": 13.3288627155921}], "distance": 464, "postalCode": "10719", "cc": "DE", "city": "Berlin", "state": "Berlin", "country": "Deutschland", "formattedAddress": ["Meinekestr. 10", "10719 Berlin", "Deutschland"]}, "categories": [{"id": "4bf58dd8d48988d110941735", "name": "Italian Restaurant", "pluralName": "Italian Restaurants", "shortName": "Italian", "icon": {"prefix": "https://ss3.4sqi.net/img/categories_v2/food/italian_", "suffix": ".png"}, "primary": true}], "photos": {"count": 0, "groups": []}}, "referralId": "e-0-584699ac9b7eac34cc11269e-45"}, {"reasons": {"count": 0, "items": [{"summary": "This spot is popular", "type": "general", "reasonName": "globalInteractionReason"}]}, "venue": {"id": "4c519c1dcad99c74e32430c3", "name": "Lon-Men\u2019s Noodle House", "location": {"address": "Kantstr. 33", "lat": 52.50629582801855, "lng": 13.31644892692566, "labeledLatLngs": [{"label": "display", "lat": 52.50629582801855, "lng": 13.31644892692566}], "distance": 580, "postalCode": "10625", "cc": "DE", "city": "Berlin", "state": "Berlin", "country": "Deutschland", "formattedAddress": ["Kantstr. 33", "10625 Berlin", "Deutschland"]}, "categories": [{"id": "4bf58dd8d48988d1d1941735", "name": "Noodle House", "pluralName": "Noodle Houses", "shortName": "Noodles", "icon": {"prefix": "https://ss3.4sqi.net/img/categories_v2/food/ramen_", "suffix": ".png"}, "primary": true}], "photos": {"count": 0, "groups": []}}, "referralId": "e-0-4c519c1dcad99c74e32430c3-46"}, {"reasons": {"count": 0, "items": [{"summary": "This spot is popular", "type": "general", "reasonName": "globalInteractionReason"}]}, "venue": {"id": "4adcda88f964a5205c4921e3", "name": "KUCHI Kant", "location": {"address": "Kantstr. 30", "crossStreet": "Schl\u00fcterstr.", "lat": 52.50621419836479, "lng": 13.318248689174652, "labeledLatLngs": [{"label": "display", "lat": 52.50621419836479, "lng": 13.318248689174652}], "distance": 488, "postalCode": "10623", "cc": "DE", "city": "Berlin", "state": "Berlin", "country": "Deutschland", "formattedAddress": ["Kantstr. 30 (Schl\u00fcterstr.)", "10623 Berlin", "Deutschland"]}, "categories": [{"id": "4bf58dd8d48988d1d2941735", "name": "Sushi Restaurant", "pluralName": "Sushi Restaurants", "shortName": "Sushi", "icon": {"prefix": "https://ss3.4sqi.net/img/categories_v2/food/sushi_", "suffix": ".png"}, "primary": true}], "photos": {"count": 0, "groups": []}}, "referralId": "e-0-4adcda88f964a5205c4921e3-47"}, {"reasons": {"count": 0, "items": [{"summary": "This spot is popular", "type": "general", "reasonName": "globalInteractionReason"}]}, "venue": {"id": "4bc49989abf495213c3fc593", "name": "Bier\u2019s Kudamm 195", "location": {"address": "Kurf\u00fcrstendamm 195", "crossStreet": "Bleibtreustra\u00dfe", "lat": 52.50147913818119, "lng": 13.318797451427804, "labeledLatLngs": [{"label": "display", "lat": 52.50147913818119, "lng": 13.318797451427804}], "distance": 321, "postalCode": "10707", "cc": "DE", "city": "Berlin", "state": "Berlin", "country": "Deutschland", "formattedAddress": ["Kurf\u00fcrstendamm 195 (Bleibtreustra\u00dfe)", "10707 Berlin", "Deutschland"]}, "categories": [{"id": "4bf58dd8d48988d1c7941735", "name": "Snack Place", "pluralName": "Snack Places", "shortName": "Snacks", "icon": {"prefix": "https://ss3.4sqi.net/img/categories_v2/food/snacks_", "suffix": ".png"}, "primary": true}], "photos": {"count": 0, "groups": []}}, "referralId": "e-0-4bc49989abf495213c3fc593-48"}, {"reasons": {"count": 0, "items": [{"summary": "This spot is popular", "type": "general", "reasonName": "globalInteractionReason"}]}, "venue": {"id": "4adcda70f964a520f34421e3", "name": "Hotel Bleibtreu", "location": {"address": "Bleibtreustr. 31", "lat": 52.50011841051571, "lng": 13.319680836787287, "labeledLatLngs": [{"label": "display", "lat": 52.50011841051571, "lng": 13.319680836787287}], "distance": 378, "postalCode": "10707", "cc": "DE", "city": "Berlin", "state": "Berlin", "country": "Deutschland", "formattedAddress": ["Bleibtreustr. 31", "10707 Berlin", "Deutschland"]}, "categories": [{"id": "4bf58dd8d48988d1fa931735", "name": "Hotel", "pluralName": "Hotels", "shortName": "Hotel", "icon": {"prefix": "https://ss3.4sqi.net/img/categories_v2/travel/hotel_", "suffix": ".png"}, "primary": true}], "photos": {"count": 0, "groups": []}, "venuePage": {"id": "38016150"}}, "referralId": "e-0-4adcda70f964a520f34421e3-49"}, {"reasons": {"count": 0, "items": [{"summary": "This spot is popular", "type": "general", "reasonName": "globalInteractionReason"}]}, "venue": {"id": "4adcda8bf964a520d34921e3", "name": "Delphi Filmpalast am Zoo", "location": {"address": "Kantstr. 12a", "lat": 52.50584937479227, "lng": 13.328070987646589, "labeledLatLngs": [{"label": "display", "lat": 52.50584937479227, "lng": 13.328070987646589}], "distance": 479, "postalCode": "10623", "cc": "DE", "city": "Berlin", "state": "Berlin", "country": "Deutschland", "formattedAddress": ["Kantstr. 12a", "10623 Berlin", "Deutschland"]}, "categories": [{"id": "4bf58dd8d48988d17f941735", "name": "Movie Theater", "pluralName": "Movie Theaters", "shortName": "Movie Theater", "icon": {"prefix": "https://ss3.4sqi.net/img/categories_v2/arts_entertainment/movietheater_", "suffix": ".png"}, "primary": true}], "photos": {"count": 0, "groups": []}}, "referralId": "e-0-4adcda8bf964a520d34921e3-50"}, {"reasons": {"count": 0, "items": [{"summary": "This spot is popular", "type": "general", "reasonName": "globalInteractionReason"}]}, "venue": {"id": "4b8137fef964a520ef9a30e3", "name": "Der Kuchenladen", "location": {"address": "Kantstr. 138", "lat": 52.506054200276175, "lng": 13.318311072009823, "labeledLatLngs": [{"label": "display", "lat": 52.506054200276175, "lng": 13.318311072009823}], "distance": 471, "postalCode": "10623", "cc": "DE", "city": "Berlin", "state": "Berlin", "country": "Deutschland", "formattedAddress": ["Kantstr. 138", "10623 Berlin", "Deutschland"]}, "categories": [{"id": "5744ccdfe4b0c0459246b4e2", "name": "Pastry Shop", "pluralName": "Pastry Shops", "shortName": "Pastry", "icon": {"prefix": "https://ss3.4sqi.net/img/categories_v2/food/dessert_", "suffix": ".png"}, "primary": true}], "photos": {"count": 0, "groups": []}}, "referralId": "e-0-4b8137fef964a520ef9a30e3-51"}, {"reasons": {"count": 0, "items": [{"summary": "This spot is popular", "type": "general", "reasonName": "globalInteractionReason"}]}, "venue": {"id": "4af4be25f964a520a1f521e3", "name": "Ali Baba", "location": {"address": "Bleibtreustr. 45", "crossStreet": "Mommsenstr.", "lat": 52.50393877715853, "lng": 13.319808134806431, "labeledLatLngs": [{"label": "display", "lat": 52.50393877715853, "lng": 13.319808134806431}], "distance": 242, "postalCode": "10623", "cc": "DE", "city": "Berlin", "state": "Berlin", "country": "Deutschland", "formattedAddress": ["Bleibtreustr. 45 (Mommsenstr.)", "10623 Berlin", "Deutschland"]}, "categories": [{"id": "4bf58dd8d48988d110941735", "name": "Italian Restaurant", "pluralName": "Italian Restaurants", "shortName": "Italian", "icon": {"prefix": "https://ss3.4sqi.net/img/categories_v2/food/italian_", "suffix": ".png"}, "primary": true}], "photos": {"count": 0, "groups": []}}, "referralId": "e-0-4af4be25f964a520a1f521e3-52"}, {"reasons": {"count": 0, "items": [{"summary": "This spot is popular", "type": "general", "reasonName": "globalInteractionReason"}]}, "venue": {"id": "4eaeacb99adf5c72ded1575c", "name": "K\u00e4the Wohlfahrt", "location": {"address": "Kurf\u00fcrstendamm 225/226", "lat": 52.50326, "lng": 13.33011, "labeledLatLngs": [{"label": "display", "lat": 52.50326, "lng": 13.33011}], "distance": 488, "postalCode": "10719", "cc": "DE", "city": "Berlin", "state": "Berlin", "country": "Deutschland", "formattedAddress": ["Kurf\u00fcrstendamm 225/226", "10719 Berlin", "Deutschland"]}, "categories": [{"id": "4bf58dd8d48988d128951735", "name": "Gift Shop", "pluralName": "Gift Shops", "shortName": "Gift Shop", "icon": {"prefix": "https://ss3.4sqi.net/img/categories_v2/shops/giftshop_", "suffix": ".png"}, "primary": true}], "photos": {"count": 0, "groups": []}}, "referralId": "e-0-4eaeacb99adf5c72ded1575c-53"}, {"reasons": {"count": 0, "items": [{"summary": "This spot is popular", "type": "general", "reasonName": "globalInteractionReason"}]}, "venue": {"id": "57d6f867498ea406d78229e1", "name": "Van Gogh", "location": {"address": "Grolmannstr. 41-43", "lat": 52.50405760740775, "lng": 13.323955101401081, "labeledLatLngs": [{"label": "display", "lat": 52.50405760740775, "lng": 13.323955101401081}], "distance": 147, "postalCode": "10623", "cc": "DE", "neighborhood": "Charlottenburg", "city": "Berlin", "state": "Berlin", "country": "Deutschland", "formattedAddress": ["Grolmannstr. 41-43", "10623 Berlin", "Deutschland"]}, "categories": [{"id": "4bf58dd8d48988d1e8931735", "name": "Piano Bar", "pluralName": "Piano Bars", "shortName": "Piano Bar", "icon": {"prefix": "https://ss3.4sqi.net/img/categories_v2/arts_entertainment/musicvenue_pianobar_", "suffix": ".png"}, "primary": true}], "photos": {"count": 0, "groups": []}}, "referralId": "e-0-57d6f867498ea406d78229e1-54"}, {"reasons": {"count": 0, "items": [{"summary": "This spot is popular", "type": "general", "reasonName": "globalInteractionReason"}]}, "venue": {"id": "54ecbda4498e37198455b1a1", "name": "DUDU 31", "location": {"address": "Bleibtreustr. 31", "lat": 52.50010975265674, "lng": 13.319504709254893, "labeledLatLngs": [{"label": "display", "lat": 52.50010975265674, "lng": 13.319504709254893}], "distance": 386, "postalCode": "10707", "cc": "DE", "city": "Berlin", "state": "Berlin", "country": "Deutschland", "formattedAddress": ["Bleibtreustr. 31", "10707 Berlin", "Deutschland"]}, "categories": [{"id": "4bf58dd8d48988d14a941735", "name": "Vietnamese Restaurant", "pluralName": "Vietnamese Restaurants", "shortName": "Vietnamese", "icon": {"prefix": "https://ss3.4sqi.net/img/categories_v2/food/vietnamese_", "suffix": ".png"}, "primary": true}], "photos": {"count": 0, "groups": []}}, "referralId": "e-0-54ecbda4498e37198455b1a1-55"}, {"reasons": {"count": 0, "items": [{"summary": "This spot is popular", "type": "general", "reasonName": "globalInteractionReason"}]}, "venue": {"id": "4adcda72f964a520484521e3", "name": "Sofitel Berlin Kurf\u00fcrstendamm", "location": {"address": "Augsburger Strasse 41", "lat": 52.50258368637169, "lng": 13.331926660216364, "labeledLatLngs": [{"label": "display", "lat": 52.50258368637169, "lng": 13.331926660216364}], "distance": 610, "postalCode": "10789", "cc": "DE", "city": "Berlin", "state": "Berlin", "country": "Deutschland", "formattedAddress": ["Augsburger Strasse 41", "10789 Berlin", "Deutschland"]}, "categories": [{"id": "4bf58dd8d48988d1fa931735", "name": "Hotel", "pluralName": "Hotels", "shortName": "Hotel", "icon": {"prefix": "https://ss3.4sqi.net/img/categories_v2/travel/hotel_", "suffix": ".png"}, "primary": true}], "photos": {"count": 0, "groups": []}}, "referralId": "e-0-4adcda72f964a520484521e3-56"}, {"reasons": {"count": 0, "items": [{"summary": "This spot is popular", "type": "general", "reasonName": "globalInteractionReason"}]}, "venue": {"id": "4dafdcef5da3f2f3d2af176a", "name": "Lutter & Wegner", "location": {"address": "Schl\u00fcterstr. 55", "lat": 52.50443797237325, "lng": 13.317357873873723, "labeledLatLngs": [{"label": "display", "lat": 52.50443797237325, "lng": 13.317357873873723}], "distance": 415, "postalCode": "10629", "cc": "DE", "city": "Berlin", "state": "Berlin", "country": "Deutschland", "formattedAddress": ["Schl\u00fcterstr. 55", "10629 Berlin", "Deutschland"]}, "categories": [{"id": "4bf58dd8d48988d10d941735", "name": "German Restaurant", "pluralName": "German Restaurants", "shortName": "German", "icon": {"prefix": "https://ss3.4sqi.net/img/categories_v2/food/german_", "suffix": ".png"}, "primary": true}], "photos": {"count": 0, "groups": []}}, "referralId": "e-0-4dafdcef5da3f2f3d2af176a-57"}, {"reasons": {"count": 0, "items": [{"summary": "This spot is popular", "type": "general", "reasonName": "globalInteractionReason"}]}, "venue": {"id": "4b1e3feef964a5201e1824e3", "name": "Mondo Pazzo", "location": {"address": "Schl\u00fcterstr. 52", "lat": 52.503300552038375, "lng": 13.317076548185462, "labeledLatLngs": [{"label": "display", "lat": 52.503300552038375, "lng": 13.317076548185462}], "distance": 399, "postalCode": "10629", "cc": "DE", "city": "Berlin", "state": "Berlin", "country": "Deutschland", "formattedAddress": ["Schl\u00fcterstr. 52", "10629 Berlin", "Deutschland"]}, "categories": [{"id": "4bf58dd8d48988d110941735", "name": "Italian Restaurant", "pluralName": "Italian Restaurants", "shortName": "Italian", "icon": {"prefix": "https://ss3.4sqi.net/img/categories_v2/food/italian_", "suffix": ".png"}, "primary": true}], "photos": {"count": 0, "groups": []}}, "referralId": "e-0-4b1e3feef964a5201e1824e3-58"}, {"reasons": {"count": 0, "items": [{"summary": "This spot is popular", "type": "general", "reasonName": "globalInteractionReason"}]}, "venue": {"id": "4c421149d691c9b6b0c38d0a", "name": "H\u00e4agen-Dazs", "location": {"address": "Kurf\u00fcrstendamm 224", "lat": 52.50312486116429, "lng": 13.329531123151014, "labeledLatLngs": [{"label": "display", "lat": 52.50312486116429, "lng": 13.329531123151014}], "distance": 447, "postalCode": "10719", "cc": "DE", "city": "Berlin", "state": "Berlin", "country": "Deutschland", "formattedAddress": ["Kurf\u00fcrstendamm 224", "10719 Berlin", "Deutschland"]}, "categories": [{"id": "4bf58dd8d48988d1c9941735", "name": "Ice Cream Shop", "pluralName": "Ice Cream Shops", "shortName": "Ice Cream", "icon": {"prefix": "https://ss3.4sqi.net/img/categories_v2/food/icecream_", "suffix": ".png"}, "primary": true}], "photos": {"count": 0, "groups": []}}, "referralId": "e-0-4c421149d691c9b6b0c38d0a-59"}, {"reasons": {"count": 0, "items": [{"summary": "This spot is popular", "type": "general", "reasonName": "globalInteractionReason"}]}, "venue": {"id": "57b02da1cd109fd1a67ff7bf", "name": "A Never Ever Ending Love Story", "location": {"address": "Bleibtreustr. 5", "crossStreet": "Kantstr.", "lat": 52.50623705468312, "lng": 13.320048451423645, "labeledLatLngs": [{"label": "display", "lat": 52.50623705468312, "lng": 13.320048451423645}], "distance": 421, "postalCode": "10623", "cc": "DE", "city": "Berlin", "state": "Berlin", "country": "Deutschland", "formattedAddress": ["Bleibtreustr. 5 (Kantstr.)", "10623 Berlin", "Deutschland"]}, "categories": [{"id": "4bf58dd8d48988d143941735", "name": "Breakfast Spot", "pluralName": "Breakfast Spots", "shortName": "Breakfast", "icon": {"prefix": "https://ss3.4sqi.net/img/categories_v2/food/breakfast_", "suffix": ".png"}, "primary": true}], "photos": {"count": 0, "groups": []}}, "referralId": "e-0-57b02da1cd109fd1a67ff7bf-60"}, {"reasons": {"count": 0, "items": [{"summary": "This spot is popular", "type": "general", "reasonName": "globalInteractionReason"}]}, "venue": {"id": "52651915498efbb22b314e60", "name": "Hotel am Steinplatz", "location": {"address": "Steinplatz 4", "lat": 52.508074, "lng": 13.326501, "labeledLatLngs": [{"label": "display", "lat": 52.508074, "lng": 13.326501}], "distance": 626, "postalCode": "10623", "cc": "DE", "city": "Berlin", "state": "Berlin", "country": "Deutschland", "formattedAddress": ["Steinplatz 4", "10623 Berlin", "Deutschland"]}, "categories": [{"id": "4bf58dd8d48988d1fa931735", "name": "Hotel", "pluralName": "Hotels", "shortName": "Hotel", "icon": {"prefix": "https://ss3.4sqi.net/img/categories_v2/travel/hotel_", "suffix": ".png"}, "primary": true}], "photos": {"count": 0, "groups": []}, "venuePage": {"id": "84737301"}}, "referralId": "e-0-52651915498efbb22b314e60-61"}, {"reasons": {"count": 0, "items": [{"summary": "This spot is popular", "type": "general", "reasonName": "globalInteractionReason"}]}, "venue": {"id": "4dcd840ae4cd130e164fd996", "name": "Anabelas Kitchen", "location": {"address": "Pestalozzistra\u00dfe 3", "lat": 52.50758218505683, "lng": 13.319853095444227, "labeledLatLngs": [{"label": "display", "lat": 52.50758218505683, "lng": 13.319853095444227}], "distance": 563, "postalCode": "10625", "cc": "DE", "city": "Berlin", "state": "Berlin", "country": "Deutschland", "formattedAddress": ["Pestalozzistra\u00dfe 3", "10625 Berlin", "Deutschland"]}, "categories": [{"id": "4bf58dd8d48988d1c4941735", "name": "Restaurant", "pluralName": "Restaurants", "shortName": "Restaurant", "icon": {"prefix": "https://ss3.4sqi.net/img/categories_v2/food/default_", "suffix": ".png"}, "primary": true}], "photos": {"count": 0, "groups": []}}, "referralId": "e-0-4dcd840ae4cd130e164fd996-62"}, {"reasons": {"count": 0, "items": [{"summary": "This spot is popular", "type": "general", "reasonName": "globalInteractionReason"}]}, "venue": {"id": "5605c88c498e3722835f8e49", "name": "Bar Zentral", "location": {"address": "Lotte-Lenya-Bogen 551", "lat": 52.50506887376892, "lng": 13.329165066177621, "labeledLatLngs": [{"label": "display", "lat": 52.50506887376892, "lng": 13.329165066177621}], "distance": 487, "postalCode": "10623", "cc": "DE", "city": "Berlin", "state": "Berlin", "country": "Deutschland", "formattedAddress": ["Lotte-Lenya-Bogen 551", "10623 Berlin", "Deutschland"]}, "categories": [{"id": "4bf58dd8d48988d11e941735", "name": "Cocktail Bar", "pluralName": "Cocktail Bars", "shortName": "Cocktail", "icon": {"prefix": "https://ss3.4sqi.net/img/categories_v2/nightlife/cocktails_", "suffix": ".png"}, "primary": true}], "photos": {"count": 0, "groups": []}}, "referralId": "e-0-5605c88c498e3722835f8e49-63"}, {"reasons": {"count": 0, "items": [{"summary": "This spot is popular", "type": "general", "reasonName": "globalInteractionReason"}]}, "venue": {"id": "4c3627a918e72d7fd75714f5", "name": "La Caleta", "location": {"address": "Wielandstr. 26a", "lat": 52.5002413686734, "lng": 13.31500818149948, "labeledLatLngs": [{"label": "display", "lat": 52.5002413686734, "lng": 13.31500818149948}], "distance": 612, "postalCode": "10707", "cc": "DE", "city": "Berlin", "state": "Berlin", "country": "Deutschland", "formattedAddress": ["Wielandstr. 26a", "10707 Berlin", "Deutschland"]}, "categories": [{"id": "4bf58dd8d48988d150941735", "name": "Spanish Restaurant", "pluralName": "Spanish Restaurants", "shortName": "Spanish", "icon": {"prefix": "https://ss3.4sqi.net/img/categories_v2/food/spanish_", "suffix": ".png"}, "primary": true}], "photos": {"count": 0, "groups": []}}, "referralId": "e-0-4c3627a918e72d7fd75714f5-64"}, {"reasons": {"count": 0, "items": [{"summary": "This spot is popular", "type": "general", "reasonName": "globalInteractionReason"}]}, "venue": {"id": "5a43a77ddee77009c7914b34", "name": "Hotel Bristol Berlin", "location": {"address": "Kurf\u00fcrstendamm 27", "crossStreet": "Fasanenstr.", "lat": 52.504027446736984, "lng": 13.32733687115251, "labeledLatLngs": [{"label": "display", "lat": 52.504027446736984, "lng": 13.32733687115251}], "distance": 324, "postalCode": "10719", "cc": "DE", "city": "Berlin", "state": "Berlin", "country": "Deutschland", "formattedAddress": ["Kurf\u00fcrstendamm 27 (Fasanenstr.)", "10719 Berlin", "Deutschland"]}, "categories": [{"id": "4bf58dd8d48988d1fa931735", "name": "Hotel", "pluralName": "Hotels", "shortName": "Hotel", "icon": {"prefix": "https://ss3.4sqi.net/img/categories_v2/travel/hotel_", "suffix": ".png"}, "primary": true}], "photos": {"count": 0, "groups": []}}, "referralId": "e-0-5a43a77ddee77009c7914b34-65"}, {"reasons": {"count": 0, "items": [{"summary": "This spot is popular", "type": "general", "reasonName": "globalInteractionReason"}]}, "venue": {"id": "561a8378498ed6032c81078e", "name": "ComeBuy Bubble Tea", "location": {"address": "Joachimstaler Str. 14", "lat": 52.50205964808752, "lng": 13.331108781406716, "labeledLatLngs": [{"label": "display", "lat": 52.50205964808752, "lng": 13.331108781406716}], "distance": 561, "postalCode": "10719", "cc": "DE", "city": "Berlin", "state": "Berlin", "country": "Deutschland", "formattedAddress": ["Joachimstaler Str. 14", "10719 Berlin", "Deutschland"]}, "categories": [{"id": "52e81612bcbc57f1066b7a0c", "name": "Bubble Tea Shop", "pluralName": "Bubble Tea Shops", "shortName": "Bubble Tea", "icon": {"prefix": "https://ss3.4sqi.net/img/categories_v2/food/bubble_", "suffix": ".png"}, "primary": true}], "photos": {"count": 0, "groups": []}}, "referralId": "e-0-561a8378498ed6032c81078e-66"}, {"reasons": {"count": 0, "items": [{"summary": "This spot is popular", "type": "general", "reasonName": "globalInteractionReason"}]}, "venue": {"id": "56b8e7b6498e53579eaf155c", "name": "Kame", "location": {"address": "Leibnizstr. 45", "lat": 52.50385597300255, "lng": 13.313506884965676, "labeledLatLngs": [{"label": "display", "lat": 52.50385597300255, "lng": 13.313506884965676}], "distance": 647, "cc": "DE", "city": "Berlin", "state": "Berlin", "country": "Deutschland", "formattedAddress": ["Leibnizstr. 45", "Berlin", "Deutschland"]}, "categories": [{"id": "4bf58dd8d48988d16a941735", "name": "Bakery", "pluralName": "Bakeries", "shortName": "Bakery", "icon": {"prefix": "https://ss3.4sqi.net/img/categories_v2/food/bakery_", "suffix": ".png"}, "primary": true}], "photos": {"count": 0, "groups": []}}, "referralId": "e-0-56b8e7b6498e53579eaf155c-67"}, {"reasons": {"count": 0, "items": [{"summary": "This spot is popular", "type": "general", "reasonName": "globalInteractionReason"}]}, "venue": {"id": "4adcda7af964a520094721e3", "name": "Quasimodo", "location": {"address": "Kantstr. 12a", "crossStreet": "Fasanenstr.", "lat": 52.50572349800832, "lng": 13.328180304830084, "labeledLatLngs": [{"label": "display", "lat": 52.50572349800832, "lng": 13.328180304830084}], "distance": 475, "postalCode": "10623", "cc": "DE", "city": "Berlin", "state": "Berlin", "country": "Deutschland", "formattedAddress": ["Kantstr. 12a (Fasanenstr.)", "10623 Berlin", "Deutschland"]}, "categories": [{"id": "4bf58dd8d48988d1e7931735", "name": "Jazz Club", "pluralName": "Jazz Clubs", "shortName": "Jazz Club", "icon": {"prefix": "https://ss3.4sqi.net/img/categories_v2/arts_entertainment/musicvenue_jazzclub_", "suffix": ".png"}, "primary": true}], "photos": {"count": 0, "groups": []}}, "referralId": "e-0-4adcda7af964a520094721e3-68"}, {"reasons": {"count": 0, "items": [{"summary": "This spot is popular", "type": "general", "reasonName": "globalInteractionReason"}]}, "venue": {"id": "4bc57a696936952133238488", "name": "Hard Rock Cafe Berlin", "location": {"address": "Kurf\u00fcrstendamm 224", "crossStreet": "Meinekestr.", "lat": 52.50309189537848, "lng": 13.329379434935618, "labeledLatLngs": [{"label": "display", "lat": 52.50309189537848, "lng": 13.329379434935618}], "distance": 437, "postalCode": "10719", "cc": "DE", "neighborhood": "Charlottenburg", "city": "Berlin", "state": "Berlin", "country": "Deutschland", "formattedAddress": ["Kurf\u00fcrstendamm 224 (Meinekestr.)", "10719 Berlin", "Deutschland"]}, "categories": [{"id": "56aa371be4b08b9a8d573538", "name": "Theme Restaurant", "pluralName": "Theme Restaurants", "shortName": "Theme Restaurant", "icon": {"prefix": "https://ss3.4sqi.net/img/categories_v2/food/default_", "suffix": ".png"}, "primary": true}], "photos": {"count": 0, "groups": []}}, "referralId": "e-0-4bc57a696936952133238488-69"}, {"reasons": {"count": 0, "items": [{"summary": "This spot is popular", "type": "general", "reasonName": "globalInteractionReason"}]}, "venue": {"id": "4e2533318877099df4bc1d1d", "name": "B\u00e4ckerMann", "location": {"address": "Pariser Str. 20", "lat": 52.49837514519333, "lng": 13.317846621563133, "labeledLatLngs": [{"label": "display", "lat": 52.49837514519333, "lng": 13.317846621563133}], "distance": 608, "postalCode": "10707", "cc": "DE", "city": "Berlin", "state": "Berlin", "country": "Deutschland", "formattedAddress": ["Pariser Str. 20", "10707 Berlin", "Deutschland"]}, "categories": [{"id": "4bf58dd8d48988d16a941735", "name": "Bakery", "pluralName": "Bakeries", "shortName": "Bakery", "icon": {"prefix": "https://ss3.4sqi.net/img/categories_v2/food/bakery_", "suffix": ".png"}, "primary": true}], "photos": {"count": 0, "groups": []}}, "referralId": "e-0-4e2533318877099df4bc1d1d-70"}, {"reasons": {"count": 0, "items": [{"summary": "This spot is popular", "type": "general", "reasonName": "globalInteractionReason"}]}, "venue": {"id": "55048b1d498efeb43b1ca17c", "name": "Ojo De Agua", "location": {"address": "Ludwigkirchstra\u00dfe 10a", "lat": 52.498033087380385, "lng": 13.324939004986236, "labeledLatLngs": [{"label": "display", "lat": 52.498033087380385, "lng": 13.324939004986236}], "distance": 556, "postalCode": "10719", "cc": "DE", "neighborhood": "Charlottenburg-Wilmersdorf", "city": "Berlin-Wilmersdorf", "state": "Berlin", "country": "Deutschland", "formattedAddress": ["Ludwigkirchstra\u00dfe 10a", "10719 Berlin-Wilmersdorf", "Deutschland"]}, "categories": [{"id": "4bf58dd8d48988d107941735", "name": "Argentinian Restaurant", "pluralName": "Argentinian Restaurants", "shortName": "Argentinian", "icon": {"prefix": "https://ss3.4sqi.net/img/categories_v2/food/argentinian_", "suffix": ".png"}, "primary": true}], "photos": {"count": 0, "groups": []}}, "referralId": "e-0-55048b1d498efeb43b1ca17c-71"}, {"reasons": {"count": 0, "items": [{"summary": "This spot is popular", "type": "general", "reasonName": "globalInteractionReason"}]}, "venue": {"id": "4af7296af964a520a10622e3", "name": "SETs", "location": {"address": "Schl\u00fcterstr. 36", "lat": 52.50254, "lng": 13.316714, "labeledLatLngs": [{"label": "display", "lat": 52.50254, "lng": 13.316714}], "distance": 423, "postalCode": "10629", "cc": "DE", "city": "Berlin", "state": "Berlin", "country": "Deutschland", "formattedAddress": ["Schl\u00fcterstr. 36", "10629 Berlin", "Deutschland"]}, "categories": [{"id": "4bf58dd8d48988d143941735", "name": "Breakfast Spot", "pluralName": "Breakfast Spots", "shortName": "Breakfast", "icon": {"prefix": "https://ss3.4sqi.net/img/categories_v2/food/breakfast_", "suffix": ".png"}, "primary": true}], "photos": {"count": 0, "groups": []}}, "referralId": "e-0-4af7296af964a520a10622e3-72"}, {"reasons": {"count": 0, "items": [{"summary": "This spot is popular", "type": "general", "reasonName": "globalInteractionReason"}]}, "venue": {"id": "4b07157df964a520e6f622e3", "name": "Hefner Bar", "location": {"address": "Kantstr. 146", "crossStreet": "Savignyplatz", "lat": 52.50573330679291, "lng": 13.323319459314995, "labeledLatLngs": [{"label": "display", "lat": 52.50573330679291, "lng": 13.323319459314995}], "distance": 318, "postalCode": "10623", "cc": "DE", "city": "Berlin", "state": "Berlin", "country": "Deutschland", "formattedAddress": ["Kantstr. 146 (Savignyplatz)", "10623 Berlin", "Deutschland"]}, "categories": [{"id": "4bf58dd8d48988d116941735", "name": "Bar", "pluralName": "Bars", "shortName": "Bar", "icon": {"prefix": "https://ss3.4sqi.net/img/categories_v2/nightlife/pub_", "suffix": ".png"}, "primary": true}], "photos": {"count": 0, "groups": []}}, "referralId": "e-0-4b07157df964a520e6f622e3-73"}, {"reasons": {"count": 0, "items": [{"summary": "This spot is popular", "type": "general", "reasonName": "globalInteractionReason"}]}, "venue": {"id": "5228b7737e484ee899dce79b", "name": "C/O Berlin", "location": {"address": "Hardenbergstr. 22-24", "lat": 52.50678358537336, "lng": 13.330788985134213, "labeledLatLngs": [{"label": "display", "lat": 52.50678358537336, "lng": 13.330788985134213}], "distance": 686, "postalCode": "10623", "cc": "DE", "city": "Berlin", "state": "Berlin", "country": "Deutschland", "formattedAddress": ["Hardenbergstr. 22-24", "10623 Berlin", "Deutschland"]}, "categories": [{"id": "4bf58dd8d48988d18f941735", "name": "Art Museum", "pluralName": "Art Museums", "shortName": "Art Museum", "icon": {"prefix": "https://ss3.4sqi.net/img/categories_v2/arts_entertainment/museum_art_", "suffix": ".png"}, "primary": true}], "photos": {"count": 0, "groups": []}, "venuePage": {"id": "124350650"}}, "referralId": "e-0-5228b7737e484ee899dce79b-74"}, {"reasons": {"count": 0, "items": [{"summary": "This spot is popular", "type": "general", "reasonName": "globalInteractionReason"}]}, "venue": {"id": "508d2ed5e4b0d26217a55276", "name": "Nicos s\u00fc\u00dfes Atelier", "location": {"address": "Fasanenstr. 42", "lat": 52.497713827458966, "lng": 13.326676648580573, "labeledLatLngs": [{"label": "display", "lat": 52.497713827458966, "lng": 13.326676648580573}], "distance": 628, "postalCode": "10719", "cc": "DE", "city": "Berlin", "state": "Berlin", "country": "Deutschland", "formattedAddress": ["Fasanenstr. 42", "10719 Berlin", "Deutschland"]}, "categories": [{"id": "4bf58dd8d48988d1d0941735", "name": "Dessert Shop", "pluralName": "Dessert Shops", "shortName": "Desserts", "icon": {"prefix": "https://ss3.4sqi.net/img/categories_v2/food/dessert_", "suffix": ".png"}, "primary": true}], "photos": {"count": 0, "groups": []}}, "referralId": "e-0-508d2ed5e4b0d26217a55276-75"}, {"reasons": {"count": 0, "items": [{"summary": "This spot is popular", "type": "general", "reasonName": "globalInteractionReason"}]}, "venue": {"id": "5bf0628165cdf80039f94050", "name": "Ngokimpak", "location": {"address": "Schl\u00fcterstr. 22-23", "crossStreet": "Kantstr.", "lat": 52.50563890188135, "lng": 13.317427241520987, "labeledLatLngs": [{"label": "display", "lat": 52.50563890188135, "lng": 13.317427241520987}], "distance": 482, "postalCode": "10625", "cc": "DE", "city": "Berlin", "state": "Berlin", "country": "Deutschland", "formattedAddress": ["Schl\u00fcterstr. 22-23 (Kantstr.)", "10625 Berlin", "Deutschland"]}, "categories": [{"id": "4bf58dd8d48988d113941735", "name": "Korean Restaurant", "pluralName": "Korean Restaurants", "shortName": "Korean", "icon": {"prefix": "https://ss3.4sqi.net/img/categories_v2/food/korean_", "suffix": ".png"}, "primary": true}], "photos": {"count": 0, "groups": []}}, "referralId": "e-0-5bf0628165cdf80039f94050-76"}, {"reasons": {"count": 0, "items": [{"summary": "This spot is popular", "type": "general", "reasonName": "globalInteractionReason"}]}, "venue": {"id": "593475794b78c57ea61ae715", "name": "Nata de Lisboa", "location": {"address": "Pariser Str. 24", "lat": 52.49862611564884, "lng": 13.316698925490817, "labeledLatLngs": [{"label": "display", "lat": 52.49862611564884, "lng": 13.316698925490817}], "distance": 635, "postalCode": "10707", "cc": "DE", "neighborhood": "Wilmersdorf", "city": "Berlin", "state": "Berlin", "country": "Deutschland", "formattedAddress": ["Pariser Str. 24", "10707 Berlin", "Deutschland"]}, "categories": [{"id": "4def73e84765ae376e57713a", "name": "Portuguese Restaurant", "pluralName": "Portuguese Restaurants", "shortName": "Portuguese", "icon": {"prefix": "https://ss3.4sqi.net/img/categories_v2/food/portuguese_", "suffix": ".png"}, "primary": true}], "photos": {"count": 0, "groups": []}}, "referralId": "e-0-593475794b78c57ea61ae715-77"}, {"reasons": {"count": 0, "items": [{"summary": "This spot is popular", "type": "general", "reasonName": "globalInteractionReason"}]}, "venue": {"id": "4b60ca43f964a52094f929e3", "name": "AndaLuc\u00eda", "location": {"address": "Savignyplatz 2", "lat": 52.50549256449281, "lng": 13.323009423159247, "labeledLatLngs": [{"label": "display", "lat": 52.50549256449281, "lng": 13.323009423159247}], "distance": 290, "postalCode": "10623", "cc": "DE", "city": "Berlin", "state": "Berlin", "country": "Deutschland", "formattedAddress": ["Savignyplatz 2", "10623 Berlin", "Deutschland"]}, "categories": [{"id": "4bf58dd8d48988d150941735", "name": "Spanish Restaurant", "pluralName": "Spanish Restaurants", "shortName": "Spanish", "icon": {"prefix": "https://ss3.4sqi.net/img/categories_v2/food/spanish_", "suffix": ".png"}, "primary": true}], "photos": {"count": 0, "groups": []}, "venuePage": {"id": "576088320"}}, "referralId": "e-0-4b60ca43f964a52094f929e3-78"}, {"reasons": {"count": 0, "items": [{"summary": "This spot is popular", "type": "general", "reasonName": "globalInteractionReason"}]}, "venue": {"id": "4b6729b1f964a520bb3e2be3", "name": "Ashoka", "location": {"address": "Grolmanstr. 51", "lat": 52.506961795417865, "lng": 13.32162681219723, "labeledLatLngs": [{"label": "display", "lat": 52.506961795417865, "lng": 13.32162681219723}], "distance": 462, "postalCode": "10623", "cc": "DE", "city": "Berlin", "state": "Berlin", "country": "Deutschland", "formattedAddress": ["Grolmanstr. 51", "10623 Berlin", "Deutschland"]}, "categories": [{"id": "4bf58dd8d48988d10f941735", "name": "Indian Restaurant", "pluralName": "Indian Restaurants", "shortName": "Indian", "icon": {"prefix": "https://ss3.4sqi.net/img/categories_v2/food/indian_", "suffix": ".png"}, "primary": true}], "photos": {"count": 0, "groups": []}}, "referralId": "e-0-4b6729b1f964a520bb3e2be3-79"}, {"reasons": {"count": 0, "items": [{"summary": "This spot is popular", "type": "general", "reasonName": "globalInteractionReason"}]}, "venue": {"id": "54f990e0498e33ea0f38b1ed", "name": "ZUKA", "location": {"address": "Emser Str. 25", "crossStreet": "Ludwigkirchplatz", "lat": 52.497434427228406, "lng": 13.320355248219334, "labeledLatLngs": [{"label": "display", "lat": 52.497434427228406, "lng": 13.320355248219334}], "distance": 631, "postalCode": "10719", "cc": "DE", "city": "Berlin", "state": "Berlin", "country": "Deutschland", "formattedAddress": ["Emser Str. 25 (Ludwigkirchplatz)", "10719 Berlin", "Deutschland"]}, "categories": [{"id": "4bf58dd8d48988d1d0941735", "name": "Dessert Shop", "pluralName": "Dessert Shops", "shortName": "Desserts", "icon": {"prefix": "https://ss3.4sqi.net/img/categories_v2/food/dessert_", "suffix": ".png"}, "primary": true}], "photos": {"count": 0, "groups": []}}, "referralId": "e-0-54f990e0498e33ea0f38b1ed-80"}, {"reasons": {"count": 0, "items": [{"summary": "This spot is popular", "type": "general", "reasonName": "globalInteractionReason"}]}, "venue": {"id": "4b191ddff964a52030d823e3", "name": "Louis Vuitton", "location": {"address": "Kurf\u00fcrstendamm 185", "lat": 52.50053471204056, "lng": 13.314569544209007, "labeledLatLngs": [{"label": "display", "lat": 52.50053471204056, "lng": 13.314569544209007}], "distance": 624, "postalCode": "10707", "cc": "DE", "city": "Berlin", "state": "Berlin", "country": "Deutschland", "formattedAddress": ["Kurf\u00fcrstendamm 185", "10707 Berlin", "Deutschland"]}, "categories": [{"id": "4bf58dd8d48988d104951735", "name": "Boutique", "pluralName": "Boutiques", "shortName": "Boutique", "icon": {"prefix": "https://ss3.4sqi.net/img/categories_v2/shops/apparel_boutique_", "suffix": ".png"}, "primary": true}], "photos": {"count": 0, "groups": []}}, "referralId": "e-0-4b191ddff964a52030d823e3-81"}, {"reasons": {"count": 0, "items": [{"summary": "This spot is popular", "type": "general", "reasonName": "globalInteractionReason"}]}, "venue": {"id": "4d600424e4fe548135eb7a9e", "name": "Restaurante Serrano", "location": {"address": "Pfalzburger Str. 83", "lat": 52.49872789500794, "lng": 13.322806899174262, "labeledLatLngs": [{"label": "display", "lat": 52.49872789500794, "lng": 13.322806899174262}], "distance": 462, "postalCode": "10719", "cc": "DE", "city": "Berlin", "state": "Berlin", "country": "Deutschland", "formattedAddress": ["Pfalzburger Str. 83", "10719 Berlin", "Deutschland"]}, "categories": [{"id": "4bf58dd8d48988d1cd941735", "name": "South American Restaurant", "pluralName": "South American Restaurants", "shortName": "South American", "icon": {"prefix": "https://ss3.4sqi.net/img/categories_v2/food/argentinian_", "suffix": ".png"}, "primary": true}], "photos": {"count": 0, "groups": []}}, "referralId": "e-0-4d600424e4fe548135eb7a9e-82"}, {"reasons": {"count": 0, "items": [{"summary": "This spot is popular", "type": "general", "reasonName": "globalInteractionReason"}]}, "venue": {"id": "4c59eb072091a5933d1e5ed0", "name": "Union Jack - The Whiskey Pub", "location": {"address": "Schl\u00fcterstr. 15", "lat": 52.50807842351863, "lng": 13.317868494769204, "labeledLatLngs": [{"label": "display", "lat": 52.50807842351863, "lng": 13.317868494769204}], "distance": 672, "postalCode": "10625", "cc": "DE", "city": "Berlin", "state": "Berlin", "country": "Deutschland", "formattedAddress": ["Schl\u00fcterstr. 15", "10625 Berlin", "Deutschland"]}, "categories": [{"id": "4bf58dd8d48988d122941735", "name": "Whisky Bar", "pluralName": "Whisky Bars", "shortName": "Whisky Bar", "icon": {"prefix": "https://ss3.4sqi.net/img/categories_v2/nightlife/whiskey_", "suffix": ".png"}, "primary": true}], "photos": {"count": 0, "groups": []}}, "referralId": "e-0-4c59eb072091a5933d1e5ed0-83"}, {"reasons": {"count": 0, "items": [{"summary": "This spot is popular", "type": "general", "reasonName": "globalInteractionReason"}]}, "venue": {"id": "4adcda8ff964a520e74a21e3", "name": "Diesel", "location": {"address": "Kurf\u00fcrstendamm 17", "lat": 52.504114964210025, "lng": 13.331493296624663, "labeledLatLngs": [{"label": "display", "lat": 52.504114964210025, "lng": 13.331493296624663}], "distance": 595, "postalCode": "10719", "cc": "DE", "city": "Berlin", "state": "Berlin", "country": "Deutschland", "formattedAddress": ["Kurf\u00fcrstendamm 17", "10719 Berlin", "Deutschland"]}, "categories": [{"id": "4bf58dd8d48988d103951735", "name": "Clothing Store", "pluralName": "Clothing Stores", "shortName": "Apparel", "icon": {"prefix": "https://ss3.4sqi.net/img/categories_v2/shops/apparel_", "suffix": ".png"}, "primary": true}], "photos": {"count": 0, "groups": []}}, "referralId": "e-0-4adcda8ff964a520e74a21e3-84"}, {"reasons": {"count": 0, "items": [{"summary": "This spot is popular", "type": "general", "reasonName": "globalInteractionReason"}]}, "venue": {"id": "4e8c55630cd65621ed614f02", "name": "Ma\u00eetre Philippe", "location": {"address": "Emser Stra\u00dfe 42", "lat": 52.497374746215776, "lng": 13.32023027527773, "labeledLatLngs": [{"label": "display", "lat": 52.497374746215776, "lng": 13.32023027527773}], "distance": 640, "postalCode": "10719", "cc": "DE", "city": "Berlin", "state": "Berlin", "country": "Deutschland", "formattedAddress": ["Emser Stra\u00dfe 42", "10719 Berlin", "Deutschland"]}, "categories": [{"id": "4bf58dd8d48988d1f5941735", "name": "Gourmet Shop", "pluralName": "Gourmet Shops", "shortName": "Gourmet", "icon": {"prefix": "https://ss3.4sqi.net/img/categories_v2/shops/food_gourmet_", "suffix": ".png"}, "primary": true}], "photos": {"count": 0, "groups": []}}, "referralId": "e-0-4e8c55630cd65621ed614f02-85"}, {"reasons": {"count": 0, "items": [{"summary": "This spot is popular", "type": "general", "reasonName": "globalInteractionReason"}]}, "venue": {"id": "4b9ca97df964a520237536e3", "name": "Tillmann Bio Konditorei", "location": {"address": "Ludwigkirchstr. 14", "lat": 52.498158379086824, "lng": 13.326088605004422, "labeledLatLngs": [{"label": "display", "lat": 52.498158379086824, "lng": 13.326088605004422}], "distance": 567, "postalCode": "10719", "cc": "DE", "city": "Berlin", "state": "Berlin", "country": "Deutschland", "formattedAddress": ["Ludwigkirchstr. 14", "10719 Berlin", "Deutschland"]}, "categories": [{"id": "5744ccdfe4b0c0459246b4e2", "name": "Pastry Shop", "pluralName": "Pastry Shops", "shortName": "Pastry", "icon": {"prefix": "https://ss3.4sqi.net/img/categories_v2/food/dessert_", "suffix": ".png"}, "primary": true}], "photos": {"count": 0, "groups": []}}, "referralId": "e-0-4b9ca97df964a520237536e3-86"}, {"reasons": {"count": 0, "items": [{"summary": "This spot is popular", "type": "general", "reasonName": "globalInteractionReason"}]}, "venue": {"id": "4adcda84f964a520cf4821e3", "name": "Paris Bar", "location": {"address": "Kantstr. 152", "lat": 52.50557334722245, "lng": 13.326263578628605, "labeledLatLngs": [{"label": "display", "lat": 52.50557334722245, "lng": 13.326263578628605}], "distance": 374, "postalCode": "10623", "cc": "DE", "city": "Berlin", "state": "Berlin", "country": "Deutschland", "formattedAddress": ["Kantstr. 152", "10623 Berlin", "Deutschland"]}, "categories": [{"id": "4bf58dd8d48988d10c941735", "name": "French Restaurant", "pluralName": "French Restaurants", "shortName": "French", "icon": {"prefix": "https://ss3.4sqi.net/img/categories_v2/food/french_", "suffix": ".png"}, "primary": true}], "photos": {"count": 0, "groups": []}}, "referralId": "e-0-4adcda84f964a520cf4821e3-87"}, {"reasons": {"count": 0, "items": [{"summary": "This spot is popular", "type": "general", "reasonName": "globalInteractionReason"}]}, "venue": {"id": "4d8906b6bc848cfa0ab8b92b", "name": "H10 Berlin Ku'damm", "location": {"address": "Joachimstaler Str. 32", "crossStreet": "Kurf\u00fcrstendamm", "lat": 52.50213263904106, "lng": 13.331668800441443, "labeledLatLngs": [{"label": "display", "lat": 52.50213263904106, "lng": 13.331668800441443}], "distance": 597, "postalCode": "10719", "cc": "DE", "city": "Berlin", "state": "Berlin", "country": "Deutschland", "formattedAddress": ["Joachimstaler Str. 32 (Kurf\u00fcrstendamm)", "10719 Berlin", "Deutschland"]}, "categories": [{"id": "4bf58dd8d48988d1fa931735", "name": "Hotel", "pluralName": "Hotels", "shortName": "Hotel", "icon": {"prefix": "https://ss3.4sqi.net/img/categories_v2/travel/hotel_", "suffix": ".png"}, "primary": true}], "photos": {"count": 0, "groups": []}}, "referralId": "e-0-4d8906b6bc848cfa0ab8b92b-88"}, {"reasons": {"count": 0, "items": [{"summary": "This spot is popular", "type": "general", "reasonName": "globalInteractionReason"}]}, "venue": {"id": "4b217794f964a5204d3c24e3", "name": "Hotel NH Berlin Kurf\u00fcrstendamm", "location": {"address": "Grolmanstr. 41-43", "lat": 52.50401365901272, "lng": 13.323997496373137, "labeledLatLngs": [{"label": "display", "lat": 52.50401365901272, "lng": 13.323997496373137}], "distance": 144, "postalCode": "10623", "cc": "DE", "neighborhood": "Charlottenburg, Berlin", "city": "Berlin", "state": "Berlin", "country": "Deutschland", "formattedAddress": ["Grolmanstr. 41-43", "10623 Berlin", "Deutschland"]}, "categories": [{"id": "4bf58dd8d48988d1fa931735", "name": "Hotel", "pluralName": "Hotels", "shortName": "Hotel", "icon": {"prefix": "https://ss3.4sqi.net/img/categories_v2/travel/hotel_", "suffix": ".png"}, "primary": true}], "photos": {"count": 0, "groups": []}}, "referralId": "e-0-4b217794f964a5204d3c24e3-89"}, {"reasons": {"count": 0, "items": [{"summary": "This spot is popular", "type": "general", "reasonName": "globalInteractionReason"}]}, "venue": {"id": "4fcb3ec9e4b0b0ef06e5e49a", "name": "Caras", "location": {"address": "Kurf\u00fcrstendamm 36", "lat": 52.50239049553045, "lng": 13.32340121269226, "labeledLatLngs": [{"label": "display", "lat": 52.50239049553045, "lng": 13.32340121269226}], "distance": 63, "postalCode": "10719", "cc": "DE", "city": "Berlin", "state": "Berlin", "country": "Deutschland", "formattedAddress": ["Kurf\u00fcrstendamm 36", "10719 Berlin", "Deutschland"]}, "categories": [{"id": "4bf58dd8d48988d1e0931735", "name": "Coffee Shop", "pluralName": "Coffee Shops", "shortName": "Coffee Shop", "icon": {"prefix": "https://ss3.4sqi.net/img/categories_v2/food/coffeeshop_", "suffix": ".png"}, "primary": true}], "photos": {"count": 0, "groups": []}}, "referralId": "e-0-4fcb3ec9e4b0b0ef06e5e49a-90"}, {"reasons": {"count": 0, "items": [{"summary": "This spot is popular", "type": "general", "reasonName": "globalInteractionReason"}]}, "venue": {"id": "4c0c0cb7340720a1a0138993", "name": "Pratirio", "location": {"address": "Knesebeckstr. 22", "lat": 52.50692558556845, "lng": 13.322517255390643, "labeledLatLngs": [{"label": "display", "lat": 52.50692558556845, "lng": 13.322517255390643}], "distance": 450, "postalCode": "10623", "cc": "DE", "city": "Berlin", "state": "Berlin", "country": "Deutschland", "formattedAddress": ["Knesebeckstr. 22", "10623 Berlin", "Deutschland"]}, "categories": [{"id": "53d6c1b0e4b02351e88a83d4", "name": "Modern Greek Restaurant", "pluralName": "Modern Greek Restaurants", "shortName": "Modern Greek Restaurants", "icon": {"prefix": "https://ss3.4sqi.net/img/categories_v2/food/greek_", "suffix": ".png"}, "primary": true}], "photos": {"count": 0, "groups": []}}, "referralId": "e-0-4c0c0cb7340720a1a0138993-91"}, {"reasons": {"count": 0, "items": [{"summary": "This spot is popular", "type": "general", "reasonName": "globalInteractionReason"}]}, "venue": {"id": "5167ee31498e427ae94d6790", "name": "& other Stories", "location": {"address": "Kurf\u00fcrstendamm 234", "lat": 52.504200360457894, "lng": 13.332970580573852, "labeledLatLngs": [{"label": "display", "lat": 52.504200360457894, "lng": 13.332970580573852}], "distance": 695, "postalCode": "10719", "cc": "DE", "city": "Berlin", "state": "Berlin", "country": "Deutschland", "formattedAddress": ["Kurf\u00fcrstendamm 234", "10719 Berlin", "Deutschland"]}, "categories": [{"id": "4bf58dd8d48988d108951735", "name": "Women's Store", "pluralName": "Women's Stores", "shortName": "Women's Store", "icon": {"prefix": "https://ss3.4sqi.net/img/categories_v2/shops/apparel_women_", "suffix": ".png"}, "primary": true}], "photos": {"count": 0, "groups": []}}, "referralId": "e-0-5167ee31498e427ae94d6790-92"}, {"reasons": {"count": 0, "items": [{"summary": "This spot is popular", "type": "general", "reasonName": "globalInteractionReason"}]}, "venue": {"id": "4d997bb2744f3704ac200858", "name": "Swiss\u00f4tel Berlin", "location": {"address": "Augsburger Str. 44", "crossStreet": "Joachimsthaler Str.", "lat": 52.50307988202324, "lng": 13.331766178996972, "labeledLatLngs": [{"label": "display", "lat": 52.50307988202324, "lng": 13.331766178996972}], "distance": 598, "postalCode": "10789", "cc": "DE", "city": "Berlin", "state": "Berlin", "country": "Deutschland", "formattedAddress": ["Augsburger Str. 44 (Joachimsthaler Str.)", "10789 Berlin", "Deutschland"]}, "categories": [{"id": "4bf58dd8d48988d1fa931735", "name": "Hotel", "pluralName": "Hotels", "shortName": "Hotel", "icon": {"prefix": "https://ss3.4sqi.net/img/categories_v2/travel/hotel_", "suffix": ".png"}, "primary": true}], "photos": {"count": 0, "groups": []}}, "referralId": "e-0-4d997bb2744f3704ac200858-93"}, {"reasons": {"count": 0, "items": [{"summary": "This spot is popular", "type": "general", "reasonName": "globalInteractionReason"}]}, "venue": {"id": "58832b2216f0007b20c844d9", "name": "Taniel Beauty Club", "location": {"address": "Pariser Str. 24", "lat": 52.49862224777032, "lng": 13.316942388747902, "labeledLatLngs": [{"label": "display", "lat": 52.49862224777032, "lng": 13.316942388747902}], "distance": 624, "postalCode": "10707", "cc": "DE", "neighborhood": "Wilmersdorf", "city": "Berlin", "state": "Berlin", "country": "Deutschland", "formattedAddress": ["Pariser Str. 24", "10707 Berlin", "Deutschland"]}, "categories": [{"id": "54541900498ea6ccd0202697", "name": "Health & Beauty Service", "pluralName": "Health & Beauty Services", "shortName": "Health & Beauty", "icon": {"prefix": "https://ss3.4sqi.net/img/categories_v2/shops/salon_barber_", "suffix": ".png"}, "primary": true}], "photos": {"count": 0, "groups": []}}, "referralId": "e-0-58832b2216f0007b20c844d9-94"}, {"reasons": {"count": 0, "items": [{"summary": "This spot is popular", "type": "general", "reasonName": "globalInteractionReason"}]}, "venue": {"id": "4b225ecdf964a520064624e3", "name": "Enoteca L'Angolino", "location": {"address": "Knesebeckstr. 92", "crossStreet": "Goethestra\u00dfe", "lat": 52.50835074342167, "lng": 13.322741594877213, "labeledLatLngs": [{"label": "display", "lat": 52.50835074342167, "lng": 13.322741594877213}], "distance": 608, "postalCode": "10623", "cc": "DE", "city": "Berlin", "state": "Berlin", "country": "Deutschland", "formattedAddress": ["Knesebeckstr. 92 (Goethestra\u00dfe)", "10623 Berlin", "Deutschland"]}, "categories": [{"id": "4bf58dd8d48988d110941735", "name": "Italian Restaurant", "pluralName": "Italian Restaurants", "shortName": "Italian", "icon": {"prefix": "https://ss3.4sqi.net/img/categories_v2/food/italian_", "suffix": ".png"}, "primary": true}], "photos": {"count": 0, "groups": []}, "venuePage": {"id": "582756791"}}, "referralId": "e-0-4b225ecdf964a520064624e3-95"}, {"reasons": {"count": 0, "items": [{"summary": "This spot is popular", "type": "general", "reasonName": "globalInteractionReason"}]}, "venue": {"id": "4eeafc0577c8dc54c58ecd1a", "name": "Waldorf Astoria Berlin", "location": {"address": "Hardenbergstr. 28", "lat": 52.50550215843062, "lng": 13.33294103723306, "labeledLatLngs": [{"label": "display", "lat": 52.50550215843062, "lng": 13.33294103723306}], "distance": 738, "postalCode": "10623", "cc": "DE", "city": "Berlin", "state": "Berlin", "country": "Deutschland", "formattedAddress": ["Hardenbergstr. 28", "10623 Berlin", "Deutschland"]}, "categories": [{"id": "4bf58dd8d48988d1fa931735", "name": "Hotel", "pluralName": "Hotels", "shortName": "Hotel", "icon": {"prefix": "https://ss3.4sqi.net/img/categories_v2/travel/hotel_", "suffix": ".png"}, "primary": true}], "photos": {"count": 0, "groups": []}}, "referralId": "e-0-4eeafc0577c8dc54c58ecd1a-96"}, {"reasons": {"count": 0, "items": [{"summary": "This spot is popular", "type": "general", "reasonName": "globalInteractionReason"}]}, "venue": {"id": "4b8ed2f8f964a520493933e3", "name": "Ristorante Pascarella", "location": {"address": "Schl\u00fcterstr. 69", "crossStreet": "Pestalozzistr.", "lat": 52.507643315302765, "lng": 13.317969484758093, "labeledLatLngs": [{"label": "display", "lat": 52.507643315302765, "lng": 13.317969484758093}], "distance": 627, "postalCode": "10625", "cc": "DE", "city": "Berlin", "state": "Berlin", "country": "Deutschland", "formattedAddress": ["Schl\u00fcterstr. 69 (Pestalozzistr.)", "10625 Berlin", "Deutschland"]}, "categories": [{"id": "4bf58dd8d48988d110941735", "name": "Italian Restaurant", "pluralName": "Italian Restaurants", "shortName": "Italian", "icon": {"prefix": "https://ss3.4sqi.net/img/categories_v2/food/italian_", "suffix": ".png"}, "primary": true}], "photos": {"count": 0, "groups": []}}, "referralId": "e-0-4b8ed2f8f964a520493933e3-97"}, {"reasons": {"count": 0, "items": [{"summary": "This spot is popular", "type": "general", "reasonName": "globalInteractionReason"}]}, "venue": {"id": "4b5c0eb6f964a520b42229e3", "name": "Buddha Republic", "location": {"address": "Knesebeckstr. 88", "crossStreet": "Savignyplatz", "lat": 52.50763956416895, "lng": 13.32260994059498, "labeledLatLngs": [{"label": "display", "lat": 52.50763956416895, "lng": 13.32260994059498}], "distance": 529, "postalCode": "10623", "cc": "DE", "city": "Berlin", "state": "Berlin", "country": "Deutschland", "formattedAddress": ["Knesebeckstr. 88 (Savignyplatz)", "10623 Berlin", "Deutschland"]}, "categories": [{"id": "4bf58dd8d48988d10f941735", "name": "Indian Restaurant", "pluralName": "Indian Restaurants", "shortName": "Indian", "icon": {"prefix": "https://ss3.4sqi.net/img/categories_v2/food/indian_", "suffix": ".png"}, "primary": true}], "photos": {"count": 0, "groups": []}, "venuePage": {"id": "498676685"}}, "referralId": "e-0-4b5c0eb6f964a520b42229e3-98"}, {"reasons": {"count": 0, "items": [{"summary": "This spot is popular", "type": "general", "reasonName": "globalInteractionReason"}]}, "venue": {"id": "52af152911d26ab24c4aba47", "name": "La t\u00eda rica", "location": {"address": "Knesebeckstr. 92", "crossStreet": "Goethestrasse", "lat": 52.508476, "lng": 13.323309, "labeledLatLngs": [{"label": "display", "lat": 52.508476, "lng": 13.323309}], "distance": 622, "postalCode": "10623", "cc": "DE", "city": "Berlin", "state": "Berlin", "country": "Deutschland", "formattedAddress": ["Knesebeckstr. 92 (Goethestrasse)", "10623 Berlin", "Deutschland"]}, "categories": [{"id": "4bf58dd8d48988d1be941735", "name": "Latin American Restaurant", "pluralName": "Latin American Restaurants", "shortName": "Latin American", "icon": {"prefix": "https://ss3.4sqi.net/img/categories_v2/food/latinamerican_", "suffix": ".png"}, "primary": true}], "photos": {"count": 0, "groups": []}, "venuePage": {"id": "504965653"}}, "referralId": "e-0-52af152911d26ab24c4aba47-99"}]