[{"reasons": {"count": 0, "items": [{"summary": "This spot is popular", "type": "general", "reasonName": "globalInteractionReason"}]}, "venue": {"id": "4da0628c3edff04dfa3e3f99", "name": "Gemeindepark Lankwitz", "location": {"address": "Am Gemeindepark", "lat": 52.431263275792155, "lng": 13.35139274597168, "labeledLatLngs": [{"label": "display", "lat": 52.431263275792155, "lng": 13.35139274597168}], "distance": 208, "postalCode": "12249", "cc": "DE", "city": "Berlin", "state": "Berlin", "country": "Deutschland", "formattedAddress": ["Am Gemeindepark", "12249 Berlin", "Deutschland"]}, "categories": [{"id": "4bf58dd8d48988d163941735", "name": "Park", "pluralName": "Parks", "shortName": "Park", "icon": {"prefix": "https://ss3.4sqi.net/img/categories_v2/parks_outdoors/park_", "suffix": ".png"}, "primary": true}], "photos": {"count": 0, "groups": []}}, "referralId": "e-0-4da0628c3edff04dfa3e3f99-0"}, {"reasons": {"count": 0, "items": [{"summary": "This spot is popular", "type": "general", "reasonName": "globalInteractionReason"}]}, "venue": {"id": "51d1a000498ef8741c92276b", "name": "Gem\u00fcse Kebap", "location": {"address": "Kaiser-Wilhelm-Stra\u00dfe", "crossStreet": "Dillgesstra\u00dfe", "lat": 52.43471900852094, "lng": 13.342658019524963, "labeledLatLngs": [{"label": "display", "lat": 52.43471900852094, "lng": 13.342658019524963}], "distance": 507, "postalCode": "12247", "cc": "DE", "city": "Berlin", "state": "Berlin", "country": "Deutschland", "formattedAddress": ["Kaiser-Wilhelm-Stra\u00dfe (Dillgesstra\u00dfe)", "12247 Berlin", "Deutschland"]}, "categories": [{"id": "4bf58dd8d48988d16e941735", "name": "Fast Food Restaurant", "pluralName": "Fast Food Restaurants", "shortName": "Fast Food", "icon": {"prefix": "https://ss3.4sqi.net/img/categories_v2/food/fastfood_", "suffix": ".png"}, "primary": true}], "photos": {"count": 0, "groups": []}}, "referralId": "e-0-51d1a000498ef8741c92276b-1"}, {"reasons": {"count": 0, "items": [{"summary": "This spot is popular", "type": "general", "reasonName": "globalInteractionReason"}]}, "venue": {"id": "4adcda8bf964a520ef4921e3", "name": "Thalia", "location": {"address": "Kaiser-Wilhelm-Str. 71", "lat": 52.435002007029425, "lng": 13.34457591878774, "labeledLatLngs": [{"label": "display", "lat": 52.435002007029425, "lng": 13.34457591878774}], "distance": 438, "postalCode": "12247", "cc": "DE", "city": "Berlin", "state": "Berlin", "country": "Deutschland", "formattedAddress": ["Kaiser-Wilhelm-Str. 71", "12247 Berlin", "Deutschland"]}, "categories": [{"id": "4bf58dd8d48988d17f941735", "name": "Movie Theater", "pluralName": "Movie Theaters", "shortName": "Movie Theater", "icon": {"prefix": "https://ss3.4sqi.net/img/categories_v2/arts_entertainment/movietheater_", "suffix": ".png"}, "primary": true}], "photos": {"count": 0, "groups": []}}, "referralId": "e-0-4adcda8bf964a520ef4921e3-2"}, {"reasons": {"count": 0, "items": [{"summary": "This spot is popular", "type": "general", "reasonName": "globalInteractionReason"}]}, "venue": {"id": "4d977e51af3d236adc7625c7", "name": "Preussenpark", "location": {"address": "Kamenzer Damm 34", "lat": 52.43327964660897, "lng": 13.356815208755142, "labeledLatLngs": [{"label": "display", "lat": 52.43327964660897, "lng": 13.356815208755142}], "distance": 586, "postalCode": "12248", "cc": "DE", "city": "Berlin", "state": "Berlin", "country": "Deutschland", "formattedAddress": ["Kamenzer Damm 34", "12248 Berlin", "Deutschland"]}, "categories": [{"id": "4f4528bc4b90abdf24c9de85", "name": "Athletics & Sports", "pluralName": "Athletics & Sports", "shortName": "Athletics & Sports", "icon": {"prefix": "https://ss3.4sqi.net/img/categories_v2/shops/sports_outdoors_", "suffix": ".png"}, "primary": true}], "photos": {"count": 0, "groups": []}}, "referralId": "e-0-4d977e51af3d236adc7625c7-3"}, {"reasons": {"count": 0, "items": [{"summary": "This spot is popular", "type": "general", "reasonName": "globalInteractionReason"}]}, "venue": {"id": "5041aaf3e4b06a01ba327c23", "name": "dm-drogerie markt", "location": {"address": "Kaiser-Wilhelm-Stra\u00dfe 76-78", "lat": 52.43630810734774, "lng": 13.345280533729579, "labeledLatLngs": [{"label": "display", "lat": 52.43630810734774, "lng": 13.345280533729579}], "distance": 539, "postalCode": "12247", "cc": "DE", "city": "Berlin", "state": "Berlin", "country": "Deutschland", "formattedAddress": ["Kaiser-Wilhelm-Stra\u00dfe 76-78", "12247 Berlin", "Deutschland"]}, "categories": [{"id": "5745c2e4498e11e7bccabdbd", "name": "Drugstore", "pluralName": "Drugstores", "shortName": "Drugstore", "icon": {"prefix": "https://ss3.4sqi.net/img/categories_v2/shops/pharmacy_", "suffix": ".png"}, "primary": true}], "photos": {"count": 0, "groups": []}, "venuePage": {"id": "456532396"}}, "referralId": "e-0-5041aaf3e4b06a01ba327c23-4"}, {"reasons": {"count": 0, "items": [{"summary": "This spot is popular", "type": "general", "reasonName": "globalInteractionReason"}]}, "venue": {"id": "503fbd0a7e2752ec471b54a3", "name": "Rossmann", "location": {"address": "Leonorenstra\u00dfe 98", "lat": 52.4369211232649, "lng": 13.34495623196086, "labeledLatLngs": [{"label": "display", "lat": 52.4369211232649, "lng": 13.34495623196086}], "distance": 611, "postalCode": "12247", "cc": "DE", "city": "Berlin", "state": "Berlin", "country": "Deutschland", "formattedAddress": ["Leonorenstra\u00dfe 98", "12247 Berlin", "Deutschland"]}, "categories": [{"id": "5745c2e4498e11e7bccabdbd", "name": "Drugstore", "pluralName": "Drugstores", "shortName": "Drugstore", "icon": {"prefix": "https://ss3.4sqi.net/img/categories_v2/shops/pharmacy_", "suffix": ".png"}, "primary": true}], "photos": {"count": 0, "groups": []}}, "referralId": "e-0-503fbd0a7e2752ec471b54a3-5"}, {"reasons": {"count": 0, "items": [{"summary": "This spot is popular", "type": "general", "reasonName": "globalInteractionReason"}]}, "venue": {"id": "4d34803398336dcbcd3638f0", "name": "La Montanara", "location": {"address": "Leonorenstr. 69", "lat": 52.43899511337195, "lng": 13.3436985726894, "labeledLatLngs": [{"label": "display", "lat": 52.43899511337195, "lng": 13.3436985726894}], "distance": 857, "postalCode": "12247", "cc": "DE", "city": "Berlin", "state": "Berlin", "country": "Deutschland", "formattedAddress": ["Leonorenstr. 69", "12247 Berlin", "Deutschland"]}, "categories": [{"id": "4bf58dd8d48988d110941735", "name": "Italian Restaurant", "pluralName": "Italian Restaurants", "shortName": "Italian", "icon": {"prefix": "https://ss3.4sqi.net/img/categories_v2/food/italian_", "suffix": ".png"}, "primary": true}], "photos": {"count": 0, "groups": []}}, "referralId": "e-0-4d34803398336dcbcd3638f0-6"}, {"reasons": {"count": 0, "items": [{"summary": "This spot is popular", "type": "general", "reasonName": "globalInteractionReason"}]}, "venue": {"id": "4c6d06c365eda093ad674dd0", "name": "SurfInn", "location": {"address": "Kaiser-Wilhelm-Strasse 82", "lat": 52.43652527706776, "lng": 13.346029207691746, "labeledLatLngs": [{"label": "display", "lat": 52.43652527706776, "lng": 13.346029207691746}], "distance": 544, "postalCode": "12249", "cc": "DE", "city": "Berlin", "state": "Berlin", "country": "Deutschland", "formattedAddress": ["Kaiser-Wilhelm-Strasse 82", "12249 Berlin", "Deutschland"]}, "categories": [{"id": "4bf58dd8d48988d10d941735", "name": "German Restaurant", "pluralName": "German Restaurants", "shortName": "German", "icon": {"prefix": "https://ss3.4sqi.net/img/categories_v2/food/german_", "suffix": ".png"}, "primary": true}], "photos": {"count": 0, "groups": []}}, "referralId": "e-0-4c6d06c365eda093ad674dd0-7"}, {"reasons": {"count": 0, "items": [{"summary": "This spot is popular", "type": "general", "reasonName": "globalInteractionReason"}]}, "venue": {"id": "596529cefdb9a718fcaabcd6", "name": "EDEKA Brieger Stra\u00dfe", "location": {"address": "Brieger Str. 1", "crossStreet": "Wedellstr.", "lat": 52.43327308, "lng": 13.35979178, "labeledLatLngs": [{"label": "display", "lat": 52.43327308, "lng": 13.35979178}], "distance": 783, "postalCode": "12249", "cc": "DE", "city": "Berlin", "state": "Berlin", "country": "Deutschland", "formattedAddress": ["Brieger Str. 1 (Wedellstr.)", "12249 Berlin", "Deutschland"]}, "categories": [{"id": "52f2ab2ebcbc57f1066b8b46", "name": "Supermarket", "pluralName": "Supermarkets", "shortName": "Supermarket", "icon": {"prefix": "https://ss3.4sqi.net/img/categories_v2/shops/food_grocery_", "suffix": ".png"}, "primary": true}], "photos": {"count": 0, "groups": []}, "venuePage": {"id": "550939823"}}, "referralId": "e-0-596529cefdb9a718fcaabcd6-8"}, {"reasons": {"count": 0, "items": [{"summary": "This spot is popular", "type": "general", "reasonName": "globalInteractionReason"}]}, "venue": {"id": "4d3ac9b8325ff04df9891f45", "name": "Malibu", "location": {"address": "Leonorenstr. 71 a", "lat": 52.4387064854588, "lng": 13.343900769713198, "labeledLatLngs": [{"label": "display", "lat": 52.4387064854588, "lng": 13.343900769713198}], "distance": 822, "postalCode": "12247", "cc": "DE", "city": "Berlin", "state": "Berlin", "country": "Deutschland", "formattedAddress": ["Leonorenstr. 71 a", "12247 Berlin", "Deutschland"]}, "categories": [{"id": "4bf58dd8d48988d1c9941735", "name": "Ice Cream Shop", "pluralName": "Ice Cream Shops", "shortName": "Ice Cream", "icon": {"prefix": "https://ss3.4sqi.net/img/categories_v2/food/icecream_", "suffix": ".png"}, "primary": true}], "photos": {"count": 0, "groups": []}}, "referralId": "e-0-4d3ac9b8325ff04df9891f45-9"}, {"reasons": {"count": 0, "items": [{"summary": "This spot is popular", "type": "general", "reasonName": "globalInteractionReason"}]}, "venue": {"id": "4e269ee5d16486291ba1b90c", "name": "BackWerk", "location": {"address": "Leonorenstr. 96-98", "lat": 52.436997761448126, "lng": 13.344966151628709, "labeledLatLngs": [{"label": "display", "lat": 52.436997761448126, "lng": 13.344966151628709}], "distance": 618, "postalCode": "12247", "cc": "DE", "city": "Berlin", "state": "Berlin", "country": "Deutschland", "formattedAddress": ["Leonorenstr. 96-98", "12247 Berlin", "Deutschland"]}, "categories": [{"id": "4bf58dd8d48988d16a941735", "name": "Bakery", "pluralName": "Bakeries", "shortName": "Bakery", "icon": {"prefix": "https://ss3.4sqi.net/img/categories_v2/food/bakery_", "suffix": ".png"}, "primary": true}], "photos": {"count": 0, "groups": []}}, "referralId": "e-0-4e269ee5d16486291ba1b90c-10"}, {"reasons": {"count": 0, "items": [{"summary": "This spot is popular", "type": "general", "reasonName": "globalInteractionReason"}]}, "venue": {"id": "4e28017db61c9d28cbefd287", "name": "EDEKA Hadersbeck", "location": {"address": "Kaiser-Wilhelm-Str. 64", "lat": 52.43516851, "lng": 13.34328842, "labeledLatLngs": [{"label": "display", "lat": 52.43516851, "lng": 13.34328842}], "distance": 509, "postalCode": "12247", "cc": "DE", "city": "Berlin", "state": "Berlin", "country": "Deutschland", "formattedAddress": ["Kaiser-Wilhelm-Str. 64", "12247 Berlin", "Deutschland"]}, "categories": [{"id": "52f2ab2ebcbc57f1066b8b46", "name": "Supermarket", "pluralName": "Supermarkets", "shortName": "Supermarket", "icon": {"prefix": "https://ss3.4sqi.net/img/categories_v2/shops/food_grocery_", "suffix": ".png"}, "primary": true}], "photos": {"count": 0, "groups": []}, "venuePage": {"id": "556907100"}}, "referralId": "e-0-4e28017db61c9d28cbefd287-11"}, {"reasons": {"count": 0, "items": [{"summary": "This spot is popular", "type": "general", "reasonName": "globalInteractionReason"}]}, "venue": {"id": "4b504f14f964a5202d2027e3", "name": "Ristorante Bardolino", "location": {"address": "Wedellstr. 31", "lat": 52.43404963735403, "lng": 13.359285331594698, "labeledLatLngs": [{"label": "display", "lat": 52.43404963735403, "lng": 13.359285331594698}], "distance": 772, "postalCode": "12249", "cc": "DE", "city": "Berlin", "state": "Berlin", "country": "Deutschland", "formattedAddress": ["Wedellstr. 31", "12249 Berlin", "Deutschland"]}, "categories": [{"id": "4bf58dd8d48988d110941735", "name": "Italian Restaurant", "pluralName": "Italian Restaurants", "shortName": "Italian", "icon": {"prefix": "https://ss3.4sqi.net/img/categories_v2/food/italian_", "suffix": ".png"}, "primary": true}], "photos": {"count": 0, "groups": []}}, "referralId": "e-0-4b504f14f964a5202d2027e3-12"}, {"reasons": {"count": 0, "items": [{"summary": "This spot is popular", "type": "general", "reasonName": "globalInteractionReason"}]}, "venue": {"id": "4f9ecd92e4b0b38d314c7f15", "name": "Restaurant Marco Polo", "location": {"lat": 52.42951457794249, "lng": 13.351854387313562, "labeledLatLngs": [{"label": "display", "lat": 52.42951457794249, "lng": 13.351854387313562}], "distance": 347, "cc": "DE", "city": "Berlin", "state": "Berlin", "country": "Deutschland", "formattedAddress": ["Berlin", "Deutschland"]}, "categories": [{"id": "4bf58dd8d48988d1c4941735", "name": "Restaurant", "pluralName": "Restaurants", "shortName": "Restaurant", "icon": {"prefix": "https://ss3.4sqi.net/img/categories_v2/food/default_", "suffix": ".png"}, "primary": true}], "photos": {"count": 0, "groups": []}}, "referralId": "e-0-4f9ecd92e4b0b38d314c7f15-13"}, {"reasons": {"count": 0, "items": [{"summary": "This spot is popular", "type": "general", "reasonName": "globalInteractionReason"}]}, "venue": {"id": "4eabb73a4690ef1f6c694702", "name": "Preu\u00dfenstadion (BFC Preu\u00dfen)", "location": {"address": "Malteserstr. 24-36", "crossStreet": "Kamenzer Damm", "lat": 52.432922091562325, "lng": 13.353672936594645, "labeledLatLngs": [{"label": "display", "lat": 52.432922091562325, "lng": 13.353672936594645}], "distance": 371, "postalCode": "12249", "cc": "DE", "city": "Berlin", "state": "Berlin", "country": "Deutschland", "formattedAddress": ["Malteserstr. 24-36 (Kamenzer Damm)", "12249 Berlin", "Deutschland"]}, "categories": [{"id": "4cce455aebf7b749d5e191f5", "name": "Soccer Field", "pluralName": "Soccer Fields", "shortName": "Soccer Field", "icon": {"prefix": "https://ss3.4sqi.net/img/categories_v2/arts_entertainment/stadium_soccer_", "suffix": ".png"}, "primary": true}], "photos": {"count": 0, "groups": []}}, "referralId": "e-0-4eabb73a4690ef1f6c694702-14"}, {"reasons": {"count": 0, "items": [{"summary": "This spot is popular", "type": "general", "reasonName": "globalInteractionReason"}]}, "venue": {"id": "4da31a1ab521224ba8b016ee", "name": "H Am Gemeindepark", "location": {"address": "Malteserstr.", "crossStreet": "Bel\u00dfstr.", "lat": 52.42986535641256, "lng": 13.3547482321515, "labeledLatLngs": [{"label": "display", "lat": 52.42986535641256, "lng": 13.3547482321515}], "distance": 480, "postalCode": "12249", "cc": "DE", "city": "Berlin", "state": "Berlin", "country": "Deutschland", "formattedAddress": ["Malteserstr. (Bel\u00dfstr.)", "12249 Berlin", "Deutschland"]}, "categories": [{"id": "52f2ab2ebcbc57f1066b8b4f", "name": "Bus Stop", "pluralName": "Bus Stops", "shortName": "Bus Stop", "icon": {"prefix": "https://ss3.4sqi.net/img/categories_v2/travel/busstation_", "suffix": ".png"}, "primary": true}], "photos": {"count": 0, "groups": []}}, "referralId": "e-0-4da31a1ab521224ba8b016ee-15"}, {"reasons": {"count": 0, "items": [{"summary": "This spot is popular", "type": "general", "reasonName": "globalInteractionReason"}]}, "venue": {"id": "4da3195c9aa4721e90641c1a", "name": "H Emmichstra\u00dfe", "location": {"address": "Malteserstr.", "crossStreet": "Emmichstr.", "lat": 52.427568987450904, "lng": 13.356999092003047, "labeledLatLngs": [{"label": "display", "lat": 52.427568987450904, "lng": 13.356999092003047}], "distance": 750, "postalCode": "12249", "cc": "DE", "city": "Berlin", "state": "Berlin", "country": "Deutschland", "formattedAddress": ["Malteserstr. (Emmichstr.)", "12249 Berlin", "Deutschland"]}, "categories": [{"id": "52f2ab2ebcbc57f1066b8b4f", "name": "Bus Stop", "pluralName": "Bus Stops", "shortName": "Bus Stop", "icon": {"prefix": "https://ss3.4sqi.net/img/categories_v2/travel/busstation_", "suffix": ".png"}, "primary": true}], "photos": {"count": 0, "groups": []}}, "referralId": "e-0-4da3195c9aa4721e90641c1a-16"}, {"reasons": {"count": 0, "items": [{"summary": "This spot is popular", "type": "general", "reasonName": "globalInteractionReason"}]}, "venue": {"id": "4bc053bab492d13a2d1da460", "name": "Schmidt's Imbiss", "location": {"address": "Kranoldplatz", "lat": 52.42796052017089, "lng": 13.339377182192438, "labeledLatLngs": [{"label": "display", "lat": 52.42796052017089, "lng": 13.339377182192438}], "distance": 756, "cc": "DE", "city": "Berlin", "state": "Berlin", "country": "Deutschland", "formattedAddress": ["Kranoldplatz", "Berlin", "Deutschland"]}, "categories": [{"id": "4bf58dd8d48988d16e941735", "name": "Fast Food Restaurant", "pluralName": "Fast Food Restaurants", "shortName": "Fast Food", "icon": {"prefix": "https://ss3.4sqi.net/img/categories_v2/food/fastfood_", "suffix": ".png"}, "primary": true}], "photos": {"count": 0, "groups": []}}, "referralId": "e-0-4bc053bab492d13a2d1da460-17"}, {"reasons": {"count": 0, "items": [{"summary": "This spot is popular", "type": "general", "reasonName": "globalInteractionReason"}]}, "venue": {"id": "50379fa9e4b0fd0628fff949", "name": "Kaiser's", "location": {"address": "Briegerstr. 1", "crossStreet": "Wedellstrasse", "lat": 52.43328942244004, "lng": 13.359467266398802, "labeledLatLngs": [{"label": "display", "lat": 52.43328942244004, "lng": 13.359467266398802}], "distance": 761, "postalCode": "12249", "cc": "DE", "city": "Berlin", "state": "Berlin", "country": "Deutschland", "formattedAddress": ["Briegerstr. 1 (Wedellstrasse)", "12249 Berlin", "Deutschland"]}, "categories": [{"id": "52f2ab2ebcbc57f1066b8b46", "name": "Supermarket", "pluralName": "Supermarkets", "shortName": "Supermarket", "icon": {"prefix": "https://ss3.4sqi.net/img/categories_v2/shops/food_grocery_", "suffix": ".png"}, "primary": true}], "photos": {"count": 0, "groups": []}}, "referralId": "e-0-50379fa9e4b0fd0628fff949-18"}, {"reasons": {"count": 0, "items": [{"summary": "This spot is popular", "type": "general", "reasonName": "globalInteractionReason"}]}, "venue": {"id": "4ef4a8ad8b812e39d5d62a71", "name": "Kinderkiste Lankwitz (Indoor Spielplatz)", "location": {"address": "Kaiser-Wilhelm-Stra\u00dfe", "lat": 52.431454032488546, "lng": 13.337233110144213, "labeledLatLngs": [{"label": "display", "lat": 52.431454032488546, "lng": 13.337233110144213}], "distance": 765, "cc": "DE", "city": "Berlin", "state": "Berlin", "country": "Deutschland", "formattedAddress": ["Kaiser-Wilhelm-Stra\u00dfe", "Berlin", "Deutschland"]}, "categories": [{"id": "5744ccdfe4b0c0459246b4b5", "name": "Indoor Play Area", "pluralName": "Indoor Play Areas", "shortName": "Indoor Play Area", "icon": {"prefix": "https://ss3.4sqi.net/img/categories_v2/parks_outdoors/playground_", "suffix": ".png"}, "primary": true}], "photos": {"count": 0, "groups": []}}, "referralId": "e-0-4ef4a8ad8b812e39d5d62a71-19"}, {"reasons": {"count": 0, "items": [{"summary": "This spot is popular", "type": "general", "reasonName": "globalInteractionReason"}]}, "venue": {"id": "4f6d983ae4b03b575c4de310", "name": "astral Physiotherapie & Sporttherapie", "location": {"address": "Gallwitzallee 123 -143", "crossStreet": "St. Marien-Krankenhaus", "lat": 52.42465664361381, "lng": 13.35025243994684, "labeledLatLngs": [{"label": "display", "lat": 52.42465664361381, "lng": 13.35025243994684}], "distance": 811, "postalCode": "12249", "cc": "DE", "city": "Berlin", "state": "Berlin", "country": "Deutschland", "formattedAddress": ["Gallwitzallee 123 -143 (St. Marien-Krankenhaus)", "12249 Berlin", "Deutschland"]}, "categories": [{"id": "4bf58dd8d48988d1ed941735", "name": "Spa", "pluralName": "Spas", "shortName": "Spa", "icon": {"prefix": "https://ss3.4sqi.net/img/categories_v2/shops/spa_", "suffix": ".png"}, "primary": true}], "photos": {"count": 0, "groups": []}}, "referralId": "e-0-4f6d983ae4b03b575c4de310-20"}, {"reasons": {"count": 0, "items": [{"summary": "This spot is popular", "type": "general", "reasonName": "globalInteractionReason"}]}, "venue": {"id": "4ca735caf47ea143a2f66721", "name": "Sporthalle Kiriat Bialik", "location": {"address": "Wedellstra\u00dfe 57", "lat": 52.431715746366734, "lng": 13.360649304618185, "labeledLatLngs": [{"label": "display", "lat": 52.431715746366734, "lng": 13.360649304618185}], "distance": 825, "postalCode": "12249", "cc": "DE", "city": "Berlin", "state": "Berlin", "country": "Deutschland", "formattedAddress": ["Wedellstra\u00dfe 57", "12249 Berlin", "Deutschland"]}, "categories": [{"id": "4bf58dd8d48988d176941735", "name": "Gym", "pluralName": "Gyms", "shortName": "Gym", "icon": {"prefix": "https://ss3.4sqi.net/img/categories_v2/building/gym_", "suffix": ".png"}, "primary": true}], "photos": {"count": 0, "groups": []}}, "referralId": "e-0-4ca735caf47ea143a2f66721-21"}, {"reasons": {"count": 0, "items": [{"summary": "This spot is popular", "type": "general", "reasonName": "globalInteractionReason"}]}, "venue": {"id": "502e646fe4b0dea80201e4de", "name": "Getr\u00e4nke Hoffmann", "location": {"address": "Kaiser-Wilhelm-Stra\u00dfe 121", "lat": 52.440313376561576, "lng": 13.352279441298606, "labeledLatLngs": [{"label": "display", "lat": 52.440313376561576, "lng": 13.352279441298606}], "distance": 974, "postalCode": "12247", "cc": "DE", "city": "Berlin", "state": "Berlin", "country": "Deutschland", "formattedAddress": ["Kaiser-Wilhelm-Stra\u00dfe 121", "12247 Berlin", "Deutschland"]}, "categories": [{"id": "4bf58dd8d48988d186941735", "name": "Liquor Store", "pluralName": "Liquor Stores", "shortName": "Liquor Store", "icon": {"prefix": "https://ss3.4sqi.net/img/categories_v2/shops/food_liquor_", "suffix": ".png"}, "primary": true}], "photos": {"count": 0, "groups": []}}, "referralId": "e-0-502e646fe4b0dea80201e4de-22"}]