[{"reasons": {"count": 0, "items": [{"summary": "This spot is popular", "type": "general", "reasonName": "globalInteractionReason"}]}, "venue": {"id": "4adcda90f964a520444b21e3", "name": "Tee Lichtenrade", "location": {"address": "Bahnhofstr. 10", "lat": 52.38679233919954, "lng": 13.404673378371522, "labeledLatLngs": [{"label": "display", "lat": 52.38679233919954, "lng": 13.404673378371522}], "distance": 856, "postalCode": "12305", "cc": "DE", "city": "Berlin", "state": "Berlin", "country": "Deutschland", "formattedAddress": ["Bahnhofstr. 10", "12305 Berlin", "Deutschland"]}, "categories": [{"id": "4bf58dd8d48988d1dc931735", "name": "Tea Room", "pluralName": "Tea Rooms", "shortName": "Tea Room", "icon": {"prefix": "https://ss3.4sqi.net/img/categories_v2/food/tearoom_", "suffix": ".png"}, "primary": true}], "photos": {"count": 0, "groups": []}, "venuePage": {"id": "37301390"}}, "referralId": "e-0-4adcda90f964a520444b21e3-0"}, {"reasons": {"count": 0, "items": [{"summary": "This spot is popular", "type": "general", "reasonName": "globalInteractionReason"}]}, "venue": {"id": "5023a98ae4b0dc2236600b9f", "name": "D\u00f6ner XL", "location": {"address": "Bahnhofstr. 24", "lat": 52.38671778687133, "lng": 13.400038962687345, "labeledLatLngs": [{"label": "display", "lat": 52.38671778687133, "lng": 13.400038962687345}], "distance": 915, "postalCode": "12305", "cc": "DE", "city": "Berlin", "state": "Berlin", "country": "Deutschland", "formattedAddress": ["Bahnhofstr. 24", "12305 Berlin", "Deutschland"]}, "categories": [{"id": "5283c7b4e4b094cb91ec88d8", "name": "Doner Restaurant", "pluralName": "Doner Restaurants", "shortName": "Doner", "icon": {"prefix": "https://ss3.4sqi.net/img/categories_v2/food/turkish_", "suffix": ".png"}, "primary": true}], "photos": {"count": 0, "groups": []}}, "referralId": "e-0-5023a98ae4b0dc2236600b9f-1"}, {"reasons": {"count": 0, "items": [{"summary": "This spot is popular", "type": "general", "reasonName": "globalInteractionReason"}]}, "venue": {"id": "4fcf61183ac6d9ec99037418", "name": "Lidl", "location": {"address": "Lichtenrader Damm 219", "lat": 52.39298857833039, "lng": 13.407269278541207, "labeledLatLngs": [{"label": "display", "lat": 52.39298857833039, "lng": 13.407269278541207}], "distance": 252, "postalCode": "12305", "cc": "DE", "city": "Berlin", "state": "Berlin", "country": "Deutschland", "formattedAddress": ["Lichtenrader Damm 219", "12305 Berlin-Tempelhof-Sch\u00f6neberg", "Deutschland"]}, "categories": [{"id": "52f2ab2ebcbc57f1066b8b46", "name": "Supermarket", "pluralName": "Supermarkets", "shortName": "Supermarket", "icon": {"prefix": "https://ss3.4sqi.net/img/categories_v2/shops/food_grocery_", "suffix": ".png"}, "primary": true}], "photos": {"count": 0, "groups": []}, "venuePage": {"id": "573769794"}}, "referralId": "e-0-4fcf61183ac6d9ec99037418-2"}, {"reasons": {"count": 0, "items": [{"summary": "This spot is popular", "type": "general", "reasonName": "globalInteractionReason"}]}, "venue": {"id": "4dd4e814183859a589acdb68", "name": "Rossmann", "location": {"address": "Bahnhofstra\u00dfe 8", "lat": 52.3867699658641, "lng": 13.404690818430021, "labeledLatLngs": [{"label": "display", "lat": 52.3867699658641, "lng": 13.404690818430021}], "distance": 859, "postalCode": "12305", "cc": "DE", "city": "Berlin", "state": "Berlin", "country": "Deutschland", "formattedAddress": ["Bahnhofstra\u00dfe 8", "12305 Berlin", "Deutschland"]}, "categories": [{"id": "5745c2e4498e11e7bccabdbd", "name": "Drugstore", "pluralName": "Drugstores", "shortName": "Drugstore", "icon": {"prefix": "https://ss3.4sqi.net/img/categories_v2/shops/pharmacy_", "suffix": ".png"}, "primary": true}], "photos": {"count": 0, "groups": []}}, "referralId": "e-0-4dd4e814183859a589acdb68-3"}, {"reasons": {"count": 0, "items": [{"summary": "This spot is popular", "type": "general", "reasonName": "globalInteractionReason"}]}, "venue": {"id": "4e133e302fb6744af78f2c25", "name": "Telekom Shop", "location": {"address": "Bahnhofstr. 58", "lat": 52.38649173290289, "lng": 13.40605080127716, "labeledLatLngs": [{"label": "display", "lat": 52.38649173290289, "lng": 13.40605080127716}], "distance": 896, "postalCode": "12305", "cc": "DE", "city": "Berlin", "state": "Berlin", "country": "Deutschland", "formattedAddress": ["Bahnhofstr. 58", "12305 Berlin", "Deutschland"]}, "categories": [{"id": "4f04afc02fb6e1c99f3db0bc", "name": "Mobile Phone Shop", "pluralName": "Mobile Phone Shops", "shortName": "Mobile Phones", "icon": {"prefix": "https://ss3.4sqi.net/img/categories_v2/shops/mobilephoneshop_", "suffix": ".png"}, "primary": true}], "photos": {"count": 0, "groups": []}}, "referralId": "e-0-4e133e302fb6744af78f2c25-4"}, {"reasons": {"count": 0, "items": [{"summary": "This spot is popular", "type": "general", "reasonName": "globalInteractionReason"}]}, "venue": {"id": "4bec22aaa9900f476e991840", "name": "La Maria", "location": {"address": "Alt-Lichtenrade", "lat": 52.39959183432627, "lng": 13.409889569926952, "labeledLatLngs": [{"label": "display", "lat": 52.39959183432627, "lng": 13.409889569926952}], "distance": 676, "postalCode": "12305", "cc": "DE", "city": "Berlin", "state": "Berlin", "country": "Deutschland", "formattedAddress": ["Alt-Lichtenrade", "12305 Berlin", "Deutschland"]}, "categories": [{"id": "4bf58dd8d48988d110941735", "name": "Italian Restaurant", "pluralName": "Italian Restaurants", "shortName": "Italian", "icon": {"prefix": "https://ss3.4sqi.net/img/categories_v2/food/italian_", "suffix": ".png"}, "primary": true}], "photos": {"count": 0, "groups": []}}, "referralId": "e-0-4bec22aaa9900f476e991840-5"}, {"reasons": {"count": 0, "items": [{"summary": "This spot is popular", "type": "general", "reasonName": "globalInteractionReason"}]}, "venue": {"id": "4d41a89cc5eaa1cd6603ad50", "name": "Shell", "location": {"address": "Bahnhofstra\u00dfe 1", "lat": 52.38692218, "lng": 13.40790121, "labeledLatLngs": [{"label": "display", "lat": 52.38692218, "lng": 13.40790121}], "distance": 873, "postalCode": "12305", "cc": "DE", "city": "Berlin", "state": "Berlin", "country": "Deutschland", "formattedAddress": ["Bahnhofstra\u00dfe 1", "12305 Berlin", "Deutschland"]}, "categories": [{"id": "4bf58dd8d48988d113951735", "name": "Gas Station", "pluralName": "Gas Stations", "shortName": "Gas Station", "icon": {"prefix": "https://ss3.4sqi.net/img/categories_v2/shops/gas_", "suffix": ".png"}, "primary": true}], "photos": {"count": 0, "groups": []}}, "referralId": "e-0-4d41a89cc5eaa1cd6603ad50-6"}, {"reasons": {"count": 0, "items": [{"summary": "This spot is popular", "type": "general", "reasonName": "globalInteractionReason"}]}, "venue": {"id": "4e96e9b1d22dc073315a5da9", "name": "BackWerk", "location": {"address": "Bahnhofstra\u00dfe 58", "lat": 52.3865, "lng": 13.406055, "labeledLatLngs": [{"label": "display", "lat": 52.3865, "lng": 13.406055}], "distance": 895, "postalCode": "12305", "cc": "DE", "city": "Berlin", "state": "Berlin", "country": "Deutschland", "formattedAddress": ["Bahnhofstra\u00dfe 58", "12305 Berlin", "Deutschland"]}, "categories": [{"id": "4bf58dd8d48988d16a941735", "name": "Bakery", "pluralName": "Bakeries", "shortName": "Bakery", "icon": {"prefix": "https://ss3.4sqi.net/img/categories_v2/food/bakery_", "suffix": ".png"}, "primary": true}], "photos": {"count": 0, "groups": []}}, "referralId": "e-0-4e96e9b1d22dc073315a5da9-7"}, {"reasons": {"count": 0, "items": [{"summary": "This spot is popular", "type": "general", "reasonName": "globalInteractionReason"}]}, "venue": {"id": "4caf3b471463a14305bf92a9", "name": "REWE", "location": {"address": "Steinstra\u00dfe 37-41", "lat": 52.38785102189003, "lng": 13.398086945171144, "labeledLatLngs": [{"label": "display", "lat": 52.38785102189003, "lng": 13.398086945171144}], "distance": 856, "postalCode": "12307", "cc": "DE", "city": "Berlin", "state": "Berlin", "country": "Deutschland", "formattedAddress": ["Steinstra\u00dfe 37-41", "12307 Berlin", "Deutschland"]}, "categories": [{"id": "52f2ab2ebcbc57f1066b8b46", "name": "Supermarket", "pluralName": "Supermarkets", "shortName": "Supermarket", "icon": {"prefix": "https://ss3.4sqi.net/img/categories_v2/shops/food_grocery_", "suffix": ".png"}, "primary": true}], "photos": {"count": 0, "groups": []}, "venuePage": {"id": "562861897"}}, "referralId": "e-0-4caf3b471463a14305bf92a9-8"}, {"reasons": {"count": 0, "items": [{"summary": "This spot is popular", "type": "general", "reasonName": "globalInteractionReason"}]}, "venue": {"id": "55336e0e498e4b7428fba509", "name": "Amma", "location": {"address": "Kirchhainer Damm 1", "lat": 52.387639644486356, "lng": 13.409712530131689, "labeledLatLngs": [{"label": "display", "lat": 52.387639644486356, "lng": 13.409712530131689}], "distance": 840, "postalCode": "12309", "cc": "DE", "city": "Berlin", "state": "Berlin", "country": "Deutschland", "formattedAddress": ["Kirchhainer Damm 1", "12309 Berlin", "Deutschland"]}, "categories": [{"id": "4bf58dd8d48988d142941735", "name": "Asian Restaurant", "pluralName": "Asian Restaurants", "shortName": "Asian", "icon": {"prefix": "https://ss3.4sqi.net/img/categories_v2/food/asian_", "suffix": ".png"}, "primary": true}], "photos": {"count": 0, "groups": []}}, "referralId": "e-0-55336e0e498e4b7428fba509-9"}, {"reasons": {"count": 0, "items": [{"summary": "This spot is popular", "type": "general", "reasonName": "globalInteractionReason"}]}, "venue": {"id": "4f2b885de4b07364f635e1e7", "name": "Lidl", "location": {"address": "Nuthestr. 5", "lat": 52.397369, "lng": 13.3913213, "labeledLatLngs": [{"label": "display", "lat": 52.397369, "lng": 13.3913213}], "distance": 949, "postalCode": "12307", "cc": "DE", "city": "Berlin", "state": "Berlin", "country": "Deutschland", "formattedAddress": ["Nuthestr. 5", "12307 Berlin-Tempelhof-Sch\u00f6neberg", "Deutschland"]}, "categories": [{"id": "52f2ab2ebcbc57f1066b8b46", "name": "Supermarket", "pluralName": "Supermarkets", "shortName": "Supermarket", "icon": {"prefix": "https://ss3.4sqi.net/img/categories_v2/shops/food_grocery_", "suffix": ".png"}, "primary": true}], "photos": {"count": 0, "groups": []}, "venuePage": {"id": "575270861"}}, "referralId": "e-0-4f2b885de4b07364f635e1e7-10"}, {"reasons": {"count": 0, "items": [{"summary": "This spot is popular", "type": "general", "reasonName": "globalInteractionReason"}]}, "venue": {"id": "545b1f63498eed3b54eff0c1", "name": "H Lichtenrader Damm / Barnetstra\u00dfe", "location": {"address": "Lichtenrader Damm", "crossStreet": "Barnetstr.", "lat": 52.39451036509989, "lng": 13.407461175670335, "labeledLatLngs": [{"label": "display", "lat": 52.39451036509989, "lng": 13.407461175670335}], "distance": 202, "postalCode": "12305", "cc": "DE", "city": "Berlin", "state": "Berlin", "country": "Deutschland", "formattedAddress": ["Lichtenrader Damm (Barnetstr.)", "12305 Berlin", "Deutschland"]}, "categories": [{"id": "52f2ab2ebcbc57f1066b8b4f", "name": "Bus Stop", "pluralName": "Bus Stops", "shortName": "Bus Stop", "icon": {"prefix": "https://ss3.4sqi.net/img/categories_v2/travel/busstation_", "suffix": ".png"}, "primary": true}], "photos": {"count": 0, "groups": []}}, "referralId": "e-0-545b1f63498eed3b54eff0c1-11"}, {"reasons": {"count": 0, "items": [{"summary": "This spot is popular", "type": "general", "reasonName": "globalInteractionReason"}]}, "venue": {"id": "4d9364617b5ea143b1aac7b8", "name": "Lichtenrader BC", "location": {"address": "Halker Zeile 160", "crossStreet": "Ekensunder Weg", "lat": 52.39621133306082, "lng": 13.402672443123153, "labeledLatLngs": [{"label": "display", "lat": 52.39621133306082, "lng": 13.402672443123153}], "distance": 227, "postalCode": "12305", "cc": "DE", "city": "Berlin", "state": "Berlin", "country": "Deutschland", "formattedAddress": ["Halker Zeile 160 (Ekensunder Weg)", "12305 Berlin", "Deutschland"]}, "categories": [{"id": "4cce455aebf7b749d5e191f5", "name": "Soccer Field", "pluralName": "Soccer Fields", "shortName": "Soccer Field", "icon": {"prefix": "https://ss3.4sqi.net/img/categories_v2/arts_entertainment/stadium_soccer_", "suffix": ".png"}, "primary": true}], "photos": {"count": 0, "groups": []}}, "referralId": "e-0-4d9364617b5ea143b1aac7b8-12"}, {"reasons": {"count": 0, "items": [{"summary": "This spot is popular", "type": "general", "reasonName": "globalInteractionReason"}]}, "venue": {"id": "4f43cbe8e4b06bcb6d194ce4", "name": "Sportplatz Halker Zeile", "location": {"address": "Halker Zeile", "lat": 52.39643965417705, "lng": 13.402226707056423, "labeledLatLngs": [{"label": "display", "lat": 52.39643965417705, "lng": 13.402226707056423}], "distance": 265, "cc": "DE", "country": "Deutschland", "formattedAddress": ["Halker Zeile", "Deutschland"]}, "categories": [{"id": "4cce455aebf7b749d5e191f5", "name": "Soccer Field", "pluralName": "Soccer Fields", "shortName": "Soccer Field", "icon": {"prefix": "https://ss3.4sqi.net/img/categories_v2/arts_entertainment/stadium_soccer_", "suffix": ".png"}, "primary": true}], "photos": {"count": 0, "groups": []}}, "referralId": "e-0-4f43cbe8e4b06bcb6d194ce4-13"}, {"reasons": {"count": 0, "items": [{"summary": "This spot is popular", "type": "general", "reasonName": "globalInteractionReason"}]}, "venue": {"id": "4f09d7f2e4b0596c9018f0d6", "name": "D\u00f6ner XXL", "location": {"address": "Bahnhofstr. 23", "lat": 52.39746098739664, "lng": 13.400282836029646, "labeledLatLngs": [{"label": "display", "lat": 52.39746098739664, "lng": 13.400282836029646}], "distance": 436, "cc": "DE", "country": "Deutschland", "formattedAddress": ["Bahnhofstr. 23", "Deutschland"]}, "categories": [{"id": "5283c7b4e4b094cb91ec88d8", "name": "Doner Restaurant", "pluralName": "Doner Restaurants", "shortName": "Doner", "icon": {"prefix": "https://ss3.4sqi.net/img/categories_v2/food/turkish_", "suffix": ".png"}, "primary": true}], "photos": {"count": 0, "groups": []}}, "referralId": "e-0-4f09d7f2e4b0596c9018f0d6-14"}, {"reasons": {"count": 0, "items": [{"summary": "This spot is popular", "type": "general", "reasonName": "globalInteractionReason"}]}, "venue": {"id": "50267394e4b0fe423d4f2858", "name": "Lichtenrader Hof", "location": {"address": "Alt-Lichtenrade", "lat": 52.39536270959234, "lng": 13.41089199967867, "labeledLatLngs": [{"label": "display", "lat": 52.39536270959234, "lng": 13.41089199967867}], "distance": 446, "cc": "DE", "city": "Berlin", "state": "Berlin", "country": "Deutschland", "formattedAddress": ["Alt-Lichtenrade", "Berlin", "Deutschland"]}, "categories": [{"id": "4bf58dd8d48988d1c4941735", "name": "Restaurant", "pluralName": "Restaurants", "shortName": "Restaurant", "icon": {"prefix": "https://ss3.4sqi.net/img/categories_v2/food/default_", "suffix": ".png"}, "primary": true}], "photos": {"count": 0, "groups": []}}, "referralId": "e-0-50267394e4b0fe423d4f2858-15"}, {"reasons": {"count": 0, "items": [{"summary": "This spot is popular", "type": "general", "reasonName": "globalInteractionReason"}]}, "venue": {"id": "4da1dd0eb3e7236a216a1279", "name": "Restaurant Reisel", "location": {"address": "Alt-Lichtenrade 83", "lat": 52.394627199509436, "lng": 13.411238218261333, "labeledLatLngs": [{"label": "display", "lat": 52.394627199509436, "lng": 13.411238218261333}], "distance": 459, "postalCode": "12309", "cc": "DE", "city": "Berlin", "state": "Berlin", "country": "Deutschland", "formattedAddress": ["Alt-Lichtenrade 83", "12309 Berlin", "Deutschland"]}, "categories": [{"id": "4bf58dd8d48988d10d941735", "name": "German Restaurant", "pluralName": "German Restaurants", "shortName": "German", "icon": {"prefix": "https://ss3.4sqi.net/img/categories_v2/food/german_", "suffix": ".png"}, "primary": true}], "photos": {"count": 0, "groups": []}}, "referralId": "e-0-4da1dd0eb3e7236a216a1279-16"}, {"reasons": {"count": 0, "items": [{"summary": "This spot is popular", "type": "general", "reasonName": "globalInteractionReason"}]}, "venue": {"id": "4e8def2eb8f71a700b51ee84", "name": "EDEKA Kruse", "location": {"address": "Goltzstr. 1", "lat": 52.38735479, "lng": 13.40850656, "labeledLatLngs": [{"label": "display", "lat": 52.38735479, "lng": 13.40850656}], "distance": 839, "postalCode": "12307", "cc": "DE", "city": "Berlin", "state": "Berlin", "country": "Deutschland", "formattedAddress": ["Goltzstr. 1", "12307 Berlin", "Deutschland"]}, "categories": [{"id": "52f2ab2ebcbc57f1066b8b46", "name": "Supermarket", "pluralName": "Supermarkets", "shortName": "Supermarket", "icon": {"prefix": "https://ss3.4sqi.net/img/categories_v2/shops/food_grocery_", "suffix": ".png"}, "primary": true}], "photos": {"count": 0, "groups": []}}, "referralId": "e-0-4e8def2eb8f71a700b51ee84-17"}, {"reasons": {"count": 0, "items": [{"summary": "This spot is popular", "type": "general", "reasonName": "globalInteractionReason"}]}, "venue": {"id": "4dd4ebbb22716ea3ce67fe11", "name": "Woolworth", "location": {"address": "Bahnhofstr. 21-22", "lat": 52.38685979, "lng": 13.40125119, "labeledLatLngs": [{"label": "display", "lat": 52.38685979, "lng": 13.40125119}], "distance": 876, "postalCode": "12305", "cc": "DE", "city": "Berlin", "state": "Berlin", "country": "Deutschland", "formattedAddress": ["Bahnhofstr. 21-22", "12305 Berlin", "Deutschland"]}, "categories": [{"id": "4bf58dd8d48988d1f6941735", "name": "Department Store", "pluralName": "Department Stores", "shortName": "Department Store", "icon": {"prefix": "https://ss3.4sqi.net/img/categories_v2/shops/departmentstore_", "suffix": ".png"}, "primary": true}], "photos": {"count": 0, "groups": []}, "venuePage": {"id": "580047259"}}, "referralId": "e-0-4dd4ebbb22716ea3ce67fe11-18"}, {"reasons": {"count": 0, "items": [{"summary": "This spot is popular", "type": "general", "reasonName": "globalInteractionReason"}]}, "venue": {"id": "4ddfb0d4c65bb5e319d77613", "name": "Foto Wichern", "location": {"address": "Bahnhofstr. 51", "lat": 52.38660835143727, "lng": 13.40315532216315, "labeledLatLngs": [{"label": "display", "lat": 52.38660835143727, "lng": 13.40315532216315}], "distance": 881, "postalCode": "12305", "cc": "DE", "city": "Berlin", "state": "Berlin", "country": "Deutschland", "formattedAddress": ["Bahnhofstr. 51", "12305 Berlin", "Deutschland"]}, "categories": [{"id": "554a5e17498efabeda6cc559", "name": "Photography Studio", "pluralName": "Photography Studios", "shortName": "Photo Studio", "icon": {"prefix": "https://ss3.4sqi.net/img/categories_v2/shops/camerastore_", "suffix": ".png"}, "primary": true}], "photos": {"count": 0, "groups": []}}, "referralId": "e-0-4ddfb0d4c65bb5e319d77613-19"}, {"reasons": {"count": 0, "items": [{"summary": "This spot is popular", "type": "general", "reasonName": "globalInteractionReason"}]}, "venue": {"id": "4e92a586dab4ec3b1ea0a373", "name": "Dahlback", "location": {"address": "Bahnhofstra\u00dfe 2", "lat": 52.38662760683382, "lng": 13.406839370727539, "labeledLatLngs": [{"label": "display", "lat": 52.38662760683382, "lng": 13.406839370727539}], "distance": 889, "postalCode": "12305", "cc": "DE", "city": "Berlin", "state": "Berlin", "country": "Deutschland", "formattedAddress": ["Bahnhofstra\u00dfe 2", "12305 Berlin", "Deutschland"]}, "categories": [{"id": "4bf58dd8d48988d16a941735", "name": "Bakery", "pluralName": "Bakeries", "shortName": "Bakery", "icon": {"prefix": "https://ss3.4sqi.net/img/categories_v2/food/bakery_", "suffix": ".png"}, "primary": true}], "photos": {"count": 0, "groups": []}}, "referralId": "e-0-4e92a586dab4ec3b1ea0a373-20"}, {"reasons": {"count": 0, "items": [{"summary": "This spot is popular", "type": "general", "reasonName": "globalInteractionReason"}]}, "venue": {"id": "4f64bcc2e4b0788a8f852843", "name": "Eiscaf\u00e9 Moin Moin", "location": {"address": "Bahnhofsstr. 39", "lat": 52.38676395410129, "lng": 13.399806244072067, "labeledLatLngs": [{"label": "display", "lat": 52.38676395410129, "lng": 13.399806244072067}], "distance": 916, "postalCode": "12305", "cc": "DE", "neighborhood": "Lichtenrade", "city": "Berlin", "state": "Berlin", "country": "Deutschland", "formattedAddress": ["Bahnhofsstr. 39", "12305 Berlin", "Deutschland"]}, "categories": [{"id": "4bf58dd8d48988d1c9941735", "name": "Ice Cream Shop", "pluralName": "Ice Cream Shops", "shortName": "Ice Cream", "icon": {"prefix": "https://ss3.4sqi.net/img/categories_v2/food/icecream_", "suffix": ".png"}, "primary": true}], "photos": {"count": 0, "groups": []}}, "referralId": "e-0-4f64bcc2e4b0788a8f852843-21"}, {"reasons": {"count": 0, "items": [{"summary": "This spot is popular", "type": "general", "reasonName": "globalInteractionReason"}]}, "venue": {"id": "4dec9e42e4cdc079f4ba2f15", "name": "Netto Deutschland - schwarz-gelber Discounter mit dem Scottie", "location": {"address": "Bahnhofstr. 45-46", "lat": 52.386274, "lng": 13.401282, "labeledLatLngs": [{"label": "display", "lat": 52.386274, "lng": 13.401282}], "distance": 939, "postalCode": "12305", "cc": "DE", "city": "Berlin", "state": "Berlin", "country": "Deutschland", "formattedAddress": ["Bahnhofstr. 45-46", "12305 Berlin", "Deutschland"]}, "categories": [{"id": "52dea92d3cf9994f4e043dbb", "name": "Discount Store", "pluralName": "Discount Stores", "shortName": "Discount Store", "icon": {"prefix": "https://ss3.4sqi.net/img/categories_v2/shops/discountstore_", "suffix": ".png"}, "primary": true}], "photos": {"count": 0, "groups": []}, "venuePage": {"id": "450281241"}}, "referralId": "e-0-4dec9e42e4cdc079f4ba2f15-22"}, {"reasons": {"count": 0, "items": [{"summary": "This spot is popular", "type": "general", "reasonName": "globalInteractionReason"}]}, "venue": {"id": "4bbafe993db7b713b5d5239a", "name": "Simpsonweg", "location": {"lat": 52.39845508719071, "lng": 13.392103688018999, "labeledLatLngs": [{"label": "display", "lat": 52.39845508719071, "lng": 13.392103688018999}], "distance": 949, "cc": "DE", "country": "Deutschland", "formattedAddress": ["Deutschland"]}, "categories": [{"id": "4bf58dd8d48988d164941735", "name": "Plaza", "pluralName": "Plazas", "shortName": "Plaza", "icon": {"prefix": "https://ss3.4sqi.net/img/categories_v2/parks_outdoors/plaza_", "suffix": ".png"}, "primary": true}], "photos": {"count": 0, "groups": []}}, "referralId": "e-0-4bbafe993db7b713b5d5239a-23"}, {"reasons": {"count": 0, "items": [{"summary": "This spot is popular", "type": "general", "reasonName": "globalInteractionReason"}]}, "venue": {"id": "507470605262942a6ab5ae4e", "name": "Lichtenrader Apotheke", "location": {"address": "Barnetstra\u00dfe 41-42", "lat": 52.39816390624396, "lng": 13.391733169555664, "labeledLatLngs": [{"label": "display", "lat": 52.39816390624396, "lng": 13.391733169555664}], "distance": 957, "postalCode": "12305", "cc": "DE", "city": "Berlin", "state": "Berlin", "country": "Deutschland", "formattedAddress": ["Barnetstra\u00dfe 41-42", "12305 Berlin", "Deutschland"]}, "categories": [{"id": "4bf58dd8d48988d10f951735", "name": "Pharmacy", "pluralName": "Pharmacies", "shortName": "Pharmacy", "icon": {"prefix": "https://ss3.4sqi.net/img/categories_v2/shops/pharmacy_", "suffix": ".png"}, "primary": true}], "photos": {"count": 0, "groups": []}, "venuePage": {"id": "55552571"}}, "referralId": "e-0-507470605262942a6ab5ae4e-24"}, {"reasons": {"count": 0, "items": [{"summary": "This spot is popular", "type": "general", "reasonName": "globalInteractionReason"}]}, "venue": {"id": "4daadf364df01c19b192f803", "name": "Dynamic Fitness World", "location": {"address": "Stra\u00dfe 9 3", "lat": 52.40141063325662, "lng": 13.413362912493541, "labeledLatLngs": [{"label": "display", "lat": 52.40141063325662, "lng": 13.413362912493541}], "distance": 978, "postalCode": "12309", "cc": "DE", "city": "Berlin", "state": "Berlin", "country": "Deutschland", "formattedAddress": ["Stra\u00dfe 9 3", "12309 Berlin", "Deutschland"]}, "categories": [{"id": "4bf58dd8d48988d175941735", "name": "Gym / Fitness Center", "pluralName": "Gyms or Fitness Centers", "shortName": "Gym / Fitness", "icon": {"prefix": "https://ss3.4sqi.net/img/categories_v2/building/gym_", "suffix": ".png"}, "primary": true}], "photos": {"count": 0, "groups": []}}, "referralId": "e-0-4daadf364df01c19b192f803-25"}, {"reasons": {"count": 0, "items": [{"summary": "This spot is popular", "type": "general", "reasonName": "globalInteractionReason"}]}, "venue": {"id": "4f3e7068e4b0b8bcf2ac1798", "name": "REWE", "location": {"address": "T\u00f6pchiner Weg 189-193", "lat": 52.4017036, "lng": 13.412768, "labeledLatLngs": [{"label": "display", "lat": 52.4017036, "lng": 13.412768}], "distance": 980, "postalCode": "12309", "cc": "DE", "city": "Berlin", "state": "Berlin", "country": "Deutschland", "formattedAddress": ["T\u00f6pchiner Weg 189-193", "12309 Berlin", "Deutschland"]}, "categories": [{"id": "52f2ab2ebcbc57f1066b8b46", "name": "Supermarket", "pluralName": "Supermarkets", "shortName": "Supermarket", "icon": {"prefix": "https://ss3.4sqi.net/img/categories_v2/shops/food_grocery_", "suffix": ".png"}, "primary": true}], "photos": {"count": 0, "groups": []}, "venuePage": {"id": "566577918"}}, "referralId": "e-0-4f3e7068e4b0b8bcf2ac1798-26"}, {"reasons": {"count": 0, "items": [{"summary": "This spot is popular", "type": "general", "reasonName": "globalInteractionReason"}]}, "venue": {"id": "4beac41b61aca593ed1e8400", "name": "S Lichtenrade", "location": {"address": "Bahnhofstr.", "crossStreet": "Prinzessinnenstr.", "lat": 52.38704668523969, "lng": 13.396368026733398, "labeledLatLngs": [{"label": "display", "lat": 52.38704668523969, "lng": 13.396368026733398}], "distance": 994, "postalCode": "12555", "cc": "DE", "city": "Berlin", "state": "Berlin", "country": "Deutschland", "formattedAddress": ["Bahnhofstr. (Prinzessinnenstr.)", "12555 Berlin", "Deutschland"]}, "categories": [{"id": "4bf58dd8d48988d1fc931735", "name": "Light Rail Station", "pluralName": "Light Rail Stations", "shortName": "Light Rail", "icon": {"prefix": "https://ss3.4sqi.net/img/categories_v2/travel/lightrail_", "suffix": ".png"}, "primary": true}], "photos": {"count": 0, "groups": []}}, "referralId": "e-0-4beac41b61aca593ed1e8400-27"}]