[{"reasons": {"count": 0, "items": [{"summary": "This spot is popular", "type": "general", "reasonName": "globalInteractionReason"}]}, "venue": {"id": "4adcda81f964a520644821e3", "name": "Gr\u00fcnderzeitmuseum", "location": {"address": "Hultschiner Damm 333", "lat": 52.5025472379655, "lng": 13.613948822021484, "labeledLatLngs": [{"label": "display", "lat": 52.5025472379655, "lng": 13.613948822021484}], "distance": 222, "postalCode": "12623", "cc": "DE", "city": "Berlin", "state": "Berlin", "country": "Deutschland", "formattedAddress": ["Hultschiner Damm 333", "12623 Berlin", "Deutschland"]}, "categories": [{"id": "4bf58dd8d48988d190941735", "name": "History Museum", "pluralName": "History Museums", "shortName": "History Museum", "icon": {"prefix": "https://ss3.4sqi.net/img/categories_v2/arts_entertainment/museum_history_", "suffix": ".png"}, "primary": true}], "photos": {"count": 0, "groups": []}}, "referralId": "e-0-4adcda81f964a520644821e3-0"}, {"reasons": {"count": 0, "items": [{"summary": "This spot is popular", "type": "general", "reasonName": "globalInteractionReason"}]}, "venue": {"id": "5560a395498e9b459c20baec", "name": "EDEKA Center Brehm", "location": {"address": "An der Schule 82", "lat": 52.50573222, "lng": 13.61451775, "labeledLatLngs": [{"label": "display", "lat": 52.50573222, "lng": 13.61451775}], "distance": 351, "postalCode": "12623", "cc": "DE", "city": "Berlin", "state": "Berlin", "country": "Deutschland", "formattedAddress": ["An der Schule 82", "12623 Berlin", "Deutschland"]}, "categories": [{"id": "52f2ab2ebcbc57f1066b8b46", "name": "Supermarket", "pluralName": "Supermarkets", "shortName": "Supermarket", "icon": {"prefix": "https://ss3.4sqi.net/img/categories_v2/shops/food_grocery_", "suffix": ".png"}, "primary": true}], "photos": {"count": 0, "groups": []}, "venuePage": {"id": "557477896"}}, "referralId": "e-0-5560a395498e9b459c20baec-1"}, {"reasons": {"count": 0, "items": [{"summary": "This spot is popular", "type": "general", "reasonName": "globalInteractionReason"}]}, "venue": {"id": "594a6e3a08815813956e6e8a", "name": "L'osteria", "location": {"lat": 52.503573002317935, "lng": 13.621985463512472, "labeledLatLngs": [{"label": "display", "lat": 52.503573002317935, "lng": 13.621985463512472}], "distance": 334, "postalCode": "12623", "cc": "DE", "city": "Berlin", "state": "Berlin", "country": "Deutschland", "formattedAddress": ["12623 Berlin", "Deutschland"]}, "categories": [{"id": "4bf58dd8d48988d110941735", "name": "Italian Restaurant", "pluralName": "Italian Restaurants", "shortName": "Italian", "icon": {"prefix": "https://ss3.4sqi.net/img/categories_v2/food/italian_", "suffix": ".png"}, "primary": true}], "photos": {"count": 0, "groups": []}}, "referralId": "e-0-594a6e3a08815813956e6e8a-2"}, {"reasons": {"count": 0, "items": [{"summary": "This spot is popular", "type": "general", "reasonName": "globalInteractionReason"}]}, "venue": {"id": "4c484c02d012ef3b648c1da0", "name": "McFIT", "location": {"address": "Alt-Mahlsdorf 24", "lat": 52.505249324371725, "lng": 13.612178564071655, "labeledLatLngs": [{"label": "display", "lat": 52.505249324371725, "lng": 13.612178564071655}], "distance": 418, "postalCode": "12623", "cc": "DE", "city": "Berlin", "state": "Berlin", "country": "Deutschland", "formattedAddress": ["Alt-Mahlsdorf 24", "12623 Berlin", "Deutschland"]}, "categories": [{"id": "4bf58dd8d48988d175941735", "name": "Gym / Fitness Center", "pluralName": "Gyms or Fitness Centers", "shortName": "Gym / Fitness", "icon": {"prefix": "https://ss3.4sqi.net/img/categories_v2/building/gym_", "suffix": ".png"}, "primary": true}], "photos": {"count": 0, "groups": []}}, "referralId": "e-0-4c484c02d012ef3b648c1da0-3"}, {"reasons": {"count": 0, "items": [{"summary": "This spot is popular", "type": "general", "reasonName": "globalInteractionReason"}]}, "venue": {"id": "55774745498ee3837214346f", "name": "dm-drogerie markt", "location": {"address": "An der Schule 68", "lat": 52.50647681688105, "lng": 13.614782698006707, "labeledLatLngs": [{"label": "display", "lat": 52.50647681688105, "lng": 13.614782698006707}], "distance": 417, "postalCode": "12623", "cc": "DE", "city": "Berlin", "state": "Berlin", "country": "Deutschland", "formattedAddress": ["An der Schule 68", "12623 Berlin", "Deutschland"]}, "categories": [{"id": "4bf58dd8d48988d10c951735", "name": "Cosmetics Shop", "pluralName": "Cosmetics Shops", "shortName": "Cosmetics", "icon": {"prefix": "https://ss3.4sqi.net/img/categories_v2/shops/beauty_cosmetic_", "suffix": ".png"}, "primary": true}], "photos": {"count": 0, "groups": []}, "venuePage": {"id": "450068174"}}, "referralId": "e-0-55774745498ee3837214346f-4"}, {"reasons": {"count": 0, "items": [{"summary": "This spot is popular", "type": "general", "reasonName": "globalInteractionReason"}]}, "venue": {"id": "591c8768840fc27955231cb4", "name": "Porta M\u00f6bel", "location": {"address": "Alt-Mahlsdorf 85", "lat": 52.50140592596457, "lng": 13.62231386860065, "labeledLatLngs": [{"label": "display", "lat": 52.50140592596457, "lng": 13.62231386860065}], "distance": 393, "postalCode": "12623", "cc": "DE", "neighborhood": "Mahlsdorf", "city": "Berlin", "state": "Berlin", "country": "Deutschland", "formattedAddress": ["Alt-Mahlsdorf 85", "12623 Berlin", "Deutschland"]}, "categories": [{"id": "4bf58dd8d48988d1f8941735", "name": "Furniture / Home Store", "pluralName": "Furniture / Home Stores", "shortName": "Furniture / Home", "icon": {"prefix": "https://ss3.4sqi.net/img/categories_v2/shops/furniture_", "suffix": ".png"}, "primary": true}], "photos": {"count": 0, "groups": []}, "venuePage": {"id": "580509080"}}, "referralId": "e-0-591c8768840fc27955231cb4-5"}, {"reasons": {"count": 0, "items": [{"summary": "This spot is popular", "type": "general", "reasonName": "globalInteractionReason"}]}, "venue": {"id": "4c15e128b7b9c928c098ad37", "name": "McDonald's", "location": {"address": "Alt-Mahlsdorf 60", "lat": 52.50420252837828, "lng": 13.623309002282783, "labeledLatLngs": [{"label": "display", "lat": 52.50420252837828, "lng": 13.623309002282783}], "distance": 438, "postalCode": "12623", "cc": "DE", "city": "Berlin", "state": "Berlin", "country": "Deutschland", "formattedAddress": ["Alt-Mahlsdorf 60", "12623 Berlin", "Deutschland"]}, "categories": [{"id": "4bf58dd8d48988d16e941735", "name": "Fast Food Restaurant", "pluralName": "Fast Food Restaurants", "shortName": "Fast Food", "icon": {"prefix": "https://ss3.4sqi.net/img/categories_v2/food/fastfood_", "suffix": ".png"}, "primary": true}], "photos": {"count": 0, "groups": []}}, "referralId": "e-0-4c15e128b7b9c928c098ad37-6"}, {"reasons": {"count": 0, "items": [{"summary": "This spot is popular", "type": "general", "reasonName": "globalInteractionReason"}]}, "venue": {"id": "4b6ab95ff964a520a4dd2be3", "name": "Burger King", "location": {"address": "Alt-Mahlsdorf 23", "lat": 52.50547961205799, "lng": 13.60692879287711, "labeledLatLngs": [{"label": "display", "lat": 52.50547961205799, "lng": 13.60692879287711}], "distance": 744, "postalCode": "12623", "cc": "DE", "city": "Berlin", "state": "Berlin", "country": "Deutschland", "formattedAddress": ["Alt-Mahlsdorf 23", "12623 Berlin", "Deutschland"]}, "categories": [{"id": "4bf58dd8d48988d16e941735", "name": "Fast Food Restaurant", "pluralName": "Fast Food Restaurants", "shortName": "Fast Food", "icon": {"prefix": "https://ss3.4sqi.net/img/categories_v2/food/fastfood_", "suffix": ".png"}, "primary": true}], "photos": {"count": 0, "groups": []}}, "referralId": "e-0-4b6ab95ff964a520a4dd2be3-7"}, {"reasons": {"count": 0, "items": [{"summary": "This spot is popular", "type": "general", "reasonName": "globalInteractionReason"}]}, "venue": {"id": "56a256e1498e9790d214a975", "name": "A.T.U Berlin - Alt-Mahlsdorf", "location": {"address": "Alt-Mahlsdorf 109", "lat": 52.504301, "lng": 13.614309, "labeledLatLngs": [{"label": "display", "lat": 52.504301, "lng": 13.614309}], "distance": 239, "postalCode": "12623", "cc": "DE", "city": "Berlin", "state": "Berlin", "country": "Deutschland", "formattedAddress": ["Alt-Mahlsdorf 109", "12623 Berlin", "Deutschland"]}, "categories": [{"id": "4bf58dd8d48988d124951735", "name": "Automotive Shop", "pluralName": "Automotive Shops", "shortName": "Automotive", "icon": {"prefix": "https://ss3.4sqi.net/img/categories_v2/shops/automotive_", "suffix": ".png"}, "primary": true}], "photos": {"count": 0, "groups": []}}, "referralId": "e-0-56a256e1498e9790d214a975-8"}, {"reasons": {"count": 0, "items": [{"summary": "This spot is popular", "type": "general", "reasonName": "globalInteractionReason"}]}, "venue": {"id": "50e18b93e4b0e3d2cb719beb", "name": "PENNY", "location": {"address": "Altes Feld 2-4", "lat": 52.50492898, "lng": 13.61955318, "labeledLatLngs": [{"label": "display", "lat": 52.50492898, "lng": 13.61955318}], "distance": 269, "postalCode": "27624", "cc": "DE", "city": "Geestland", "state": "Niedersachsen", "country": "Deutschland", "formattedAddress": ["Altes Feld 2-4", "27624 Geestland", "Deutschland"]}, "categories": [{"id": "52f2ab2ebcbc57f1066b8b46", "name": "Supermarket", "pluralName": "Supermarkets", "shortName": "Supermarket", "icon": {"prefix": "https://ss3.4sqi.net/img/categories_v2/shops/food_grocery_", "suffix": ".png"}, "primary": true}], "photos": {"count": 0, "groups": []}, "venuePage": {"id": "476954991"}}, "referralId": "e-0-50e18b93e4b0e3d2cb719beb-9"}, {"reasons": {"count": 0, "items": [{"summary": "This spot is popular", "type": "general", "reasonName": "globalInteractionReason"}]}, "venue": {"id": "4fe02e5be4b0e8a9281bf845", "name": "H Alt-Mahlsdorf", "location": {"address": "H\u00f6nower Str.", "crossStreet": "Alt-Mahlsdorf", "lat": 52.50504197981824, "lng": 13.613369464874266, "labeledLatLngs": [{"label": "display", "lat": 52.50504197981824, "lng": 13.613369464874266}], "distance": 341, "postalCode": "12623", "cc": "DE", "city": "Berlin", "state": "Berlin", "country": "Deutschland", "formattedAddress": ["H\u00f6nower Str. (Alt-Mahlsdorf)", "12623 Berlin", "Deutschland"]}, "categories": [{"id": "52f2ab2ebcbc57f1066b8b51", "name": "Tram Station", "pluralName": "Tram Stations", "shortName": "Tram", "icon": {"prefix": "https://ss3.4sqi.net/img/categories_v2/travel/trainstation_", "suffix": ".png"}, "primary": true}], "photos": {"count": 0, "groups": []}}, "referralId": "e-0-4fe02e5be4b0e8a9281bf845-10"}, {"reasons": {"count": 0, "items": [{"summary": "This spot is popular", "type": "general", "reasonName": "globalInteractionReason"}]}, "venue": {"id": "584115960593e151a0916980", "name": "Trattoria La Stalla", "location": {"address": "H\u00f6nower Str. 14A", "lat": 52.506012, "lng": 13.613601, "labeledLatLngs": [{"label": "display", "lat": 52.506012, "lng": 13.613601}], "distance": 411, "postalCode": "12623", "cc": "DE", "city": "Berlin", "state": "Berlin", "country": "Deutschland", "formattedAddress": ["H\u00f6nower Str. 14A", "12623 Berlin", "Deutschland"]}, "categories": [{"id": "4bf58dd8d48988d110941735", "name": "Italian Restaurant", "pluralName": "Italian Restaurants", "shortName": "Italian", "icon": {"prefix": "https://ss3.4sqi.net/img/categories_v2/food/italian_", "suffix": ".png"}, "primary": true}], "photos": {"count": 0, "groups": []}}, "referralId": "e-0-584115960593e151a0916980-11"}, {"reasons": {"count": 0, "items": [{"summary": "This spot is popular", "type": "general", "reasonName": "globalInteractionReason"}]}, "venue": {"id": "517b989d498e5b4062eb83f9", "name": "POLO Motorrad Store Berlin Mahlsdorf", "location": {"address": "Alt-Mahlsdorf 26", "lat": 52.505419856043154, "lng": 13.611980454616514, "labeledLatLngs": [{"label": "display", "lat": 52.505419856043154, "lng": 13.611980454616514}], "distance": 440, "postalCode": "12623", "cc": "DE", "city": "Berlin", "state": "Berlin", "country": "Deutschland", "formattedAddress": ["Alt-Mahlsdorf 26", "12623 Berlin", "Deutschland"]}, "categories": [{"id": "5032833091d4c4b30a586d60", "name": "Motorcycle Shop", "pluralName": "Motorcycle Shops", "shortName": "Motorcycle Shop", "icon": {"prefix": "https://ss3.4sqi.net/img/categories_v2/shops/motorcycle_", "suffix": ".png"}, "primary": true}], "photos": {"count": 0, "groups": []}}, "referralId": "e-0-517b989d498e5b4062eb83f9-12"}, {"reasons": {"count": 0, "items": [{"summary": "This spot is popular", "type": "general", "reasonName": "globalInteractionReason"}]}, "venue": {"id": "5a50f3b4b6eedb42a612417a", "name": "Jump 3000 GmbH", "location": {"address": "Landsberger Str. 217/218", "lat": 52.506636, "lng": 13.622502, "labeledLatLngs": [{"label": "display", "lat": 52.506636, "lng": 13.622502}], "distance": 543, "postalCode": "12623", "cc": "DE", "city": "Berlin", "state": "Berlin", "country": "Deutschland", "formattedAddress": ["Landsberger Str. 217/218", "12623 Berlin", "Deutschland"]}, "categories": [{"id": "4f4528bc4b90abdf24c9de85", "name": "Athletics & Sports", "pluralName": "Athletics & Sports", "shortName": "Athletics & Sports", "icon": {"prefix": "https://ss3.4sqi.net/img/categories_v2/shops/sports_outdoors_", "suffix": ".png"}, "primary": true}], "photos": {"count": 0, "groups": []}, "venuePage": {"id": "573510274"}}, "referralId": "e-0-5a50f3b4b6eedb42a612417a-13"}, {"reasons": {"count": 0, "items": [{"summary": "This spot is popular", "type": "general", "reasonName": "globalInteractionReason"}]}, "venue": {"id": "4c7ccffc247cb60c39065f5e", "name": "ROLLER", "location": {"address": "Alt-Mahlsdorf 26", "lat": 52.505216592416375, "lng": 13.611538327842547, "labeledLatLngs": [{"label": "display", "lat": 52.505216592416375, "lng": 13.611538327842547}], "distance": 451, "postalCode": "12623", "cc": "DE", "city": "Berlin", "state": "Berlin", "country": "Deutschland", "formattedAddress": ["Alt-Mahlsdorf 26", "12623 Berlin", "Deutschland"]}, "categories": [{"id": "4bf58dd8d48988d1f8941735", "name": "Furniture / Home Store", "pluralName": "Furniture / Home Stores", "shortName": "Furniture / Home", "icon": {"prefix": "https://ss3.4sqi.net/img/categories_v2/shops/furniture_", "suffix": ".png"}, "primary": true}], "photos": {"count": 0, "groups": []}}, "referralId": "e-0-4c7ccffc247cb60c39065f5e-14"}, {"reasons": {"count": 0, "items": [{"summary": "This spot is popular", "type": "general", "reasonName": "globalInteractionReason"}]}, "venue": {"id": "4bd84ec12ecdce72a9b7d0f2", "name": "Garni-Hotel An der Weide", "location": {"address": "Alt-Mahlsdorf 20/21", "lat": 52.50519909116868, "lng": 13.606158118997396, "labeledLatLngs": [{"label": "display", "lat": 52.50519909116868, "lng": 13.606158118997396}], "distance": 782, "postalCode": "12623", "cc": "DE", "city": "Berlin", "state": "Berlin", "country": "Deutschland", "formattedAddress": ["Alt-Mahlsdorf 20/21", "12623 Berlin", "Deutschland"]}, "categories": [{"id": "4bf58dd8d48988d1fa931735", "name": "Hotel", "pluralName": "Hotels", "shortName": "Hotel", "icon": {"prefix": "https://ss3.4sqi.net/img/categories_v2/travel/hotel_", "suffix": ".png"}, "primary": true}], "photos": {"count": 0, "groups": []}}, "referralId": "e-0-4bd84ec12ecdce72a9b7d0f2-15"}, {"reasons": {"count": 0, "items": [{"summary": "This spot is popular", "type": "general", "reasonName": "globalInteractionReason"}]}, "venue": {"id": "5309f461498eaf6287f467e6", "name": "Rossini III", "location": {"lat": 52.49550180416911, "lng": 13.611180860523241, "labeledLatLngs": [{"label": "display", "lat": 52.49550180416911, "lng": 13.611180860523241}], "distance": 928, "cc": "DE", "country": "Deutschland", "formattedAddress": ["Deutschland"]}, "categories": [{"id": "4bf58dd8d48988d110941735", "name": "Italian Restaurant", "pluralName": "Italian Restaurants", "shortName": "Italian", "icon": {"prefix": "https://ss3.4sqi.net/img/categories_v2/food/italian_", "suffix": ".png"}, "primary": true}], "photos": {"count": 0, "groups": []}}, "referralId": "e-0-5309f461498eaf6287f467e6-16"}, {"reasons": {"count": 0, "items": [{"summary": "This spot is popular", "type": "general", "reasonName": "globalInteractionReason"}]}, "venue": {"id": "50dae7a3e4b047bb1e44d2ff", "name": "G\u00e9mesk\u00fat Cs\u00e1rda", "location": {"address": "Hultschiner Damm 236", "lat": 52.495244517311825, "lng": 13.610982509390475, "labeledLatLngs": [{"label": "display", "lat": 52.495244517311825, "lng": 13.610982509390475}], "distance": 959, "postalCode": "12623", "cc": "DE", "city": "Berlin", "state": "Berlin", "country": "Deutschland", "formattedAddress": ["Hultschiner Damm 236", "12623 Berlin", "Deutschland"]}, "categories": [{"id": "4bf58dd8d48988d1c4941735", "name": "Restaurant", "pluralName": "Restaurants", "shortName": "Restaurant", "icon": {"prefix": "https://ss3.4sqi.net/img/categories_v2/food/default_", "suffix": ".png"}, "primary": true}], "photos": {"count": 0, "groups": []}}, "referralId": "e-0-50dae7a3e4b047bb1e44d2ff-17"}, {"reasons": {"count": 0, "items": [{"summary": "This spot is popular", "type": "general", "reasonName": "globalInteractionReason"}]}, "venue": {"id": "51f93db9498e94b7605a4dad", "name": "H S Mahlsdorf", "location": {"address": "Treskowstr.", "crossStreet": "H\u00f6nower Str.", "lat": 52.51113430753542, "lng": 13.610964682820837, "labeledLatLngs": [{"label": "display", "lat": 52.51113430753542, "lng": 13.610964682820837}], "distance": 996, "postalCode": "12623", "cc": "DE", "city": "Berlin", "state": "Berlin", "country": "Deutschland", "formattedAddress": ["Treskowstr. (H\u00f6nower Str.)", "12623 Berlin", "Deutschland"]}, "categories": [{"id": "52f2ab2ebcbc57f1066b8b51", "name": "Tram Station", "pluralName": "Tram Stations", "shortName": "Tram", "icon": {"prefix": "https://ss3.4sqi.net/img/categories_v2/travel/trainstation_", "suffix": ".png"}, "primary": true}], "photos": {"count": 0, "groups": []}}, "referralId": "e-0-51f93db9498e94b7605a4dad-18"}]