[{"reasons": {"count": 0, "items": [{"summary": "This spot is popular", "type": "general", "reasonName": "globalInteractionReason"}]}, "venue": {"id": "4fe2eab1e4b061fc6ab46ad4", "name": "PENNY", "location": {"address": "Mariendorfer Damm 153-157", "lat": 52.43793192853259, "lng": 13.38892483453219, "labeledLatLngs": [{"label": "display", "lat": 52.43793192853259, "lng": 13.38892483453219}], "distance": 148, "postalCode": "12107", "cc": "DE", "city": "Berlin", "state": "Berlin", "country": "Deutschland", "formattedAddress": ["Mariendorfer Damm 153-157", "12107 Berlin", "Deutschland"]}, "categories": [{"id": "52f2ab2ebcbc57f1066b8b46", "name": "Supermarket", "pluralName": "Supermarkets", "shortName": "Supermarket", "icon": {"prefix": "https://ss3.4sqi.net/img/categories_v2/shops/food_grocery_", "suffix": ".png"}, "primary": true}], "photos": {"count": 0, "groups": []}, "venuePage": {"id": "564607050"}}, "referralId": "e-0-4fe2eab1e4b061fc6ab46ad4-0"}, {"reasons": {"count": 0, "items": [{"summary": "This spot is popular", "type": "general", "reasonName": "globalInteractionReason"}]}, "venue": {"id": "52ed9048498e1da329f87a66", "name": "S\u00fcdbloc Boulderhalle", "location": {"address": "Gro\u00dfberenstr. 2-10", "lat": 52.43996860872538, "lng": 13.379566033541556, "labeledLatLngs": [{"label": "display", "lat": 52.43996860872538, "lng": 13.379566033541556}], "distance": 786, "cc": "DE", "city": "Berlin", "state": "Berlin", "country": "Deutschland", "formattedAddress": ["Gro\u00dfberenstr. 2-10", "Berlin", "Deutschland"]}, "categories": [{"id": "503289d391d4c4b30a586d6a", "name": "Climbing Gym", "pluralName": "Climbing Gyms", "shortName": "Climbing Gym", "icon": {"prefix": "https://ss3.4sqi.net/img/categories_v2/building/gym_", "suffix": ".png"}, "primary": true}], "photos": {"count": 0, "groups": []}}, "referralId": "e-0-52ed9048498e1da329f87a66-1"}, {"reasons": {"count": 0, "items": [{"summary": "This spot is popular", "type": "general", "reasonName": "globalInteractionReason"}]}, "venue": {"id": "5938371da6ec982d00f8165e", "name": "New Ocean", "location": {"address": "Mariendorfer Damm 175", "lat": 52.436151, "lng": 13.389253, "labeledLatLngs": [{"label": "display", "lat": 52.436151, "lng": 13.389253}], "distance": 285, "postalCode": "12107", "cc": "DE", "neighborhood": "Mariendorf", "city": "Berlin", "state": "Berlin", "country": "Deutschland", "formattedAddress": ["Mariendorfer Damm 175", "12107 Berlin", "Deutschland"]}, "categories": [{"id": "4bf58dd8d48988d145941735", "name": "Chinese Restaurant", "pluralName": "Chinese Restaurants", "shortName": "Chinese", "icon": {"prefix": "https://ss3.4sqi.net/img/categories_v2/food/asian_", "suffix": ".png"}, "primary": true}], "photos": {"count": 0, "groups": []}}, "referralId": "e-0-5938371da6ec982d00f8165e-2"}, {"reasons": {"count": 0, "items": [{"summary": "This spot is popular", "type": "general", "reasonName": "globalInteractionReason"}]}, "venue": {"id": "4db5812bcda1c57c826fc3db", "name": "Bei Radi", "location": {"address": "Westphalweg 28", "lat": 52.445683842896166, "lng": 13.390001398999091, "labeledLatLngs": [{"label": "display", "lat": 52.445683842896166, "lng": 13.390001398999091}], "distance": 801, "postalCode": "12109", "cc": "DE", "city": "Berlin", "state": "Berlin", "country": "Deutschland", "formattedAddress": ["Westphalweg 28", "12109 Berlin", "Deutschland"]}, "categories": [{"id": "4bf58dd8d48988d109941735", "name": "Eastern European Restaurant", "pluralName": "Eastern European Restaurants", "shortName": "Eastern European", "icon": {"prefix": "https://ss3.4sqi.net/img/categories_v2/food/default_", "suffix": ".png"}, "primary": true}], "photos": {"count": 0, "groups": []}}, "referralId": "e-0-4db5812bcda1c57c826fc3db-3"}, {"reasons": {"count": 0, "items": [{"summary": "This spot is popular", "type": "general", "reasonName": "globalInteractionReason"}]}, "venue": {"id": "515441a7e4b0186b418e4cad", "name": "Villa Christina", "location": {"address": "Mariendorfer Damm 131", "lat": 52.439782, "lng": 13.388025, "labeledLatLngs": [{"label": "display", "lat": 52.439782, "lng": 13.388025}], "distance": 241, "postalCode": "12107", "cc": "DE", "city": "Berlin", "state": "Berlin", "country": "Deutschland", "formattedAddress": ["Mariendorfer Damm 131", "12107 Berlin", "Deutschland"]}, "categories": [{"id": "4bf58dd8d48988d10e941735", "name": "Greek Restaurant", "pluralName": "Greek Restaurants", "shortName": "Greek", "icon": {"prefix": "https://ss3.4sqi.net/img/categories_v2/food/greek_", "suffix": ".png"}, "primary": true}], "photos": {"count": 0, "groups": []}}, "referralId": "e-0-515441a7e4b0186b418e4cad-4"}, {"reasons": {"count": 0, "items": [{"summary": "This spot is popular", "type": "general", "reasonName": "globalInteractionReason"}]}, "venue": {"id": "4c2fa171ed37a593afa16703", "name": "Sommerbad Mariendorf", "location": {"address": "Rixdorfer Str. 130", "lat": 52.443584233515416, "lng": 13.398427544689397, "labeledLatLngs": [{"label": "display", "lat": 52.443584233515416, "lng": 13.398427544689397}], "distance": 761, "postalCode": "12109", "cc": "DE", "city": "Berlin", "state": "Berlin", "country": "Deutschland", "formattedAddress": ["Rixdorfer Str. 130", "12109 Berlin", "Deutschland"]}, "categories": [{"id": "4bf58dd8d48988d15e941735", "name": "Pool", "pluralName": "Pools", "shortName": "Pool", "icon": {"prefix": "https://ss3.4sqi.net/img/categories_v2/parks_outdoors/pool_", "suffix": ".png"}, "primary": true}], "photos": {"count": 0, "groups": []}}, "referralId": "e-0-4c2fa171ed37a593afa16703-5"}, {"reasons": {"count": 0, "items": [{"summary": "This spot is popular", "type": "general", "reasonName": "globalInteractionReason"}]}, "venue": {"id": "4b43ceddf964a52099ea25e3", "name": "rice & more", "location": {"address": "Gro\u00dfbeerenstr. 51", "lat": 52.43461524296458, "lng": 13.378290114414813, "labeledLatLngs": [{"label": "display", "lat": 52.43461524296458, "lng": 13.378290114414813}], "distance": 959, "postalCode": "12107", "cc": "DE", "city": "Berlin", "state": "Berlin", "country": "Deutschland", "formattedAddress": ["Gro\u00dfbeerenstr. 51", "12107 Berlin", "Deutschland"]}, "categories": [{"id": "4bf58dd8d48988d142941735", "name": "Asian Restaurant", "pluralName": "Asian Restaurants", "shortName": "Asian", "icon": {"prefix": "https://ss3.4sqi.net/img/categories_v2/food/asian_", "suffix": ".png"}, "primary": true}], "photos": {"count": 0, "groups": []}}, "referralId": "e-0-4b43ceddf964a52099ea25e3-6"}, {"reasons": {"count": 0, "items": [{"summary": "This spot is popular", "type": "general", "reasonName": "globalInteractionReason"}]}, "venue": {"id": "4bed7acae3562d7fa40dfff8", "name": "Volkspark Mariendorf", "location": {"address": "Mariendorfer Damm", "crossStreet": "Pr\u00fch\u00dfstr.", "lat": 52.44242167608397, "lng": 13.3913254737854, "labeledLatLngs": [{"label": "display", "lat": 52.44242167608397, "lng": 13.3913254737854}], "distance": 436, "cc": "DE", "city": "Berlin", "state": "Berlin", "country": "Deutschland", "formattedAddress": ["Mariendorfer Damm (Pr\u00fch\u00dfstr.)", "Berlin", "Deutschland"]}, "categories": [{"id": "4bf58dd8d48988d163941735", "name": "Park", "pluralName": "Parks", "shortName": "Park", "icon": {"prefix": "https://ss3.4sqi.net/img/categories_v2/parks_outdoors/park_", "suffix": ".png"}, "primary": true}], "photos": {"count": 0, "groups": []}}, "referralId": "e-0-4bed7acae3562d7fa40dfff8-7"}, {"reasons": {"count": 0, "items": [{"summary": "This spot is popular", "type": "general", "reasonName": "globalInteractionReason"}]}, "venue": {"id": "549474ba498e0e01dd866c1f", "name": "Steakhouse Hazienda", "location": {"address": "Mariendorfer Damm 144", "crossStreet": "Friedenstr.", "lat": 52.4387019845016, "lng": 13.387330290621993, "labeledLatLngs": [{"label": "display", "lat": 52.4387019845016, "lng": 13.387330290621993}], "distance": 243, "postalCode": "12107", "cc": "DE", "neighborhood": "Mariendorf", "city": "Berlin", "state": "Berlin", "country": "Deutschland", "formattedAddress": ["Mariendorfer Damm 144 (Friedenstr.)", "12107 Berlin", "Deutschland"]}, "categories": [{"id": "4bf58dd8d48988d1cc941735", "name": "Steakhouse", "pluralName": "Steakhouses", "shortName": "Steakhouse", "icon": {"prefix": "https://ss3.4sqi.net/img/categories_v2/food/steakhouse_", "suffix": ".png"}, "primary": true}], "photos": {"count": 0, "groups": []}}, "referralId": "e-0-549474ba498e0e01dd866c1f-8"}, {"reasons": {"count": 0, "items": [{"summary": "This spot is popular", "type": "general", "reasonName": "globalInteractionReason"}]}, "venue": {"id": "4d988de1744f3704a175f157", "name": "Eis Hennig", "location": {"address": "Mariendorfer Damm 143", "crossStreet": "Alt-Mariendorf", "lat": 52.43883304040497, "lng": 13.38822840642672, "labeledLatLngs": [{"label": "display", "lat": 52.43883304040497, "lng": 13.38822840642672}], "distance": 185, "postalCode": "12107", "cc": "DE", "city": "Berlin", "state": "Berlin", "country": "Deutschland", "formattedAddress": ["Mariendorfer Damm 143 (Alt-Mariendorf)", "12107 Berlin", "Deutschland"]}, "categories": [{"id": "4bf58dd8d48988d1c9941735", "name": "Ice Cream Shop", "pluralName": "Ice Cream Shops", "shortName": "Ice Cream", "icon": {"prefix": "https://ss3.4sqi.net/img/categories_v2/food/icecream_", "suffix": ".png"}, "primary": true}], "photos": {"count": 0, "groups": []}}, "referralId": "e-0-4d988de1744f3704a175f157-9"}, {"reasons": {"count": 0, "items": [{"summary": "This spot is popular", "type": "general", "reasonName": "globalInteractionReason"}]}, "venue": {"id": "4cbf06ee7dc9a093cd5b36f5", "name": "Polo Superstore", "location": {"address": "Gro\u00dfbeerenstr. 2", "lat": 52.43964, "lng": 13.3807408, "labeledLatLngs": [{"label": "display", "lat": 52.43964, "lng": 13.3807408}], "distance": 701, "postalCode": "12107", "cc": "DE", "city": "Berlin", "state": "Berlin", "country": "Deutschland", "formattedAddress": ["Gro\u00dfbeerenstr. 2", "12107 Berlin", "Deutschland"]}, "categories": [{"id": "5032833091d4c4b30a586d60", "name": "Motorcycle Shop", "pluralName": "Motorcycle Shops", "shortName": "Motorcycle Shop", "icon": {"prefix": "https://ss3.4sqi.net/img/categories_v2/shops/motorcycle_", "suffix": ".png"}, "primary": true}], "photos": {"count": 0, "groups": []}}, "referralId": "e-0-4cbf06ee7dc9a093cd5b36f5-10"}, {"reasons": {"count": 0, "items": [{"summary": "This spot is popular", "type": "general", "reasonName": "globalInteractionReason"}]}, "venue": {"id": "4ef373bde5fa4c3504b674b5", "name": "Chicken House", "location": {"address": "Mariendorfer Damm", "lat": 52.445612350365664, "lng": 13.386291050783417, "labeledLatLngs": [{"label": "display", "lat": 52.445612350365664, "lng": 13.386291050783417}], "distance": 850, "postalCode": "12109", "cc": "DE", "city": "Berlin", "state": "Berlin", "country": "Deutschland", "formattedAddress": ["Mariendorfer Damm", "12109 Berlin", "Deutschland"]}, "categories": [{"id": "4d4ae6fc7a7b7dea34424761", "name": "Fried Chicken Joint", "pluralName": "Fried Chicken Joints", "shortName": "Fried Chicken", "icon": {"prefix": "https://ss3.4sqi.net/img/categories_v2/food/friedchicken_", "suffix": ".png"}, "primary": true}], "photos": {"count": 0, "groups": []}}, "referralId": "e-0-4ef373bde5fa4c3504b674b5-11"}, {"reasons": {"count": 0, "items": [{"summary": "This spot is popular", "type": "general", "reasonName": "globalInteractionReason"}]}, "venue": {"id": "4b519065f964a520a14f27e3", "name": "EDEKA Prang", "location": {"address": "Mariendorfer Damm 81", "crossStreet": "Westphalweg", "lat": 52.44539066884613, "lng": 13.386154174804688, "labeledLatLngs": [{"label": "display", "lat": 52.44539066884613, "lng": 13.386154174804688}], "distance": 831, "postalCode": "12109", "cc": "DE", "city": "Berlin", "state": "Berlin", "country": "Deutschland", "formattedAddress": ["Mariendorfer Damm 81 (Westphalweg)", "12109 Berlin", "Deutschland"]}, "categories": [{"id": "52f2ab2ebcbc57f1066b8b46", "name": "Supermarket", "pluralName": "Supermarkets", "shortName": "Supermarket", "icon": {"prefix": "https://ss3.4sqi.net/img/categories_v2/shops/food_grocery_", "suffix": ".png"}, "primary": true}], "photos": {"count": 0, "groups": []}, "venuePage": {"id": "554438881"}}, "referralId": "e-0-4b519065f964a520a14f27e3-12"}, {"reasons": {"count": 0, "items": [{"summary": "This spot is popular", "type": "general", "reasonName": "globalInteractionReason"}]}, "venue": {"id": "4eef381477169cacb3bdcc0f", "name": "Rossmann", "location": {"address": "Mariendorfer Damm 95", "lat": 52.444159901684756, "lng": 13.38686316841901, "labeledLatLngs": [{"label": "display", "lat": 52.444159901684756, "lng": 13.38686316841901}], "distance": 686, "postalCode": "12109", "cc": "DE", "city": "Berlin", "state": "Berlin", "country": "Deutschland", "formattedAddress": ["Mariendorfer Damm 95", "12109 Berlin", "Deutschland"]}, "categories": [{"id": "5745c2e4498e11e7bccabdbd", "name": "Drugstore", "pluralName": "Drugstores", "shortName": "Drugstore", "icon": {"prefix": "https://ss3.4sqi.net/img/categories_v2/shops/pharmacy_", "suffix": ".png"}, "primary": true}], "photos": {"count": 0, "groups": []}}, "referralId": "e-0-4eef381477169cacb3bdcc0f-13"}, {"reasons": {"count": 0, "items": [{"summary": "This spot is popular", "type": "general", "reasonName": "globalInteractionReason"}]}, "venue": {"id": "4d9af3fae086a35d2014c5ad", "name": "Deutsche Bank", "location": {"address": "Mariendorfer Damm 65", "lat": 52.446536747569986, "lng": 13.385225384762657, "labeledLatLngs": [{"label": "display", "lat": 52.446536747569986, "lng": 13.385225384762657}], "distance": 973, "postalCode": "12109", "cc": "DE", "city": "Berlin", "state": "Berlin", "country": "Deutschland", "formattedAddress": ["Mariendorfer Damm 65", "12109 Berlin", "Deutschland"]}, "categories": [{"id": "4bf58dd8d48988d10a951735", "name": "Bank", "pluralName": "Banks", "shortName": "Bank", "icon": {"prefix": "https://ss3.4sqi.net/img/categories_v2/shops/financial_", "suffix": ".png"}, "primary": true}], "photos": {"count": 0, "groups": []}}, "referralId": "e-0-4d9af3fae086a35d2014c5ad-14"}, {"reasons": {"count": 0, "items": [{"summary": "This spot is popular", "type": "general", "reasonName": "globalInteractionReason"}]}, "venue": {"id": "4d1696ed85fc6dcb9157a74e", "name": "Remise No 1", "location": {"address": "Mariendorfer Damm 88-90", "lat": 52.44446584277039, "lng": 13.385888533316715, "labeledLatLngs": [{"label": "display", "lat": 52.44446584277039, "lng": 13.385888533316715}], "distance": 745, "postalCode": "12109", "cc": "DE", "city": "Berlin", "state": "Berlin", "country": "Deutschland", "formattedAddress": ["Mariendorfer Damm 88-90", "12109 Berlin", "Deutschland"]}, "categories": [{"id": "4bf58dd8d48988d10d941735", "name": "German Restaurant", "pluralName": "German Restaurants", "shortName": "German", "icon": {"prefix": "https://ss3.4sqi.net/img/categories_v2/food/german_", "suffix": ".png"}, "primary": true}], "photos": {"count": 0, "groups": []}}, "referralId": "e-0-4d1696ed85fc6dcb9157a74e-15"}, {"reasons": {"count": 0, "items": [{"summary": "This spot is popular", "type": "general", "reasonName": "globalInteractionReason"}]}, "venue": {"id": "4d94a4ceca3f6ea87e60ce34", "name": "Lidl", "location": {"address": "Gro\u00dfbeerenstr. 2", "lat": 52.4391942, "lng": 13.3797526, "labeledLatLngs": [{"label": "display", "lat": 52.4391942, "lng": 13.3797526}], "distance": 760, "postalCode": "12107", "cc": "DE", "city": "Berlin", "state": "Berlin", "country": "Deutschland", "formattedAddress": ["Gro\u00dfbeerenstr. 2", "12107 Berlin-tempelhof-sch\u00f6neberg", "Deutschland"]}, "categories": [{"id": "52f2ab2ebcbc57f1066b8b46", "name": "Supermarket", "pluralName": "Supermarkets", "shortName": "Supermarket", "icon": {"prefix": "https://ss3.4sqi.net/img/categories_v2/shops/food_grocery_", "suffix": ".png"}, "primary": true}], "photos": {"count": 0, "groups": []}, "venuePage": {"id": "579020234"}}, "referralId": "e-0-4d94a4ceca3f6ea87e60ce34-16"}, {"reasons": {"count": 0, "items": [{"summary": "This spot is popular", "type": "general", "reasonName": "globalInteractionReason"}]}, "venue": {"id": "4f2d9992e4b01982f12b0e19", "name": "Edeka", "location": {"address": "Mariendorfer Damm 186", "lat": 52.43499101, "lng": 13.38911184, "labeledLatLngs": [{"label": "display", "lat": 52.43499101, "lng": 13.38911184}], "distance": 409, "postalCode": "12107", "cc": "DE", "city": "Berlin", "state": "Berlin", "country": "Deutschland", "formattedAddress": ["Mariendorfer Damm 186", "12107 Berlin", "Deutschland"]}, "categories": [{"id": "52f2ab2ebcbc57f1066b8b46", "name": "Supermarket", "pluralName": "Supermarkets", "shortName": "Supermarket", "icon": {"prefix": "https://ss3.4sqi.net/img/categories_v2/shops/food_grocery_", "suffix": ".png"}, "primary": true}], "photos": {"count": 0, "groups": []}, "venuePage": {"id": "555663690"}}, "referralId": "e-0-4f2d9992e4b01982f12b0e19-17"}, {"reasons": {"count": 0, "items": [{"summary": "This spot is popular", "type": "general", "reasonName": "globalInteractionReason"}]}, "venue": {"id": "4f9a394ee4b03f9cffe8f78d", "name": "Berliner Sparkasse", "location": {"address": "Mariendorfer Damm 118-120", "lat": 52.44134258728826, "lng": 13.386508226394652, "labeledLatLngs": [{"label": "display", "lat": 52.44134258728826, "lng": 13.386508226394652}], "distance": 434, "postalCode": "12109", "cc": "DE", "city": "Berlin", "state": "Berlin", "country": "Deutschland", "formattedAddress": ["Mariendorfer Damm 118-120", "12109 Berlin", "Deutschland"]}, "categories": [{"id": "4bf58dd8d48988d10a951735", "name": "Bank", "pluralName": "Banks", "shortName": "Bank", "icon": {"prefix": "https://ss3.4sqi.net/img/categories_v2/shops/financial_", "suffix": ".png"}, "primary": true}], "photos": {"count": 0, "groups": []}}, "referralId": "e-0-4f9a394ee4b03f9cffe8f78d-18"}, {"reasons": {"count": 0, "items": [{"summary": "This spot is popular", "type": "general", "reasonName": "globalInteractionReason"}]}, "venue": {"id": "4dbd2eee1e72b351cac4bdda", "name": "Landhaus Alt-Mariendorf", "location": {"address": "Alt-Mariendorf 45", "lat": 52.43957020833689, "lng": 13.384695053100586, "labeledLatLngs": [{"label": "display", "lat": 52.43957020833689, "lng": 13.384695053100586}], "distance": 437, "postalCode": "12107", "cc": "DE", "city": "Berlin", "state": "Berlin", "country": "Deutschland", "formattedAddress": ["Alt-Mariendorf 45", "12107 Berlin", "Deutschland"]}, "categories": [{"id": "4bf58dd8d48988d10d941735", "name": "German Restaurant", "pluralName": "German Restaurants", "shortName": "German", "icon": {"prefix": "https://ss3.4sqi.net/img/categories_v2/food/german_", "suffix": ".png"}, "primary": true}], "photos": {"count": 0, "groups": []}}, "referralId": "e-0-4dbd2eee1e72b351cac4bdda-19"}, {"reasons": {"count": 0, "items": [{"summary": "This spot is popular", "type": "general", "reasonName": "globalInteractionReason"}]}, "venue": {"id": "537f3db1498e051901176d64", "name": "Th\u00fcrmann Drive Inn", "location": {"address": "Gro\u00dfbeerenstra\u00dfe 2-10", "lat": 52.43906881329408, "lng": 13.381111382938558, "labeledLatLngs": [{"label": "display", "lat": 52.43906881329408, "lng": 13.381111382938558}], "distance": 667, "cc": "DE", "city": "Berlin", "state": "Berlin", "country": "Deutschland", "formattedAddress": ["Gro\u00dfbeerenstra\u00dfe 2-10", "Berlin", "Deutschland"]}, "categories": [{"id": "4bf58dd8d48988d16a941735", "name": "Bakery", "pluralName": "Bakeries", "shortName": "Bakery", "icon": {"prefix": "https://ss3.4sqi.net/img/categories_v2/food/bakery_", "suffix": ".png"}, "primary": true}], "photos": {"count": 0, "groups": []}}, "referralId": "e-0-537f3db1498e051901176d64-20"}, {"reasons": {"count": 0, "items": [{"summary": "This spot is popular", "type": "general", "reasonName": "globalInteractionReason"}]}, "venue": {"id": "4f624d1ce4b0b665d0555559", "name": "Kepabhaus", "location": {"address": "Mariendorfer Damm, Berlin", "lat": 52.443151664538895, "lng": 13.386381305451172, "labeledLatLngs": [{"label": "display", "lat": 52.443151664538895, "lng": 13.386381305451172}], "distance": 601, "cc": "DE", "city": "Berlin", "state": "Berlin", "country": "Deutschland", "formattedAddress": ["Mariendorfer Damm, Berlin", "Berlin", "Deutschland"]}, "categories": [{"id": "4bf58dd8d48988d1c4941735", "name": "Restaurant", "pluralName": "Restaurants", "shortName": "Restaurant", "icon": {"prefix": "https://ss3.4sqi.net/img/categories_v2/food/default_", "suffix": ".png"}, "primary": true}], "photos": {"count": 0, "groups": []}}, "referralId": "e-0-4f624d1ce4b0b665d0555559-21"}, {"reasons": {"count": 0, "items": [{"summary": "This spot is popular", "type": "general", "reasonName": "globalInteractionReason"}]}, "venue": {"id": "4eec88dfa17c3a9eb62b7490", "name": "Wochenmarkt Mariendorf", "location": {"address": "Mariendorfer Damm", "lat": 52.4441832979902, "lng": 13.386910897154976, "labeledLatLngs": [{"label": "display", "lat": 52.4441832979902, "lng": 13.386910897154976}], "distance": 687, "postalCode": "12109", "cc": "DE", "city": "Berlin", "state": "Berlin", "country": "Deutschland", "formattedAddress": ["Mariendorfer Damm", "12109 Berlin", "Deutschland"]}, "categories": [{"id": "4bf58dd8d48988d1fa941735", "name": "Farmers Market", "pluralName": "Farmers Markets", "shortName": "Farmer's Market", "icon": {"prefix": "https://ss3.4sqi.net/img/categories_v2/shops/food_farmersmarket_", "suffix": ".png"}, "primary": true}], "photos": {"count": 0, "groups": []}}, "referralId": "e-0-4eec88dfa17c3a9eb62b7490-22"}, {"reasons": {"count": 0, "items": [{"summary": "This spot is popular", "type": "general", "reasonName": "globalInteractionReason"}]}, "venue": {"id": "4da31b0e0f578cfa0d2db118", "name": "Getr\u00e4nke Hoffmann", "location": {"address": "Gro\u00dfbeerenstra\u00dfe 2", "lat": 52.440082502485495, "lng": 13.379588404406377, "labeledLatLngs": [{"label": "display", "lat": 52.440082502485495, "lng": 13.379588404406377}], "distance": 787, "postalCode": "12107", "cc": "DE", "city": "Berlin", "state": "Berlin", "country": "Deutschland", "formattedAddress": ["Gro\u00dfbeerenstra\u00dfe 2", "12107 Berlin", "Deutschland"]}, "categories": [{"id": "4bf58dd8d48988d1f9941735", "name": "Food & Drink Shop", "pluralName": "Food & Drink Shops", "shortName": "Food & Drink", "icon": {"prefix": "https://ss3.4sqi.net/img/categories_v2/shops/foodanddrink_", "suffix": ".png"}, "primary": true}], "photos": {"count": 0, "groups": []}}, "referralId": "e-0-4da31b0e0f578cfa0d2db118-23"}, {"reasons": {"count": 0, "items": [{"summary": "This spot is popular", "type": "general", "reasonName": "globalInteractionReason"}]}, "venue": {"id": "4dfc8e79149599f28fcafe3a", "name": "MyPlace - SelfStorage", "location": {"address": "Lankwitzer Str. 25", "crossStreet": "Gro\u00dfbeerenstr.", "lat": 52.43744968606319, "lng": 13.379382996019222, "labeledLatLngs": [{"label": "display", "lat": 52.43744968606319, "lng": 13.379382996019222}], "distance": 790, "postalCode": "12107", "cc": "DE", "city": "Berlin", "state": "Berlin", "country": "Deutschland", "formattedAddress": ["Lankwitzer Str. 25 (Gro\u00dfbeerenstr.)", "12107 Berlin", "Deutschland"]}, "categories": [{"id": "4f04b1572fb6e1c99f3db0bf", "name": "Storage Facility", "pluralName": "Storage Facilities", "shortName": "Storage", "icon": {"prefix": "https://ss3.4sqi.net/img/categories_v2/shops/storage_", "suffix": ".png"}, "primary": true}], "photos": {"count": 0, "groups": []}, "venuePage": {"id": "488975023"}}, "referralId": "e-0-4dfc8e79149599f28fcafe3a-24"}, {"reasons": {"count": 0, "items": [{"summary": "This spot is popular", "type": "general", "reasonName": "globalInteractionReason"}]}, "venue": {"id": "4b6ab7c9f964a52050dd2be3", "name": "McDonald's", "location": {"address": "Gro\u00dfbeerenstr. 22", "lat": 52.437412, "lng": 13.379706, "labeledLatLngs": [{"label": "display", "lat": 52.437412, "lng": 13.379706}], "distance": 769, "postalCode": "12107", "cc": "DE", "city": "Berlin", "state": "Berlin", "country": "Deutschland", "formattedAddress": ["Gro\u00dfbeerenstr. 22", "12107 Berlin", "Deutschland"]}, "categories": [{"id": "4bf58dd8d48988d16e941735", "name": "Fast Food Restaurant", "pluralName": "Fast Food Restaurants", "shortName": "Fast Food", "icon": {"prefix": "https://ss3.4sqi.net/img/categories_v2/food/fastfood_", "suffix": ".png"}, "primary": true}], "photos": {"count": 0, "groups": []}}, "referralId": "e-0-4b6ab7c9f964a52050dd2be3-25"}, {"reasons": {"count": 0, "items": [{"summary": "This spot is popular", "type": "general", "reasonName": "globalInteractionReason"}]}, "venue": {"id": "4f8fd15ee4b0324e973e0963", "name": "H K\u00f6rtingstra\u00dfe", "location": {"address": "Gro\u00dfbeerenstr.", "crossStreet": "K\u00f6rtingstr.", "lat": 52.435084007595464, "lng": 13.378313190148763, "labeledLatLngs": [{"label": "display", "lat": 52.435084007595464, "lng": 13.378313190148763}], "distance": 935, "postalCode": "12107", "cc": "DE", "city": "Berlin", "state": "Berlin", "country": "Deutschland", "formattedAddress": ["Gro\u00dfbeerenstr. (K\u00f6rtingstr.)", "12107 Berlin", "Deutschland"]}, "categories": [{"id": "52f2ab2ebcbc57f1066b8b4f", "name": "Bus Stop", "pluralName": "Bus Stops", "shortName": "Bus Stop", "icon": {"prefix": "https://ss3.4sqi.net/img/categories_v2/travel/busstation_", "suffix": ".png"}, "primary": true}], "photos": {"count": 0, "groups": []}}, "referralId": "e-0-4f8fd15ee4b0324e973e0963-26"}, {"reasons": {"count": 0, "items": [{"summary": "This spot is popular", "type": "general", "reasonName": "globalInteractionReason"}]}, "venue": {"id": "55f96361498eab3665122f75", "name": "Deutsche Bank", "location": {"address": "Mariendorfer Damm 69", "lat": 52.4465256643895, "lng": 13.385822889906649, "labeledLatLngs": [{"label": "display", "lat": 52.4465256643895, "lng": 13.385822889906649}], "distance": 956, "postalCode": "12109", "cc": "DE", "city": "Berlin", "state": "Berlin", "country": "Deutschland", "formattedAddress": ["Mariendorfer Damm 69", "12109 Berlin", "Deutschland"]}, "categories": [{"id": "4bf58dd8d48988d10a951735", "name": "Bank", "pluralName": "Banks", "shortName": "Bank", "icon": {"prefix": "https://ss3.4sqi.net/img/categories_v2/shops/financial_", "suffix": ".png"}, "primary": true}], "photos": {"count": 0, "groups": []}}, "referralId": "e-0-55f96361498eab3665122f75-27"}]