[{"reasons": {"count": 0, "items": [{"summary": "This spot is popular", "type": "general", "reasonName": "globalInteractionReason"}]}, "venue": {"id": "4efde78a7ee5f14f38cbc1b8", "name": "B\u00fcrgerpark Marzahn", "location": {"address": "Raoul-Wallenberg-Str", "lat": 52.55078427021014, "lng": 13.56039047241211, "labeledLatLngs": [{"label": "display", "lat": 52.55078427021014, "lng": 13.56039047241211}], "distance": 520, "postalCode": "12687", "cc": "DE", "city": "Berlin", "state": "Berlin", "country": "Deutschland", "formattedAddress": ["Raoul-Wallenberg-Str", "12687 Berlin", "Deutschland"]}, "categories": [{"id": "4bf58dd8d48988d163941735", "name": "Park", "pluralName": "Parks", "shortName": "Park", "icon": {"prefix": "https://ss3.4sqi.net/img/categories_v2/parks_outdoors/park_", "suffix": ".png"}, "primary": true}], "photos": {"count": 0, "groups": []}}, "referralId": "e-0-4efde78a7ee5f14f38cbc1b8-0"}, {"reasons": {"count": 0, "items": [{"summary": "This spot is popular", "type": "general", "reasonName": "globalInteractionReason"}]}, "venue": {"id": "4c77e7341e71a1cd3fee0dea", "name": "Steakhaus Marzahn", "location": {"address": "Mehrower Allee 52", "lat": 52.55585313799364, "lng": 13.567117225044303, "labeledLatLngs": [{"label": "display", "lat": 52.55585313799364, "lng": 13.567117225044303}], "distance": 948, "postalCode": "12687", "cc": "DE", "city": "Berlin", "state": "Berlin", "country": "Deutschland", "formattedAddress": ["Mehrower Allee 52", "12687 Berlin", "Deutschland"]}, "categories": [{"id": "4bf58dd8d48988d1cc941735", "name": "Steakhouse", "pluralName": "Steakhouses", "shortName": "Steakhouse", "icon": {"prefix": "https://ss3.4sqi.net/img/categories_v2/food/steakhouse_", "suffix": ".png"}, "primary": true}], "photos": {"count": 0, "groups": []}}, "referralId": "e-0-4c77e7341e71a1cd3fee0dea-1"}, {"reasons": {"count": 0, "items": [{"summary": "This spot is popular", "type": "general", "reasonName": "globalInteractionReason"}]}, "venue": {"id": "4ed13a194690a03b5e5b86b6", "name": "Lidl", "location": {"address": "M\u00e4rkische Allee 276", "lat": 52.55653307279945, "lng": 13.554398775606842, "labeledLatLngs": [{"label": "display", "lat": 52.55653307279945, "lng": 13.554398775606842}], "distance": 373, "postalCode": "12679", "cc": "DE", "city": "Berlin", "state": "Berlin", "country": "Deutschland", "formattedAddress": ["M\u00e4rkische Allee 276", "12679 Berlin-Marzahn-Hellersdorf", "Deutschland"]}, "categories": [{"id": "52f2ab2ebcbc57f1066b8b46", "name": "Supermarket", "pluralName": "Supermarkets", "shortName": "Supermarket", "icon": {"prefix": "https://ss3.4sqi.net/img/categories_v2/shops/food_grocery_", "suffix": ".png"}, "primary": true}], "photos": {"count": 0, "groups": []}, "venuePage": {"id": "573519422"}}, "referralId": "e-0-4ed13a194690a03b5e5b86b6-2"}, {"reasons": {"count": 0, "items": [{"summary": "This spot is popular", "type": "general", "reasonName": "globalInteractionReason"}]}, "venue": {"id": "4dff82a8b3ad37a601915234", "name": "REWE", "location": {"address": "Mehrower Allee 20", "lat": 52.5557982154873, "lng": 13.559456432292336, "labeledLatLngs": [{"label": "display", "lat": 52.5557982154873, "lng": 13.559456432292336}], "distance": 479, "postalCode": "12687", "cc": "DE", "city": "Berlin", "state": "Berlin", "country": "Deutschland", "formattedAddress": ["Mehrower Allee 20", "12687 Berlin", "Deutschland"]}, "categories": [{"id": "52f2ab2ebcbc57f1066b8b46", "name": "Supermarket", "pluralName": "Supermarkets", "shortName": "Supermarket", "icon": {"prefix": "https://ss3.4sqi.net/img/categories_v2/shops/food_grocery_", "suffix": ".png"}, "primary": true}], "photos": {"count": 0, "groups": []}, "venuePage": {"id": "569681669"}}, "referralId": "e-0-4dff82a8b3ad37a601915234-3"}, {"reasons": {"count": 0, "items": [{"summary": "This spot is popular", "type": "general", "reasonName": "globalInteractionReason"}]}, "venue": {"id": "57754c28498ee025067a519e", "name": "EDEKA Friedrich", "location": {"address": "Raoul-Wallenberg-Stra\u00dfe 18", "crossStreet": "Stolzenhagener Stra\u00dfe", "lat": 52.54887632, "lng": 13.55253682, "labeledLatLngs": [{"label": "display", "lat": 52.54887632, "lng": 13.55253682}], "distance": 488, "postalCode": "12679", "cc": "DE", "city": "Berlin", "state": "Berlin", "country": "Deutschland", "formattedAddress": ["Raoul-Wallenberg-Stra\u00dfe 18 (Stolzenhagener Stra\u00dfe)", "12679 Berlin", "Deutschland"]}, "categories": [{"id": "52f2ab2ebcbc57f1066b8b46", "name": "Supermarket", "pluralName": "Supermarkets", "shortName": "Supermarket", "icon": {"prefix": "https://ss3.4sqi.net/img/categories_v2/shops/food_grocery_", "suffix": ".png"}, "primary": true}], "photos": {"count": 0, "groups": []}, "venuePage": {"id": "552912357"}}, "referralId": "e-0-57754c28498ee025067a519e-4"}, {"reasons": {"count": 0, "items": [{"summary": "This spot is popular", "type": "general", "reasonName": "globalInteractionReason"}]}, "venue": {"id": "4fbe1c07e4b06386c7cf81e8", "name": "Sportplatz 1. FC Nordost Berlin", "location": {"address": "Walter-Felsenstein-Str.", "lat": 52.55334261094373, "lng": 13.555177810322908, "labeledLatLngs": [{"label": "display", "lat": 52.55334261094373, "lng": 13.555177810322908}], "distance": 94, "postalCode": "12687", "cc": "DE", "city": "Berlin", "state": "Berlin", "country": "Deutschland", "formattedAddress": ["Walter-Felsenstein-Str.", "12687 Berlin", "Deutschland"]}, "categories": [{"id": "4cce455aebf7b749d5e191f5", "name": "Soccer Field", "pluralName": "Soccer Fields", "shortName": "Soccer Field", "icon": {"prefix": "https://ss3.4sqi.net/img/categories_v2/arts_entertainment/stadium_soccer_", "suffix": ".png"}, "primary": true}], "photos": {"count": 0, "groups": []}}, "referralId": "e-0-4fbe1c07e4b06386c7cf81e8-5"}, {"reasons": {"count": 0, "items": [{"summary": "This spot is popular", "type": "general", "reasonName": "globalInteractionReason"}]}, "venue": {"id": "4f38d478e4b0653d4c229cf4", "name": "Plaza Marzahn", "location": {"lat": 52.555868340955314, "lng": 13.55874267646654, "labeledLatLngs": [{"label": "display", "lat": 52.555868340955314, "lng": 13.55874267646654}], "distance": 447, "postalCode": "12681", "cc": "DE", "city": "Berlin", "state": "Berlin", "country": "Deutschland", "formattedAddress": ["12681 Berlin", "Deutschland"]}, "categories": [{"id": "4bf58dd8d48988d1fd941735", "name": "Shopping Mall", "pluralName": "Shopping Malls", "shortName": "Mall", "icon": {"prefix": "https://ss3.4sqi.net/img/categories_v2/shops/mall_", "suffix": ".png"}, "primary": true}], "photos": {"count": 0, "groups": []}}, "referralId": "e-0-4f38d478e4b0653d4c229cf4-6"}, {"reasons": {"count": 0, "items": [{"summary": "This spot is popular", "type": "general", "reasonName": "globalInteractionReason"}]}, "venue": {"id": "4c9f84717c096dcb6226dfd1", "name": "McDonald's", "location": {"address": "Bitterfelder Str. 9", "lat": 52.55299972538593, "lng": 13.54375081555803, "labeledLatLngs": [{"label": "display", "lat": 52.55299972538593, "lng": 13.54375081555803}], "distance": 680, "postalCode": "12681", "cc": "DE", "city": "Berlin", "state": "Berlin", "country": "Deutschland", "formattedAddress": ["Bitterfelder Str. 9", "12681 Berlin", "Deutschland"]}, "categories": [{"id": "4bf58dd8d48988d16e941735", "name": "Fast Food Restaurant", "pluralName": "Fast Food Restaurants", "shortName": "Fast Food", "icon": {"prefix": "https://ss3.4sqi.net/img/categories_v2/food/fastfood_", "suffix": ".png"}, "primary": true}], "photos": {"count": 0, "groups": []}}, "referralId": "e-0-4c9f84717c096dcb6226dfd1-7"}, {"reasons": {"count": 0, "items": [{"summary": "This spot is popular", "type": "general", "reasonName": "globalInteractionReason"}]}, "venue": {"id": "4dc95964922edc3cd7db3769", "name": "S Raoul-Wallenberg-Stra\u00dfe", "location": {"address": "M\u00e4rkische Allee", "crossStreet": "Raoul-Wallenberg-Stra\u00dfe", "lat": 52.55039358940471, "lng": 13.547051244596025, "labeledLatLngs": [{"label": "display", "lat": 52.55039358940471, "lng": 13.547051244596025}], "distance": 553, "postalCode": "12681", "cc": "DE", "city": "Berlin", "state": "Berlin", "country": "Deutschland", "formattedAddress": ["M\u00e4rkische Allee (Raoul-Wallenberg-Stra\u00dfe)", "12681 Berlin", "Deutschland"]}, "categories": [{"id": "4bf58dd8d48988d1fc931735", "name": "Light Rail Station", "pluralName": "Light Rail Stations", "shortName": "Light Rail", "icon": {"prefix": "https://ss3.4sqi.net/img/categories_v2/travel/lightrail_", "suffix": ".png"}, "primary": true}], "photos": {"count": 0, "groups": []}}, "referralId": "e-0-4dc95964922edc3cd7db3769-8"}, {"reasons": {"count": 0, "items": [{"summary": "This spot is popular", "type": "general", "reasonName": "globalInteractionReason"}]}, "venue": {"id": "4f6dd650e4b05c9c2b2e2206", "name": "H B\u00fcrgerpark Marzahn", "location": {"address": "Lea-Grundig-Str.", "crossStreet": "Jan-Petersen-Str.", "lat": 52.55039542579791, "lng": 13.56170926462301, "labeledLatLngs": [{"label": "display", "lat": 52.55039542579791, "lng": 13.56170926462301}], "distance": 619, "postalCode": "12679", "cc": "DE", "city": "Berlin", "state": "Berlin", "country": "Deutschland", "formattedAddress": ["Lea-Grundig-Str. (Jan-Petersen-Str.)", "12679 Berlin", "Deutschland"]}, "categories": [{"id": "52f2ab2ebcbc57f1066b8b51", "name": "Tram Station", "pluralName": "Tram Stations", "shortName": "Tram", "icon": {"prefix": "https://ss3.4sqi.net/img/categories_v2/travel/trainstation_", "suffix": ".png"}, "primary": true}], "photos": {"count": 0, "groups": []}}, "referralId": "e-0-4f6dd650e4b05c9c2b2e2206-9"}, {"reasons": {"count": 0, "items": [{"summary": "This spot is popular", "type": "general", "reasonName": "globalInteractionReason"}]}, "venue": {"id": "4b3dce92f964a520ea9625e3", "name": "Griechisches Restaurant Syrtaki", "location": {"address": "M\u00e4rkische Allee 210a", "lat": 52.5486173, "lng": 13.5472012, "labeledLatLngs": [{"label": "display", "lat": 52.5486173, "lng": 13.5472012}], "distance": 678, "postalCode": "12679", "cc": "DE", "city": "Berlin", "state": "Berlin", "country": "Deutschland", "formattedAddress": ["M\u00e4rkische Allee 210a", "12679 Berlin", "Deutschland"]}, "categories": [{"id": "4bf58dd8d48988d10e941735", "name": "Greek Restaurant", "pluralName": "Greek Restaurants", "shortName": "Greek", "icon": {"prefix": "https://ss3.4sqi.net/img/categories_v2/food/greek_", "suffix": ".png"}, "primary": true}], "photos": {"count": 0, "groups": []}, "venuePage": {"id": "558856576"}}, "referralId": "e-0-4b3dce92f964a520ea9625e3-10"}, {"reasons": {"count": 0, "items": [{"summary": "This spot is popular", "type": "general", "reasonName": "globalInteractionReason"}]}, "venue": {"id": "4adcda91f964a5208d4b21e3", "name": "Freizeitforum Marzahn", "location": {"address": "Marzahner Promenade 55", "lat": 52.54674979797156, "lng": 13.556658007551235, "labeledLatLngs": [{"label": "display", "lat": 52.54674979797156, "lng": 13.556658007551235}], "distance": 743, "postalCode": "12679", "cc": "DE", "city": "Berlin", "state": "Berlin", "country": "Deutschland", "formattedAddress": ["Marzahner Promenade 55", "12679 Berlin", "Deutschland"]}, "categories": [{"id": "52e81612bcbc57f1066b7a32", "name": "Cultural Center", "pluralName": "Cultural Centers", "shortName": "Cultural Center", "icon": {"prefix": "https://ss3.4sqi.net/img/categories_v2/building/default_", "suffix": ".png"}, "primary": true}], "photos": {"count": 0, "groups": []}}, "referralId": "e-0-4adcda91f964a5208d4b21e3-11"}, {"reasons": {"count": 0, "items": [{"summary": "This spot is popular", "type": "general", "reasonName": "globalInteractionReason"}]}, "venue": {"id": "5ab78f2b829b0c46791c7bbf", "name": "Victor-Klemperer-Platz", "location": {"lat": 52.5462, "lng": 13.55645, "labeledLatLngs": [{"label": "display", "lat": 52.5462, "lng": 13.55645}], "distance": 799, "cc": "DE", "country": "Deutschland", "formattedAddress": ["Deutschland"]}, "categories": [{"id": "4bf58dd8d48988d164941735", "name": "Plaza", "pluralName": "Plazas", "shortName": "Plaza", "icon": {"prefix": "https://ss3.4sqi.net/img/categories_v2/parks_outdoors/plaza_", "suffix": ".png"}, "primary": true}], "photos": {"count": 0, "groups": []}}, "referralId": "e-0-5ab78f2b829b0c46791c7bbf-12"}, {"reasons": {"count": 0, "items": [{"summary": "This spot is popular", "type": "general", "reasonName": "globalInteractionReason"}]}, "venue": {"id": "4f8dc758e4b0c10a70ef43a0", "name": "H Freizeitforum Marzahn", "location": {"address": "Marzahner Promenade", "crossStreet": "Raoul-Wallenberg-Str.", "lat": 52.54621976196234, "lng": 13.557180272991115, "labeledLatLngs": [{"label": "display", "lat": 52.54621976196234, "lng": 13.557180272991115}], "distance": 809, "postalCode": "12679", "cc": "DE", "city": "Berlin", "state": "Berlin", "country": "Deutschland", "formattedAddress": ["Marzahner Promenade (Raoul-Wallenberg-Str.)", "12679 Berlin", "Deutschland"]}, "categories": [{"id": "52f2ab2ebcbc57f1066b8b51", "name": "Tram Station", "pluralName": "Tram Stations", "shortName": "Tram", "icon": {"prefix": "https://ss3.4sqi.net/img/categories_v2/travel/trainstation_", "suffix": ".png"}, "primary": true}], "photos": {"count": 0, "groups": []}}, "referralId": "e-0-4f8dc758e4b0c10a70ef43a0-13"}, {"reasons": {"count": 0, "items": [{"summary": "This spot is popular", "type": "general", "reasonName": "globalInteractionReason"}]}, "venue": {"id": "517684e7e4b03b4fa2e27f98", "name": "H Max-Hermann-Stra\u00dfe", "location": {"address": "Max-Hermann-Str.", "crossStreet": "Lea-Grundig-Str.", "lat": 52.55416344497505, "lng": 13.565915822982788, "labeledLatLngs": [{"label": "display", "lat": 52.55416344497505, "lng": 13.565915822982788}], "distance": 827, "postalCode": "12687", "cc": "DE", "city": "Berlin", "state": "Berlin", "country": "Deutschland", "formattedAddress": ["Max-Hermann-Str. (Lea-Grundig-Str.)", "12687 Berlin", "Deutschland"]}, "categories": [{"id": "52f2ab2ebcbc57f1066b8b51", "name": "Tram Station", "pluralName": "Tram Stations", "shortName": "Tram", "icon": {"prefix": "https://ss3.4sqi.net/img/categories_v2/travel/trainstation_", "suffix": ".png"}, "primary": true}], "photos": {"count": 0, "groups": []}}, "referralId": "e-0-517684e7e4b03b4fa2e27f98-14"}, {"reasons": {"count": 0, "items": [{"summary": "This spot is popular", "type": "general", "reasonName": "globalInteractionReason"}]}, "venue": {"id": "4bdd8e84d33f2d7f321f8b3c", "name": "H Jan-Petersen-Stra\u00dfe", "location": {"address": "Raoul-Wallenberg-Str.", "crossStreet": "Jan-Petersen-Str.", "lat": 52.547280526764105, "lng": 13.561470317137724, "labeledLatLngs": [{"label": "display", "lat": 52.547280526764105, "lng": 13.561470317137724}], "distance": 838, "postalCode": "12679", "cc": "DE", "city": "Berlin", "state": "Berlin", "country": "Deutschland", "formattedAddress": ["Raoul-Wallenberg-Str. (Jan-Petersen-Str.)", "12679 Berlin", "Deutschland"]}, "categories": [{"id": "52f2ab2ebcbc57f1066b8b51", "name": "Tram Station", "pluralName": "Tram Stations", "shortName": "Tram", "icon": {"prefix": "https://ss3.4sqi.net/img/categories_v2/travel/trainstation_", "suffix": ".png"}, "primary": true}], "photos": {"count": 0, "groups": []}}, "referralId": "e-0-4bdd8e84d33f2d7f321f8b3c-15"}, {"reasons": {"count": 0, "items": [{"summary": "This spot is popular", "type": "general", "reasonName": "globalInteractionReason"}]}, "venue": {"id": "55439185498efb662346ac13", "name": "Eiscaf\u00e9 La Gondola", "location": {"address": "Marzahner Promenade 31", "lat": 52.54490589827296, "lng": 13.549636848026282, "labeledLatLngs": [{"label": "display", "lat": 52.54490589827296, "lng": 13.549636848026282}], "distance": 965, "postalCode": "12679", "cc": "DE", "city": "Berlin", "state": "Berlin", "country": "Deutschland", "formattedAddress": ["Marzahner Promenade 31", "12679 Berlin", "Deutschland"]}, "categories": [{"id": "4bf58dd8d48988d1c9941735", "name": "Ice Cream Shop", "pluralName": "Ice Cream Shops", "shortName": "Ice Cream", "icon": {"prefix": "https://ss3.4sqi.net/img/categories_v2/food/icecream_", "suffix": ".png"}, "primary": true}], "photos": {"count": 0, "groups": []}}, "referralId": "e-0-55439185498efb662346ac13-16"}, {"reasons": {"count": 0, "items": [{"summary": "This spot is popular", "type": "general", "reasonName": "globalInteractionReason"}]}, "venue": {"id": "577f5f74498e7b96dbdc36d8", "name": "Fastpart Kunststofftechnik GmbH", "location": {"address": "Wolfener Str. 37", "lat": 52.5619241, "lng": 13.5523547, "labeledLatLngs": [{"label": "display", "lat": 52.5619241, "lng": 13.5523547}], "distance": 976, "postalCode": "12681", "cc": "DE", "city": "Berlin", "state": "Berlin", "country": "Deutschland", "formattedAddress": ["Wolfener Str. 37", "12681 Berlin", "Deutschland"]}, "categories": [{"id": "4bf58dd8d48988d1ff941735", "name": "Miscellaneous Shop", "pluralName": "Miscellaneous Shops", "shortName": "Shop", "icon": {"prefix": "https://ss3.4sqi.net/img/categories_v2/shops/default_", "suffix": ".png"}, "primary": true}], "photos": {"count": 0, "groups": []}, "venuePage": {"id": "213745643"}}, "referralId": "e-0-577f5f74498e7b96dbdc36d8-17"}]