[{"reasons": {"count": 0, "items": [{"summary": "This spot is popular", "type": "general", "reasonName": "globalInteractionReason"}]}, "venue": {"id": "4bcf621b462cb713aa9ad607", "name": "McFIT Fitnessstudio", "location": {"address": "M\u00e4rkische Allee 160a", "lat": 52.53242162990831, "lng": 13.537355531857429, "labeledLatLngs": [{"label": "display", "lat": 52.53242162990831, "lng": 13.537355531857429}], "distance": 654, "postalCode": "12681", "cc": "DE", "city": "Berlin", "state": "Berlin", "country": "Deutschland", "formattedAddress": ["M\u00e4rkische Allee 160a", "12681 Berlin", "Deutschland"]}, "categories": [{"id": "4bf58dd8d48988d175941735", "name": "Gym / Fitness Center", "pluralName": "Gyms or Fitness Centers", "shortName": "Gym / Fitness", "icon": {"prefix": "https://ss3.4sqi.net/img/categories_v2/building/gym_", "suffix": ".png"}, "primary": true}], "photos": {"count": 0, "groups": []}}, "referralId": "e-0-4bcf621b462cb713aa9ad607-0"}, {"reasons": {"count": 0, "items": [{"summary": "This spot is popular", "type": "general", "reasonName": "globalInteractionReason"}]}, "venue": {"id": "4fcf61113ac6d9ec99036f9e", "name": "Lidl", "location": {"address": "Allee der Kosmonauten 141A", "lat": 52.53183624322365, "lng": 13.548824835597316, "labeledLatLngs": [{"label": "display", "lat": 52.53183624322365, "lng": 13.548824835597316}], "distance": 160, "postalCode": "12683", "cc": "DE", "city": "Berlin", "state": "Berlin", "country": "Deutschland", "formattedAddress": ["Allee der Kosmonauten 141A", "12683 Berlin-Marzahn-Hellersdorf", "Deutschland"]}, "categories": [{"id": "52f2ab2ebcbc57f1066b8b46", "name": "Supermarket", "pluralName": "Supermarkets", "shortName": "Supermarket", "icon": {"prefix": "https://ss3.4sqi.net/img/categories_v2/shops/food_grocery_", "suffix": ".png"}, "primary": true}], "photos": {"count": 0, "groups": []}, "venuePage": {"id": "578520391"}}, "referralId": "e-0-4fcf61113ac6d9ec99036f9e-1"}, {"reasons": {"count": 0, "items": [{"summary": "This spot is popular", "type": "general", "reasonName": "globalInteractionReason"}]}, "venue": {"id": "591ea7afcad1b67547222616", "name": "REWE", "location": {"address": "Helene-Weigel-Platz 1", "lat": 52.52731253166518, "lng": 13.538772813491846, "labeledLatLngs": [{"label": "display", "lat": 52.52731253166518, "lng": 13.538772813491846}], "distance": 687, "postalCode": "12681", "cc": "DE", "city": "Berlin", "state": "Berlin", "country": "Deutschland", "formattedAddress": ["Helene-Weigel-Platz 1", "12681 Berlin", "Deutschland"]}, "categories": [{"id": "52f2ab2ebcbc57f1066b8b46", "name": "Supermarket", "pluralName": "Supermarkets", "shortName": "Supermarket", "icon": {"prefix": "https://ss3.4sqi.net/img/categories_v2/shops/food_grocery_", "suffix": ".png"}, "primary": true}], "photos": {"count": 0, "groups": []}, "venuePage": {"id": "559368871"}}, "referralId": "e-0-591ea7afcad1b67547222616-2"}, {"reasons": {"count": 0, "items": [{"summary": "This spot is popular", "type": "general", "reasonName": "globalInteractionReason"}]}, "venue": {"id": "4f118f2fe4b0aabf17d3dc1b", "name": "Rossmann", "location": {"address": "Helene-Weigel-Platz 1", "lat": 52.52718800907644, "lng": 13.539021227445673, "labeledLatLngs": [{"label": "display", "lat": 52.52718800907644, "lng": 13.539021227445673}], "distance": 683, "postalCode": "12681", "cc": "DE", "city": "Berlin", "state": "Berlin", "country": "Deutschland", "formattedAddress": ["Helene-Weigel-Platz 1", "12681 Berlin", "Deutschland"]}, "categories": [{"id": "5745c2e4498e11e7bccabdbd", "name": "Drugstore", "pluralName": "Drugstores", "shortName": "Drugstore", "icon": {"prefix": "https://ss3.4sqi.net/img/categories_v2/shops/pharmacy_", "suffix": ".png"}, "primary": true}], "photos": {"count": 0, "groups": []}}, "referralId": "e-0-4f118f2fe4b0aabf17d3dc1b-3"}, {"reasons": {"count": 0, "items": [{"summary": "This spot is popular", "type": "general", "reasonName": "globalInteractionReason"}]}, "venue": {"id": "4ec3a8c9cc213c5f1f68ff5e", "name": "Polizeikantine", "location": {"address": "M\u00e4rkische Allee, 12685 Berlin", "lat": 52.535916132186266, "lng": 13.53812989932761, "labeledLatLngs": [{"label": "display", "lat": 52.535916132186266, "lng": 13.53812989932761}], "distance": 793, "postalCode": "12685", "cc": "DE", "city": "Berlin", "state": "Berlin", "country": "Deutschland", "formattedAddress": ["M\u00e4rkische Allee, 12685 Berlin", "12685 Berlin", "Deutschland"]}, "categories": [{"id": "4bf58dd8d48988d10d941735", "name": "German Restaurant", "pluralName": "German Restaurants", "shortName": "German", "icon": {"prefix": "https://ss3.4sqi.net/img/categories_v2/food/german_", "suffix": ".png"}, "primary": true}], "photos": {"count": 0, "groups": []}}, "referralId": "e-0-4ec3a8c9cc213c5f1f68ff5e-4"}, {"reasons": {"count": 0, "items": [{"summary": "This spot is popular", "type": "general", "reasonName": "globalInteractionReason"}]}, "venue": {"id": "4d434ef73616b60c0b38d8c2", "name": "Schwimmhalle am Helene-Weigel-Platz \"Helmut Behrendt\"", "location": {"address": "Helene-Weigel-Platz 8", "lat": 52.52817611880311, "lng": 13.541307901546677, "labeledLatLngs": [{"label": "display", "lat": 52.52817611880311, "lng": 13.541307901546677}], "distance": 494, "postalCode": "12681", "cc": "DE", "city": "Berlin", "state": "Berlin", "country": "Deutschland", "formattedAddress": ["Helene-Weigel-Platz 8", "12681 Berlin", "Deutschland"]}, "categories": [{"id": "4bf58dd8d48988d15e941735", "name": "Pool", "pluralName": "Pools", "shortName": "Pool", "icon": {"prefix": "https://ss3.4sqi.net/img/categories_v2/parks_outdoors/pool_", "suffix": ".png"}, "primary": true}], "photos": {"count": 0, "groups": []}}, "referralId": "e-0-4d434ef73616b60c0b38d8c2-5"}, {"reasons": {"count": 0, "items": [{"summary": "This spot is popular", "type": "general", "reasonName": "globalInteractionReason"}]}, "venue": {"id": "4fcf61193ac6d9ec9903744f", "name": "Lidl", "location": {"address": "M\u00e4rkische Allee 140A", "lat": 52.53077800055679, "lng": 13.537329197436065, "labeledLatLngs": [{"label": "display", "lat": 52.53077800055679, "lng": 13.537329197436065}], "distance": 641, "postalCode": "12681", "cc": "DE", "city": "Berlin", "state": "Berlin", "country": "Deutschland", "formattedAddress": ["M\u00e4rkische Allee 140A", "12681 Berlin-Marzahn-Hellersdorf", "Deutschland"]}, "categories": [{"id": "52f2ab2ebcbc57f1066b8b46", "name": "Supermarket", "pluralName": "Supermarkets", "shortName": "Supermarket", "icon": {"prefix": "https://ss3.4sqi.net/img/categories_v2/shops/food_grocery_", "suffix": ".png"}, "primary": true}], "photos": {"count": 0, "groups": []}, "venuePage": {"id": "577769939"}}, "referralId": "e-0-4fcf61193ac6d9ec9903744f-6"}, {"reasons": {"count": 0, "items": [{"summary": "This spot is popular", "type": "general", "reasonName": "globalInteractionReason"}]}, "venue": {"id": "4b76acf6f964a520d6572ee3", "name": "Kaufland", "location": {"address": "M\u00e4rkische Allee 166 168, 172", "lat": 52.53295226671636, "lng": 13.538185971769428, "labeledLatLngs": [{"label": "display", "lat": 52.53295226671636, "lng": 13.538185971769428}], "distance": 617, "postalCode": "12681", "cc": "DE", "city": "Berlin", "state": "Berlin", "country": "Deutschland", "formattedAddress": ["M\u00e4rkische Allee 166 168, 172", "12681 Berlin", "Deutschland"]}, "categories": [{"id": "52f2ab2ebcbc57f1066b8b42", "name": "Big Box Store", "pluralName": "Big Box Stores", "shortName": "Big Box Store", "icon": {"prefix": "https://ss3.4sqi.net/img/categories_v2/shops/default_", "suffix": ".png"}, "primary": true}], "photos": {"count": 0, "groups": []}, "venuePage": {"id": "455815100"}}, "referralId": "e-0-4b76acf6f964a520d6572ee3-7"}, {"reasons": {"count": 0, "items": [{"summary": "This spot is popular", "type": "general", "reasonName": "globalInteractionReason"}]}, "venue": {"id": "4d97744b647d8cfabda0d53d", "name": "Aral", "location": {"address": "M\u00e4rkische Allee 248", "lat": 52.53199771152978, "lng": 13.536364005246044, "labeledLatLngs": [{"label": "display", "lat": 52.53199771152978, "lng": 13.536364005246044}], "distance": 712, "postalCode": "12679", "cc": "DE", "city": "Berlin", "state": "Berlin", "country": "Deutschland", "formattedAddress": ["M\u00e4rkische Allee 248", "12679 Berlin", "Deutschland"]}, "categories": [{"id": "4bf58dd8d48988d113951735", "name": "Gas Station", "pluralName": "Gas Stations", "shortName": "Gas Station", "icon": {"prefix": "https://ss3.4sqi.net/img/categories_v2/shops/gas_", "suffix": ".png"}, "primary": true}], "photos": {"count": 0, "groups": []}, "venuePage": {"id": "585694126"}}, "referralId": "e-0-4d97744b647d8cfabda0d53d-8"}, {"reasons": {"count": 0, "items": [{"summary": "This spot is popular", "type": "general", "reasonName": "globalInteractionReason"}]}, "venue": {"id": "4db58047a86e8d27079873ec", "name": "REWE", "location": {"address": "Marchwitzastra\u00dfe 29", "lat": 52.5232298319951, "lng": 13.544230748895302, "labeledLatLngs": [{"label": "display", "lat": 52.5232298319951, "lng": 13.544230748895302}], "distance": 894, "postalCode": "12681", "cc": "DE", "city": "Berlin", "state": "Berlin", "country": "Deutschland", "formattedAddress": ["Marchwitzastra\u00dfe 29", "12681 Berlin", "Deutschland"]}, "categories": [{"id": "4bf58dd8d48988d186941735", "name": "Liquor Store", "pluralName": "Liquor Stores", "shortName": "Liquor Store", "icon": {"prefix": "https://ss3.4sqi.net/img/categories_v2/shops/food_liquor_", "suffix": ".png"}, "primary": true}], "photos": {"count": 0, "groups": []}, "venuePage": {"id": "565721465"}}, "referralId": "e-0-4db58047a86e8d27079873ec-9"}, {"reasons": {"count": 0, "items": [{"summary": "This spot is popular", "type": "general", "reasonName": "globalInteractionReason"}]}, "venue": {"id": "4d787312e215721e093412b0", "name": "H Boschpoler Stra\u00dfe", "location": {"address": "Allee der Kosmonauten", "crossStreet": "Boschpoler Str.", "lat": 52.52753400474496, "lng": 13.54869140243606, "labeledLatLngs": [{"label": "display", "lat": 52.52753400474496, "lng": 13.54869140243606}], "distance": 418, "postalCode": "12683", "cc": "DE", "city": "Berlin", "state": "Berlin", "country": "Deutschland", "formattedAddress": ["Allee der Kosmonauten (Boschpoler Str.)", "12683 Berlin", "Deutschland"]}, "categories": [{"id": "52f2ab2ebcbc57f1066b8b51", "name": "Tram Station", "pluralName": "Tram Stations", "shortName": "Tram", "icon": {"prefix": "https://ss3.4sqi.net/img/categories_v2/travel/trainstation_", "suffix": ".png"}, "primary": true}], "photos": {"count": 0, "groups": []}}, "referralId": "e-0-4d787312e215721e093412b0-10"}, {"reasons": {"count": 0, "items": [{"summary": "This spot is popular", "type": "general", "reasonName": "globalInteractionReason"}]}, "venue": {"id": "506842f9e4b0a3e6ed8e41c1", "name": "Sportanlage Cecilienstra\u00dfe", "location": {"address": "Cecilienstr.", "lat": 52.52909630994533, "lng": 13.55374435351447, "labeledLatLngs": [{"label": "display", "lat": 52.52909630994533, "lng": 13.55374435351447}], "distance": 522, "cc": "DE", "city": "Berlin", "state": "Berlin", "country": "Deutschland", "formattedAddress": ["Cecilienstr.", "Berlin", "Deutschland"]}, "categories": [{"id": "4bf58dd8d48988d189941735", "name": "Football Stadium", "pluralName": "Football Stadiums", "shortName": "Football", "icon": {"prefix": "https://ss3.4sqi.net/img/categories_v2/arts_entertainment/stadium_football_", "suffix": ".png"}, "primary": true}], "photos": {"count": 0, "groups": []}}, "referralId": "e-0-506842f9e4b0a3e6ed8e41c1-11"}, {"reasons": {"count": 0, "items": [{"summary": "This spot is popular", "type": "general", "reasonName": "globalInteractionReason"}]}, "venue": {"id": "4cc9b42341e75481451d5e84", "name": "D\u00f6ner Doydoy", "location": {"address": "Allee der Kosmonauten 151", "lat": 52.53427386874056, "lng": 13.552702199220642, "labeledLatLngs": [{"label": "display", "lat": 52.53427386874056, "lng": 13.552702199220642}], "distance": 533, "postalCode": "12685", "cc": "DE", "city": "Berlin", "state": "Berlin", "country": "Deutschland", "formattedAddress": ["Allee der Kosmonauten 151", "12685 Berlin", "Deutschland"]}, "categories": [{"id": "5283c7b4e4b094cb91ec88d8", "name": "Doner Restaurant", "pluralName": "Doner Restaurants", "shortName": "Doner", "icon": {"prefix": "https://ss3.4sqi.net/img/categories_v2/food/turkish_", "suffix": ".png"}, "primary": true}], "photos": {"count": 0, "groups": []}}, "referralId": "e-0-4cc9b42341e75481451d5e84-12"}, {"reasons": {"count": 0, "items": [{"summary": "This spot is popular", "type": "general", "reasonName": "globalInteractionReason"}]}, "venue": {"id": "4d3d608984d46ea82cc0055d", "name": "Netto Marken-Discount", "location": {"address": "Martha-Arendsee-Stra\u00dfe 4", "lat": 52.53490979, "lng": 13.54040411, "labeledLatLngs": [{"label": "display", "lat": 52.53490979, "lng": 13.54040411}], "distance": 604, "postalCode": "12685", "cc": "DE", "city": "Berlin-Marzahn", "state": "Berlin", "country": "Deutschland", "formattedAddress": ["Martha-Arendsee-Stra\u00dfe 4", "12685 Berlin-Marzahn", "Deutschland"]}, "categories": [{"id": "52f2ab2ebcbc57f1066b8b46", "name": "Supermarket", "pluralName": "Supermarkets", "shortName": "Supermarket", "icon": {"prefix": "https://ss3.4sqi.net/img/categories_v2/shops/food_grocery_", "suffix": ".png"}, "primary": true}], "photos": {"count": 0, "groups": []}, "venuePage": {"id": "539781139"}}, "referralId": "e-0-4d3d608984d46ea82cc0055d-13"}, {"reasons": {"count": 0, "items": [{"summary": "This spot is popular", "type": "general", "reasonName": "globalInteractionReason"}]}, "venue": {"id": "4ddd2ab9887775ea9c5171d5", "name": "H Helene-Weigel-Platz", "location": {"address": "Allee der Kosmonauten", "crossStreet": "Helene-Weigel-Platz", "lat": 52.52591519826176, "lng": 13.543020486831665, "labeledLatLngs": [{"label": "display", "lat": 52.52591519826176, "lng": 13.543020486831665}], "distance": 631, "postalCode": "12681", "cc": "DE", "city": "Berlin", "state": "Berlin", "country": "Deutschland", "formattedAddress": ["Allee der Kosmonauten (Helene-Weigel-Platz)", "12681 Berlin", "Deutschland"]}, "categories": [{"id": "52f2ab2ebcbc57f1066b8b51", "name": "Tram Station", "pluralName": "Tram Stations", "shortName": "Tram", "icon": {"prefix": "https://ss3.4sqi.net/img/categories_v2/travel/trainstation_", "suffix": ".png"}, "primary": true}], "photos": {"count": 0, "groups": []}}, "referralId": "e-0-4ddd2ab9887775ea9c5171d5-14"}, {"reasons": {"count": 0, "items": [{"summary": "This spot is popular", "type": "general", "reasonName": "globalInteractionReason"}]}, "venue": {"id": "4ccfe85e6449a0931f32c7cf", "name": "Helene-Weigel-Platz", "location": {"address": "Helene-Weigel-Platz", "lat": 52.52734039539771, "lng": 13.539764322692054, "labeledLatLngs": [{"label": "display", "lat": 52.52734039539771, "lng": 13.539764322692054}], "distance": 633, "postalCode": "12681", "cc": "DE", "city": "Berlin", "state": "Berlin", "country": "Deutschland", "formattedAddress": ["Helene-Weigel-Platz", "12681 Berlin", "Deutschland"]}, "categories": [{"id": "4bf58dd8d48988d164941735", "name": "Plaza", "pluralName": "Plazas", "shortName": "Plaza", "icon": {"prefix": "https://ss3.4sqi.net/img/categories_v2/parks_outdoors/plaza_", "suffix": ".png"}, "primary": true}], "photos": {"count": 0, "groups": []}}, "referralId": "e-0-4ccfe85e6449a0931f32c7cf-15"}, {"reasons": {"count": 0, "items": [{"summary": "This spot is popular", "type": "general", "reasonName": "globalInteractionReason"}]}, "venue": {"id": "4d9c8d76a695721edf46fd0c", "name": "Kaiser's", "location": {"address": "Helene-Weigel-Platz 3", "lat": 52.52729003089626, "lng": 13.539200187932053, "labeledLatLngs": [{"label": "display", "lat": 52.52729003089626, "lng": 13.539200187932053}], "distance": 666, "postalCode": "12681", "cc": "DE", "city": "Berlin", "state": "Berlin", "country": "Deutschland", "formattedAddress": ["Helene-Weigel-Platz 3", "12681 Berlin", "Deutschland"]}, "categories": [{"id": "52f2ab2ebcbc57f1066b8b46", "name": "Supermarket", "pluralName": "Supermarkets", "shortName": "Supermarket", "icon": {"prefix": "https://ss3.4sqi.net/img/categories_v2/shops/food_grocery_", "suffix": ".png"}, "primary": true}], "photos": {"count": 0, "groups": []}}, "referralId": "e-0-4d9c8d76a695721edf46fd0c-16"}, {"reasons": {"count": 0, "items": [{"summary": "This spot is popular", "type": "general", "reasonName": "globalInteractionReason"}]}, "venue": {"id": "4ef647a3469012b8c0197c3c", "name": "Boschpoler Platz", "location": {"lat": 52.52761882992965, "lng": 13.555433750152588, "labeledLatLngs": [{"label": "display", "lat": 52.52761882992965, "lng": 13.555433750152588}], "distance": 703, "cc": "DE", "city": "Berlin", "state": "Berlin", "country": "Deutschland", "formattedAddress": ["Berlin", "Deutschland"]}, "categories": [{"id": "4bf58dd8d48988d163941735", "name": "Park", "pluralName": "Parks", "shortName": "Park", "icon": {"prefix": "https://ss3.4sqi.net/img/categories_v2/parks_outdoors/park_", "suffix": ".png"}, "primary": true}], "photos": {"count": 0, "groups": []}}, "referralId": "e-0-4ef647a3469012b8c0197c3c-17"}, {"reasons": {"count": 0, "items": [{"summary": "This spot is popular", "type": "general", "reasonName": "globalInteractionReason"}]}, "venue": {"id": "4cffb07c181a9eb005e44906", "name": "MediMax", "location": {"address": "M\u00e4rkische Allee 171", "lat": 52.53409333288127, "lng": 13.536272048950195, "labeledLatLngs": [{"label": "display", "lat": 52.53409333288127, "lng": 13.536272048950195}], "distance": 785, "postalCode": "12681", "cc": "DE", "city": "Berlin", "state": "Berlin", "country": "Deutschland", "formattedAddress": ["M\u00e4rkische Allee 171", "12681 Berlin", "Deutschland"]}, "categories": [{"id": "4bf58dd8d48988d122951735", "name": "Electronics Store", "pluralName": "Electronics Stores", "shortName": "Electronics", "icon": {"prefix": "https://ss3.4sqi.net/img/categories_v2/shops/technology_", "suffix": ".png"}, "primary": true}], "photos": {"count": 0, "groups": []}}, "referralId": "e-0-4cffb07c181a9eb005e44906-18"}, {"reasons": {"count": 0, "items": [{"summary": "This spot is popular", "type": "general", "reasonName": "globalInteractionReason"}]}, "venue": {"id": "4b7ba163f964a52039692fe3", "name": "S Springpfuhl", "location": {"address": "M\u00e4rkische Allee", "lat": 52.52654379925982, "lng": 13.537094247699669, "labeledLatLngs": [{"label": "display", "lat": 52.52654379925982, "lng": 13.537094247699669}], "distance": 829, "postalCode": "12681", "cc": "DE", "city": "Berlin", "state": "Berlin", "country": "Deutschland", "formattedAddress": ["M\u00e4rkische Allee", "12681 Berlin", "Deutschland"]}, "categories": [{"id": "4bf58dd8d48988d1fc931735", "name": "Light Rail Station", "pluralName": "Light Rail Stations", "shortName": "Light Rail", "icon": {"prefix": "https://ss3.4sqi.net/img/categories_v2/travel/lightrail_", "suffix": ".png"}, "primary": true}], "photos": {"count": 0, "groups": []}}, "referralId": "e-0-4b7ba163f964a52039692fe3-19"}, {"reasons": {"count": 0, "items": [{"summary": "This spot is popular", "type": "general", "reasonName": "globalInteractionReason"}]}, "venue": {"id": "4b7b9a98f964a5206b682fe3", "name": "H S Springpfuhl", "location": {"address": "Allee der Kosmonauten", "crossStreet": "Marzahner Chaussee", "lat": 52.52574965623469, "lng": 13.536759667154147, "labeledLatLngs": [{"label": "display", "lat": 52.52574965623469, "lng": 13.536759667154147}], "distance": 903, "postalCode": "12681", "cc": "DE", "city": "Berlin", "state": "Berlin", "country": "Deutschland", "formattedAddress": ["Allee der Kosmonauten (Marzahner Chaussee)", "12681 Berlin", "Deutschland"]}, "categories": [{"id": "52f2ab2ebcbc57f1066b8b51", "name": "Tram Station", "pluralName": "Tram Stations", "shortName": "Tram", "icon": {"prefix": "https://ss3.4sqi.net/img/categories_v2/travel/trainstation_", "suffix": ".png"}, "primary": true}], "photos": {"count": 0, "groups": []}}, "referralId": "e-0-4b7b9a98f964a5206b682fe3-20"}, {"reasons": {"count": 0, "items": [{"summary": "This spot is popular", "type": "general", "reasonName": "globalInteractionReason"}]}, "venue": {"id": "4c9e76cf27d3bfb7abda2967", "name": "S Poelchaustra\u00dfe", "location": {"address": "Dahmeweg", "lat": 52.53542596831062, "lng": 13.535370752123429, "labeledLatLngs": [{"label": "display", "lat": 52.53542596831062, "lng": 13.535370752123429}], "distance": 909, "postalCode": "12681", "cc": "DE", "city": "Berlin", "state": "Berlin", "country": "Deutschland", "formattedAddress": ["Dahmeweg", "12681 Berlin", "Deutschland"]}, "categories": [{"id": "4bf58dd8d48988d1fc931735", "name": "Light Rail Station", "pluralName": "Light Rail Stations", "shortName": "Light Rail", "icon": {"prefix": "https://ss3.4sqi.net/img/categories_v2/travel/lightrail_", "suffix": ".png"}, "primary": true}], "photos": {"count": 0, "groups": []}}, "referralId": "e-0-4c9e76cf27d3bfb7abda2967-21"}, {"reasons": {"count": 0, "items": [{"summary": "This spot is popular", "type": "general", "reasonName": "globalInteractionReason"}]}, "venue": {"id": "514f6020e4b09aa6450bd460", "name": "H Elisabethstr. / Oberfeldstr.", "location": {"address": "Elisabethstr.", "lat": 52.53407362540529, "lng": 13.559315303553278, "labeledLatLngs": [{"label": "display", "lat": 52.53407362540529, "lng": 13.559315303553278}], "distance": 910, "postalCode": "12683", "cc": "DE", "city": "Berlin", "state": "Berlin", "country": "Deutschland", "formattedAddress": ["Elisabethstr.", "12683 Berlin", "Deutschland"]}, "categories": [{"id": "52f2ab2ebcbc57f1066b8b4f", "name": "Bus Stop", "pluralName": "Bus Stops", "shortName": "Bus Stop", "icon": {"prefix": "https://ss3.4sqi.net/img/categories_v2/travel/busstation_", "suffix": ".png"}, "primary": true}], "photos": {"count": 0, "groups": []}}, "referralId": "e-0-514f6020e4b09aa6450bd460-22"}, {"reasons": {"count": 0, "items": [{"summary": "This spot is popular", "type": "general", "reasonName": "globalInteractionReason"}]}, "venue": {"id": "4d6de9288df15481da7d7723", "name": "Haltestelle Eitelstra\u00dfe | 192", "location": {"address": "Oberfeldstra\u00dfe", "crossStreet": "Eitelstra\u00dfe", "lat": 52.52491940610724, "lng": 13.5570997281323, "labeledLatLngs": [{"label": "display", "lat": 52.52491940610724, "lng": 13.5570997281323}], "distance": 981, "cc": "DE", "city": "Berlin", "state": "Berlin", "country": "Deutschland", "formattedAddress": ["Oberfeldstra\u00dfe (Eitelstra\u00dfe)", "Berlin", "Deutschland"]}, "categories": [{"id": "52f2ab2ebcbc57f1066b8b4f", "name": "Bus Stop", "pluralName": "Bus Stops", "shortName": "Bus Stop", "icon": {"prefix": "https://ss3.4sqi.net/img/categories_v2/travel/busstation_", "suffix": ".png"}, "primary": true}], "photos": {"count": 0, "groups": []}}, "referralId": "e-0-4d6de9288df15481da7d7723-23"}, {"reasons": {"count": 0, "items": [{"summary": "This spot is popular", "type": "general", "reasonName": "globalInteractionReason"}]}, "venue": {"id": "4b07e61af964a520df0023e3", "name": "POCO Einrichtungsmarkt", "location": {"address": "M\u00e4rkische Allee 161", "lat": 52.53284680419442, "lng": 13.536014556884766, "labeledLatLngs": [{"label": "display", "lat": 52.53284680419442, "lng": 13.536014556884766}], "distance": 754, "postalCode": "12681", "cc": "DE", "city": "Berlin", "state": "Berlin", "country": "Deutschland", "formattedAddress": ["M\u00e4rkische Allee 161", "12681 Berlin", "Deutschland"]}, "categories": [{"id": "4bf58dd8d48988d1f8941735", "name": "Furniture / Home Store", "pluralName": "Furniture / Home Stores", "shortName": "Furniture / Home", "icon": {"prefix": "https://ss3.4sqi.net/img/categories_v2/shops/furniture_", "suffix": ".png"}, "primary": true}], "photos": {"count": 0, "groups": []}}, "referralId": "e-0-4b07e61af964a520df0023e3-24"}, {"reasons": {"count": 0, "items": [{"summary": "This spot is popular", "type": "general", "reasonName": "globalInteractionReason"}]}, "venue": {"id": "4d6254b81496370480fcfc94", "name": "ASB Autohaus Berlin - Volkswagen Zentrum Marzahn", "location": {"address": "Marzahner Chaussee 234", "lat": 52.531097230865164, "lng": 13.53211987098754, "labeledLatLngs": [{"label": "display", "lat": 52.531097230865164, "lng": 13.53211987098754}], "distance": 992, "postalCode": "12681", "cc": "DE", "city": "Berlin", "state": "Berlin", "country": "Deutschland", "formattedAddress": ["Marzahner Chaussee 234", "12681 Berlin", "Deutschland"]}, "categories": [{"id": "4eb1c1623b7b52c0e1adc2ec", "name": "Auto Dealership", "pluralName": "Auto Dealerships", "shortName": "Auto Dealer", "icon": {"prefix": "https://ss3.4sqi.net/img/categories_v2/shops/automotive_", "suffix": ".png"}, "primary": true}], "photos": {"count": 0, "groups": []}}, "referralId": "e-0-4d6254b81496370480fcfc94-25"}]