[{"reasons": {"count": 0, "items": [{"summary": "This spot is popular", "type": "general", "reasonName": "globalInteractionReason"}]}, "venue": {"id": "5872b3c7cf445106b7b48db4", "name": "Caf\u00e9 Friedrichs", "location": {"address": "Mierendorffplatz 2", "crossStreet": "Nordhauser Str.", "lat": 52.52486589999999, "lng": 13.3042568, "labeledLatLngs": [{"label": "display", "lat": 52.52486589999999, "lng": 13.3042568}], "distance": 333, "postalCode": "10589", "cc": "DE", "city": "Berlin", "state": "Berlin", "country": "Deutschland", "formattedAddress": ["Mierendorffplatz 2 (Nordhauser Str.)", "10589 Berlin", "Deutschland"]}, "categories": [{"id": "4bf58dd8d48988d16d941735", "name": "Caf\u00e9", "pluralName": "Caf\u00e9s", "shortName": "Caf\u00e9", "icon": {"prefix": "https://ss3.4sqi.net/img/categories_v2/food/cafe_", "suffix": ".png"}, "primary": true}], "photos": {"count": 0, "groups": []}}, "referralId": "e-0-5872b3c7cf445106b7b48db4-0"}, {"reasons": {"count": 0, "items": [{"summary": "This spot is popular", "type": "general", "reasonName": "globalInteractionReason"}]}, "venue": {"id": "4f1e0eb0e4b072d9c47197fe", "name": "Lasergame Berlin - Hauptquartier", "location": {"address": "Nordhauser Str. 26", "lat": 52.524097463922736, "lng": 13.307422309473955, "labeledLatLngs": [{"label": "display", "lat": 52.524097463922736, "lng": 13.307422309473955}], "distance": 402, "postalCode": "10589", "cc": "DE", "neighborhood": "Charlottenburg", "city": "Berlin", "state": "Berlin", "country": "Deutschland", "formattedAddress": ["Nordhauser Str. 26", "10589 Berlin", "Deutschland"]}, "categories": [{"id": "52e81612bcbc57f1066b79e6", "name": "Laser Tag", "pluralName": "Laser Tag Places", "shortName": "Laser Tag", "icon": {"prefix": "https://ss3.4sqi.net/img/categories_v2/arts_entertainment/default_", "suffix": ".png"}, "primary": true}], "photos": {"count": 0, "groups": []}}, "referralId": "e-0-4f1e0eb0e4b072d9c47197fe-1"}, {"reasons": {"count": 0, "items": [{"summary": "This spot is popular", "type": "general", "reasonName": "globalInteractionReason"}]}, "venue": {"id": "4d07832c9d33a143364ecc78", "name": "H\u00fcco Stoffe", "location": {"address": "Lise-Meitner-Str. 7-9", "lat": 52.52845924653324, "lng": 13.306524413804256, "labeledLatLngs": [{"label": "display", "lat": 52.52845924653324, "lng": 13.306524413804256}], "distance": 95, "postalCode": "10589", "cc": "DE", "city": "Berlin", "state": "Berlin", "country": "Deutschland", "formattedAddress": ["Lise-Meitner-Str. 7-9", "10589 Berlin", "Deutschland"]}, "categories": [{"id": "52f2ab2ebcbc57f1066b8b26", "name": "Fabric Shop", "pluralName": "Fabric Shops", "shortName": "Fabric Shop", "icon": {"prefix": "https://ss3.4sqi.net/img/categories_v2/shops/default_", "suffix": ".png"}, "primary": true}], "photos": {"count": 0, "groups": []}, "venuePage": {"id": "329445376"}}, "referralId": "e-0-4d07832c9d33a143364ecc78-2"}, {"reasons": {"count": 0, "items": [{"summary": "This spot is popular", "type": "general", "reasonName": "globalInteractionReason"}]}, "venue": {"id": "53df676d498efed38c3ab5ae", "name": "Viet Hoang", "location": {"lat": 52.525666, "lng": 13.309212, "labeledLatLngs": [{"label": "display", "lat": 52.525666, "lng": 13.309212}], "distance": 301, "cc": "DE", "city": "Berlin", "state": "Berlin", "country": "Deutschland", "formattedAddress": ["Berlin", "Deutschland"]}, "categories": [{"id": "4bf58dd8d48988d14a941735", "name": "Vietnamese Restaurant", "pluralName": "Vietnamese Restaurants", "shortName": "Vietnamese", "icon": {"prefix": "https://ss3.4sqi.net/img/categories_v2/food/vietnamese_", "suffix": ".png"}, "primary": true}], "photos": {"count": 0, "groups": []}}, "referralId": "e-0-53df676d498efed38c3ab5ae-3"}, {"reasons": {"count": 0, "items": [{"summary": "This spot is popular", "type": "general", "reasonName": "globalInteractionReason"}]}, "venue": {"id": "4adcda83f964a520af4821e3", "name": "Classic Remise Berlin", "location": {"address": "Wiebestr. 36", "crossStreet": "Sickingenstr.", "lat": 52.53026879229302, "lng": 13.318734169006348, "labeledLatLngs": [{"label": "display", "lat": 52.53026879229302, "lng": 13.318734169006348}], "distance": 901, "postalCode": "10553", "cc": "DE", "city": "Berlin", "state": "Berlin", "country": "Deutschland", "formattedAddress": ["Wiebestr. 36 (Sickingenstr.)", "10553 Berlin", "Deutschland"]}, "categories": [{"id": "4bf58dd8d48988d181941735", "name": "Museum", "pluralName": "Museums", "shortName": "Museum", "icon": {"prefix": "https://ss3.4sqi.net/img/categories_v2/arts_entertainment/museum_", "suffix": ".png"}, "primary": true}], "photos": {"count": 0, "groups": []}}, "referralId": "e-0-4adcda83f964a520af4821e3-4"}, {"reasons": {"count": 0, "items": [{"summary": "This spot is popular", "type": "general", "reasonName": "globalInteractionReason"}]}, "venue": {"id": "4adcda7df964a5207b4721e3", "name": "Schlossgarten Charlottenburg", "location": {"address": "Spandauer Damm 10-22", "lat": 52.52499, "lng": 13.293499, "labeledLatLngs": [{"label": "display", "lat": 52.52499, "lng": 13.293499}], "distance": 905, "postalCode": "14059", "cc": "DE", "city": "Berlin", "state": "Berlin", "country": "Deutschland", "formattedAddress": ["Spandauer Damm 10-22", "14059 Berlin", "Deutschland"]}, "categories": [{"id": "4bf58dd8d48988d163941735", "name": "Park", "pluralName": "Parks", "shortName": "Park", "icon": {"prefix": "https://ss3.4sqi.net/img/categories_v2/parks_outdoors/park_", "suffix": ".png"}, "primary": true}], "photos": {"count": 0, "groups": []}}, "referralId": "e-0-4adcda7df964a5207b4721e3-5"}, {"reasons": {"count": 0, "items": [{"summary": "This spot is popular", "type": "general", "reasonName": "globalInteractionReason"}]}, "venue": {"id": "4c040fcf3f03b713aa145241", "name": "REWE", "location": {"address": "S\u00f6mmeringstr. 24-26", "lat": 52.52348579357938, "lng": 13.306713835883556, "labeledLatLngs": [{"label": "display", "lat": 52.52348579357938, "lng": 13.306713835883556}], "distance": 462, "postalCode": "10589", "cc": "DE", "city": "Berlin", "state": "Berlin", "country": "Deutschland", "formattedAddress": ["S\u00f6mmeringstr. 24-26", "10589 Berlin", "Deutschland"]}, "categories": [{"id": "52f2ab2ebcbc57f1066b8b46", "name": "Supermarket", "pluralName": "Supermarkets", "shortName": "Supermarket", "icon": {"prefix": "https://ss3.4sqi.net/img/categories_v2/shops/food_grocery_", "suffix": ".png"}, "primary": true}], "photos": {"count": 0, "groups": []}, "venuePage": {"id": "571672202"}}, "referralId": "e-0-4c040fcf3f03b713aa145241-6"}, {"reasons": {"count": 0, "items": [{"summary": "This spot is popular", "type": "general", "reasonName": "globalInteractionReason"}]}, "venue": {"id": "4d20a3cbbdd7a0936a09efce", "name": "Mr. Wang", "location": {"lat": 52.52410619464294, "lng": 13.301163361015256, "labeledLatLngs": [{"label": "display", "lat": 52.52410619464294, "lng": 13.301163361015256}], "distance": 517, "cc": "DE", "city": "Berlin", "state": "Berlin", "country": "Deutschland", "formattedAddress": ["Berlin", "Deutschland"]}, "categories": [{"id": "4bf58dd8d48988d142941735", "name": "Asian Restaurant", "pluralName": "Asian Restaurants", "shortName": "Asian", "icon": {"prefix": "https://ss3.4sqi.net/img/categories_v2/food/asian_", "suffix": ".png"}, "primary": true}], "photos": {"count": 0, "groups": []}}, "referralId": "e-0-4d20a3cbbdd7a0936a09efce-7"}, {"reasons": {"count": 0, "items": [{"summary": "This spot is popular", "type": "general", "reasonName": "globalInteractionReason"}]}, "venue": {"id": "51cda2c5454a18cc0aa3c1a4", "name": "Zafirah Lounge", "location": {"address": "Mierendorffplatz 11", "lat": 52.52612897176138, "lng": 13.303743302822113, "labeledLatLngs": [{"label": "display", "lat": 52.52612897176138, "lng": 13.303743302822113}], "distance": 233, "postalCode": "10589", "cc": "DE", "city": "Berlin", "state": "Berlin", "country": "Deutschland", "formattedAddress": ["Mierendorffplatz 11", "10589 Berlin", "Deutschland"]}, "categories": [{"id": "4bf58dd8d48988d119941735", "name": "Hookah Bar", "pluralName": "Hookah Bars", "shortName": "Hookah Bar", "icon": {"prefix": "https://ss3.4sqi.net/img/categories_v2/nightlife/hookahbar_", "suffix": ".png"}, "primary": true}], "photos": {"count": 0, "groups": []}, "venuePage": {"id": "66932053"}}, "referralId": "e-0-51cda2c5454a18cc0aa3c1a4-8"}, {"reasons": {"count": 0, "items": [{"summary": "This spot is popular", "type": "general", "reasonName": "globalInteractionReason"}]}, "venue": {"id": "4d9880f697d06ea83bf3340b", "name": "Caprivi", "location": {"address": "Am Spreebord", "crossStreet": "S\u00f6mmeringstra\u00dfe", "lat": 52.52086310226402, "lng": 13.3070714373998, "labeledLatLngs": [{"label": "display", "lat": 52.52086310226402, "lng": 13.3070714373998}], "distance": 755, "postalCode": "10589", "cc": "DE", "city": "Berlin", "state": "Berlin", "country": "Deutschland", "formattedAddress": ["Am Spreebord (S\u00f6mmeringstra\u00dfe)", "10589 Charlottenburg", "Deutschland"]}, "categories": [{"id": "4bf58dd8d48988d117941735", "name": "Beer Garden", "pluralName": "Beer Gardens", "shortName": "Beer Garden", "icon": {"prefix": "https://ss3.4sqi.net/img/categories_v2/nightlife/beergarden_", "suffix": ".png"}, "primary": true}], "photos": {"count": 0, "groups": []}}, "referralId": "e-0-4d9880f697d06ea83bf3340b-9"}, {"reasons": {"count": 0, "items": [{"summary": "This spot is popular", "type": "general", "reasonName": "globalInteractionReason"}]}, "venue": {"id": "4baba4a6f964a5202cbc3ae3", "name": "Brauhaus Lemke am Schloss", "location": {"address": "Luisenplatz 1", "crossStreet": "Otto-Suhr-Allee", "lat": 52.52000745786557, "lng": 13.299829959869385, "labeledLatLngs": [{"label": "display", "lat": 52.52000745786557, "lng": 13.299829959869385}], "distance": 950, "postalCode": "10585", "cc": "DE", "city": "Berlin", "state": "Berlin", "country": "Deutschland", "formattedAddress": ["Luisenplatz 1 (Otto-Suhr-Allee)", "10585 Berlin", "Deutschland"]}, "categories": [{"id": "50327c8591d4c4b30a586d5d", "name": "Brewery", "pluralName": "Breweries", "shortName": "Brewery", "icon": {"prefix": "https://ss3.4sqi.net/img/categories_v2/food/brewery_", "suffix": ".png"}, "primary": true}], "photos": {"count": 0, "groups": []}}, "referralId": "e-0-4baba4a6f964a5202cbc3ae3-10"}, {"reasons": {"count": 0, "items": [{"summary": "This spot is popular", "type": "general", "reasonName": "globalInteractionReason"}]}, "venue": {"id": "4cb5ecc18db0a143cc226616", "name": "Samowar", "location": {"address": "Luisenplatz 3", "lat": 52.52103863445722, "lng": 13.299740826741635, "labeledLatLngs": [{"label": "display", "lat": 52.52103863445722, "lng": 13.299740826741635}], "distance": 852, "postalCode": "10585", "cc": "DE", "city": "Charlottenburg", "state": "Berlin", "country": "Deutschland", "formattedAddress": ["Luisenplatz 3", "10585 Charlottenburg", "Deutschland"]}, "categories": [{"id": "5293a7563cf9994f4e043a44", "name": "Russian Restaurant", "pluralName": "Russian Restaurants", "shortName": "Russian", "icon": {"prefix": "https://ss3.4sqi.net/img/categories_v2/food/russian_", "suffix": ".png"}, "primary": true}], "photos": {"count": 0, "groups": []}}, "referralId": "e-0-4cb5ecc18db0a143cc226616-11"}, {"reasons": {"count": 0, "items": [{"summary": "This spot is popular", "type": "general", "reasonName": "globalInteractionReason"}]}, "venue": {"id": "4b86b035f964a5205f9631e3", "name": "Musik Z Cafe", "location": {"address": "Mierendorfstra\u00dfe", "lat": 52.524596398942094, "lng": 13.302840483744465, "labeledLatLngs": [{"label": "display", "lat": 52.524596398942094, "lng": 13.302840483744465}], "distance": 405, "postalCode": "10589", "cc": "DE", "city": "Berlin", "state": "Berlin", "country": "Deutschland", "formattedAddress": ["Mierendorfstra\u00dfe", "10589 Berlin", "Deutschland"]}, "categories": [{"id": "4bf58dd8d48988d116941735", "name": "Bar", "pluralName": "Bars", "shortName": "Bar", "icon": {"prefix": "https://ss3.4sqi.net/img/categories_v2/nightlife/pub_", "suffix": ".png"}, "primary": true}], "photos": {"count": 0, "groups": []}}, "referralId": "e-0-4b86b035f964a5205f9631e3-12"}, {"reasons": {"count": 0, "items": [{"summary": "This spot is popular", "type": "general", "reasonName": "globalInteractionReason"}]}, "venue": {"id": "4ba9f5abf964a520e83f3ae3", "name": "Ristorante Dante", "location": {"address": "Tegeler Weg 16", "lat": 52.526276395117634, "lng": 13.297480051671993, "labeledLatLngs": [{"label": "display", "lat": 52.526276395117634, "lng": 13.297480051671993}], "distance": 606, "postalCode": "10589", "cc": "DE", "city": "Berlin", "state": "Berlin", "country": "Deutschland", "formattedAddress": ["Tegeler Weg 16", "10589 Berlin", "Deutschland"]}, "categories": [{"id": "4bf58dd8d48988d110941735", "name": "Italian Restaurant", "pluralName": "Italian Restaurants", "shortName": "Italian", "icon": {"prefix": "https://ss3.4sqi.net/img/categories_v2/food/italian_", "suffix": ".png"}, "primary": true}], "photos": {"count": 0, "groups": []}}, "referralId": "e-0-4ba9f5abf964a520e83f3ae3-13"}, {"reasons": {"count": 0, "items": [{"summary": "This spot is popular", "type": "general", "reasonName": "globalInteractionReason"}]}, "venue": {"id": "4f64b7e1e4b041039deac6b4", "name": "Ristorante Daniele", "location": {"address": "Otto-Suhr-Allee 144", "lat": 52.519464379436954, "lng": 13.300259177249677, "labeledLatLngs": [{"label": "display", "lat": 52.519464379436954, "lng": 13.300259177249677}], "distance": 992, "postalCode": "10585", "cc": "DE", "neighborhood": "Charlottenburg", "city": "Berlin", "state": "Berlin", "country": "Deutschland", "formattedAddress": ["Otto-Suhr-Allee 144", "10585 Berlin", "Deutschland"]}, "categories": [{"id": "4bf58dd8d48988d110941735", "name": "Italian Restaurant", "pluralName": "Italian Restaurants", "shortName": "Italian", "icon": {"prefix": "https://ss3.4sqi.net/img/categories_v2/food/italian_", "suffix": ".png"}, "primary": true}], "photos": {"count": 0, "groups": []}}, "referralId": "e-0-4f64b7e1e4b041039deac6b4-14"}, {"reasons": {"count": 0, "items": [{"summary": "This spot is popular", "type": "general", "reasonName": "globalInteractionReason"}]}, "venue": {"id": "4dee595b31516bf7a047b169", "name": "Belvedere", "location": {"address": "Spandauer Damm 10-22", "lat": 52.52756734529345, "lng": 13.295474551659012, "labeledLatLngs": [{"label": "display", "lat": 52.52756734529345, "lng": 13.295474551659012}], "distance": 722, "postalCode": "14059", "cc": "DE", "city": "Berlin", "state": "Berlin", "country": "Deutschland", "formattedAddress": ["Spandauer Damm 10-22", "14059 Berlin", "Deutschland"]}, "categories": [{"id": "4bf58dd8d48988d181941735", "name": "Museum", "pluralName": "Museums", "shortName": "Museum", "icon": {"prefix": "https://ss3.4sqi.net/img/categories_v2/arts_entertainment/museum_", "suffix": ".png"}, "primary": true}], "photos": {"count": 0, "groups": []}}, "referralId": "e-0-4dee595b31516bf7a047b169-15"}, {"reasons": {"count": 0, "items": [{"summary": "This spot is popular", "type": "general", "reasonName": "globalInteractionReason"}]}, "venue": {"id": "4adcda90f964a5204c4b21e3", "name": "Wein & Vinos", "location": {"address": "Knesebeckstr. 86", "lat": 52.53124508341322, "lng": 13.315170442828464, "labeledLatLngs": [{"label": "display", "lat": 52.53124508341322, "lng": 13.315170442828464}], "distance": 731, "postalCode": "10623", "cc": "DE", "neighborhood": "Charlottenburg", "city": "Berlin", "state": "Berlin", "country": "Deutschland", "formattedAddress": ["Knesebeckstr. 86", "10623 Berlin", "Deutschland"]}, "categories": [{"id": "4bf58dd8d48988d119951735", "name": "Wine Shop", "pluralName": "Wine Shops", "shortName": "Wine Shop", "icon": {"prefix": "https://ss3.4sqi.net/img/categories_v2/shops/food_wineshop_", "suffix": ".png"}, "primary": true}], "photos": {"count": 0, "groups": []}}, "referralId": "e-0-4adcda90f964a5204c4b21e3-16"}, {"reasons": {"count": 0, "items": [{"summary": "This spot is popular", "type": "general", "reasonName": "globalInteractionReason"}]}, "venue": {"id": "4bc2ff6f461576b0e0007e32", "name": "Timeless", "location": {"address": "Kaiserin-Augusta-Allee 92", "lat": 52.52570773585907, "lng": 13.311762702093581, "labeledLatLngs": [{"label": "display", "lat": 52.52570773585907, "lng": 13.311762702093581}], "distance": 436, "postalCode": "10589", "cc": "DE", "city": "Berlin", "state": "Berlin", "country": "Deutschland", "formattedAddress": ["Kaiserin-Augusta-Allee 92", "10589 Berlin", "Deutschland"]}, "categories": [{"id": "4bf58dd8d48988d1c1941735", "name": "Mexican Restaurant", "pluralName": "Mexican Restaurants", "shortName": "Mexican", "icon": {"prefix": "https://ss3.4sqi.net/img/categories_v2/food/mexican_", "suffix": ".png"}, "primary": true}], "photos": {"count": 0, "groups": []}}, "referralId": "e-0-4bc2ff6f461576b0e0007e32-17"}, {"reasons": {"count": 0, "items": [{"summary": "This spot is popular", "type": "general", "reasonName": "globalInteractionReason"}]}, "venue": {"id": "4cd95ca61647a093537be64c", "name": "EDEKA", "location": {"address": "Tauroggenerstr.", "crossStreet": "Osnabr\u00fccker Str.", "lat": 52.52577369462599, "lng": 13.301872759717963, "labeledLatLngs": [{"label": "display", "lat": 52.52577369462599, "lng": 13.301872759717963}], "distance": 355, "postalCode": "10589", "cc": "DE", "city": "Berlin", "state": "Berlin", "country": "Deutschland", "formattedAddress": ["Tauroggenerstr. (Osnabr\u00fccker Str.)", "10589 Berlin", "Deutschland"]}, "categories": [{"id": "52f2ab2ebcbc57f1066b8b46", "name": "Supermarket", "pluralName": "Supermarkets", "shortName": "Supermarket", "icon": {"prefix": "https://ss3.4sqi.net/img/categories_v2/shops/food_grocery_", "suffix": ".png"}, "primary": true}], "photos": {"count": 0, "groups": []}}, "referralId": "e-0-4cd95ca61647a093537be64c-18"}, {"reasons": {"count": 0, "items": [{"summary": "This spot is popular", "type": "general", "reasonName": "globalInteractionReason"}]}, "venue": {"id": "4ddb8753d4c009d3c589f8c6", "name": "Lidl", "location": {"address": "Lise-Meitner-Str. 6", "lat": 52.52783429999999, "lng": 13.3075584, "labeledLatLngs": [{"label": "display", "lat": 52.52783429999999, "lng": 13.3075584}], "distance": 98, "postalCode": "10589", "cc": "DE", "city": "Berlin", "state": "Berlin", "country": "Deutschland", "formattedAddress": ["Lise-Meitner-Str. 6", "10589 Berlin-Charlottenburg-Wilmersdorf", "Deutschland"]}, "categories": [{"id": "52f2ab2ebcbc57f1066b8b46", "name": "Supermarket", "pluralName": "Supermarkets", "shortName": "Supermarket", "icon": {"prefix": "https://ss3.4sqi.net/img/categories_v2/shops/food_grocery_", "suffix": ".png"}, "primary": true}], "photos": {"count": 0, "groups": []}, "venuePage": {"id": "574013384"}}, "referralId": "e-0-4ddb8753d4c009d3c589f8c6-19"}, {"reasons": {"count": 0, "items": [{"summary": "This spot is popular", "type": "general", "reasonName": "globalInteractionReason"}]}, "venue": {"id": "50538d40e4b0d211cfe1c8b1", "name": "Phan Gia", "location": {"address": "Kaiserin-Augusta-Allee 31", "lat": 52.52553171048029, "lng": 13.306076532937752, "labeledLatLngs": [{"label": "display", "lat": 52.52553171048029, "lng": 13.306076532937752}], "distance": 233, "postalCode": "10589", "cc": "DE", "city": "Berlin", "state": "Berlin", "country": "Deutschland", "formattedAddress": ["Kaiserin-Augusta-Allee 31", "10589 Berlin", "Deutschland"]}, "categories": [{"id": "4bf58dd8d48988d142941735", "name": "Asian Restaurant", "pluralName": "Asian Restaurants", "shortName": "Asian", "icon": {"prefix": "https://ss3.4sqi.net/img/categories_v2/food/asian_", "suffix": ".png"}, "primary": true}], "photos": {"count": 0, "groups": []}}, "referralId": "e-0-50538d40e4b0d211cfe1c8b1-20"}, {"reasons": {"count": 0, "items": [{"summary": "This spot is popular", "type": "general", "reasonName": "globalInteractionReason"}]}, "venue": {"id": "518f74c1498e80c1aa14f04e", "name": "\u00d6sterreich Park", "location": {"lat": 52.52179857110962, "lng": 13.30451087523427, "labeledLatLngs": [{"label": "display", "lat": 52.52179857110962, "lng": 13.30451087523427}], "distance": 658, "cc": "DE", "city": "Berlin", "state": "Berlin", "country": "Deutschland", "formattedAddress": ["Berlin", "Deutschland"]}, "categories": [{"id": "4bf58dd8d48988d163941735", "name": "Park", "pluralName": "Parks", "shortName": "Park", "icon": {"prefix": "https://ss3.4sqi.net/img/categories_v2/parks_outdoors/park_", "suffix": ".png"}, "primary": true}], "photos": {"count": 0, "groups": []}}, "referralId": "e-0-518f74c1498e80c1aa14f04e-21"}, {"reasons": {"count": 0, "items": [{"summary": "This spot is popular", "type": "general", "reasonName": "globalInteractionReason"}]}, "venue": {"id": "4b433908f964a5202edd25e3", "name": "Coffeemeer", "location": {"address": "Mierendorffplatz 5", "lat": 52.52503328882538, "lng": 13.303625971170897, "labeledLatLngs": [{"label": "display", "lat": 52.52503328882538, "lng": 13.303625971170897}], "distance": 335, "postalCode": "10589", "cc": "DE", "city": "Berlin", "state": "Berlin", "country": "Deutschland", "formattedAddress": ["Mierendorffplatz 5", "10589 Berlin", "Deutschland"]}, "categories": [{"id": "4bf58dd8d48988d1e0931735", "name": "Coffee Shop", "pluralName": "Coffee Shops", "shortName": "Coffee Shop", "icon": {"prefix": "https://ss3.4sqi.net/img/categories_v2/food/coffeeshop_", "suffix": ".png"}, "primary": true}], "photos": {"count": 0, "groups": []}}, "referralId": "e-0-4b433908f964a5202edd25e3-22"}, {"reasons": {"count": 0, "items": [{"summary": "This spot is popular", "type": "general", "reasonName": "globalInteractionReason"}]}, "venue": {"id": "50cc5038498ee21acea71781", "name": "Exklusive Coffee", "location": {"address": "Kaiserin-Augsta-Alle 101", "lat": 52.52506257404579, "lng": 13.319791024952346, "labeledLatLngs": [{"label": "display", "lat": 52.52506257404579, "lng": 13.319791024952346}], "distance": 967, "cc": "DE", "city": "Berlin", "state": "Berlin", "country": "Deutschland", "formattedAddress": ["Kaiserin-Augsta-Alle 101", "Berlin", "Deutschland"]}, "categories": [{"id": "4bf58dd8d48988d1e0931735", "name": "Coffee Shop", "pluralName": "Coffee Shops", "shortName": "Coffee Shop", "icon": {"prefix": "https://ss3.4sqi.net/img/categories_v2/food/coffeeshop_", "suffix": ".png"}, "primary": true}], "photos": {"count": 0, "groups": []}}, "referralId": "e-0-50cc5038498ee21acea71781-23"}, {"reasons": {"count": 0, "items": [{"summary": "This spot is popular", "type": "general", "reasonName": "globalInteractionReason"}]}, "venue": {"id": "4ddcdc70fa766a6d794536d4", "name": "Mierendorffplatz", "location": {"address": "Keplerstr.", "crossStreet": "Brahestr.", "lat": 52.52607838423332, "lng": 13.30516219139099, "labeledLatLngs": [{"label": "display", "lat": 52.52607838423332, "lng": 13.30516219139099}], "distance": 185, "postalCode": "10589", "cc": "DE", "city": "Berlin", "state": "Berlin", "country": "Deutschland", "formattedAddress": ["Keplerstr. (Brahestr.)", "10589 Berlin", "Deutschland"]}, "categories": [{"id": "4bf58dd8d48988d164941735", "name": "Plaza", "pluralName": "Plazas", "shortName": "Plaza", "icon": {"prefix": "https://ss3.4sqi.net/img/categories_v2/parks_outdoors/plaza_", "suffix": ".png"}, "primary": true}], "photos": {"count": 0, "groups": []}}, "referralId": "e-0-4ddcdc70fa766a6d794536d4-24"}, {"reasons": {"count": 0, "items": [{"summary": "This spot is popular", "type": "general", "reasonName": "globalInteractionReason"}]}, "venue": {"id": "552813c3498e37eed87f8340", "name": "da Capo", "location": {"lat": 52.522811118851436, "lng": 13.30013936546013, "labeledLatLngs": [{"label": "display", "lat": 52.522811118851436, "lng": 13.30013936546013}], "distance": 673, "cc": "DE", "city": "Berlin", "state": "Berlin", "country": "Deutschland", "formattedAddress": ["Berlin", "Deutschland"]}, "categories": [{"id": "4bf58dd8d48988d110941735", "name": "Italian Restaurant", "pluralName": "Italian Restaurants", "shortName": "Italian", "icon": {"prefix": "https://ss3.4sqi.net/img/categories_v2/food/italian_", "suffix": ".png"}, "primary": true}], "photos": {"count": 0, "groups": []}}, "referralId": "e-0-552813c3498e37eed87f8340-25"}, {"reasons": {"count": 0, "items": [{"summary": "This spot is popular", "type": "general", "reasonName": "globalInteractionReason"}]}, "venue": {"id": "4d299ca0849f3704d1508041", "name": "Sporthalle Charlottenburg", "location": {"address": "S\u00f6mmeringstra\u00dfe", "lat": 52.523570878468895, "lng": 13.3054552830595, "labeledLatLngs": [{"label": "display", "lat": 52.523570878468895, "lng": 13.3054552830595}], "distance": 454, "cc": "DE", "city": "Berlin", "state": "Berlin", "country": "Deutschland", "formattedAddress": ["S\u00f6mmeringstra\u00dfe", "Berlin", "Deutschland"]}, "categories": [{"id": "4bf58dd8d48988d176941735", "name": "Gym", "pluralName": "Gyms", "shortName": "Gym", "icon": {"prefix": "https://ss3.4sqi.net/img/categories_v2/building/gym_", "suffix": ".png"}, "primary": true}], "photos": {"count": 0, "groups": []}}, "referralId": "e-0-4d299ca0849f3704d1508041-26"}, {"reasons": {"count": 0, "items": [{"summary": "This spot is popular", "type": "general", "reasonName": "globalInteractionReason"}]}, "venue": {"id": "553fbd93498ef9c5a194e0a0", "name": "Caf\u00e9 La Mouche", "location": {"address": "Charlottenburger Ufer 1", "lat": 52.521314871809274, "lng": 13.299804886716798, "labeledLatLngs": [{"label": "display", "lat": 52.521314871809274, "lng": 13.299804886716798}], "distance": 823, "postalCode": "10587", "cc": "DE", "city": "Berlin", "state": "Berlin", "country": "Deutschland", "formattedAddress": ["Charlottenburger Ufer 1", "10587 Berlin", "Deutschland"]}, "categories": [{"id": "4bf58dd8d48988d16d941735", "name": "Caf\u00e9", "pluralName": "Caf\u00e9s", "shortName": "Caf\u00e9", "icon": {"prefix": "https://ss3.4sqi.net/img/categories_v2/food/cafe_", "suffix": ".png"}, "primary": true}], "photos": {"count": 0, "groups": []}, "venuePage": {"id": "151281251"}}, "referralId": "e-0-553fbd93498ef9c5a194e0a0-27"}, {"reasons": {"count": 0, "items": [{"summary": "This spot is popular", "type": "general", "reasonName": "globalInteractionReason"}]}, "venue": {"id": "4b73f963f964a52038c22de3", "name": "Fressnapf", "location": {"address": "Treseburger Str. 2", "lat": 52.5235576, "lng": 13.3093235, "labeledLatLngs": [{"label": "display", "lat": 52.5235576, "lng": 13.3093235}], "distance": 501, "postalCode": "10589", "cc": "DE", "city": "Berlin", "state": "Berlin", "country": "Deutschland", "formattedAddress": ["Treseburger Str. 2", "10589 Berlin", "Deutschland"]}, "categories": [{"id": "4bf58dd8d48988d100951735", "name": "Pet Store", "pluralName": "Pet Stores", "shortName": "Pet Store", "icon": {"prefix": "https://ss3.4sqi.net/img/categories_v2/shops/pet_store_", "suffix": ".png"}, "primary": true}], "photos": {"count": 0, "groups": []}, "venuePage": {"id": "473699028"}}, "referralId": "e-0-4b73f963f964a52038c22de3-28"}, {"reasons": {"count": 0, "items": [{"summary": "This spot is popular", "type": "general", "reasonName": "globalInteractionReason"}]}, "venue": {"id": "4adcda70f964a520024521e3", "name": "GOLD INN Alfa", "location": {"address": "Ufnaustr. 1", "lat": 52.52906187045921, "lng": 13.317359852624369, "labeledLatLngs": [{"label": "display", "lat": 52.52906187045921, "lng": 13.317359852624369}], "distance": 775, "postalCode": "10553", "cc": "DE", "city": "Berlin", "state": "Berlin", "country": "Deutschland", "formattedAddress": ["Ufnaustr. 1", "10553 Berlin", "Deutschland"]}, "categories": [{"id": "4bf58dd8d48988d1fa931735", "name": "Hotel", "pluralName": "Hotels", "shortName": "Hotel", "icon": {"prefix": "https://ss3.4sqi.net/img/categories_v2/travel/hotel_", "suffix": ".png"}, "primary": true}], "photos": {"count": 0, "groups": []}, "venuePage": {"id": "101532139"}}, "referralId": "e-0-4adcda70f964a520024521e3-29"}, {"reasons": {"count": 0, "items": [{"summary": "This spot is popular", "type": "general", "reasonName": "globalInteractionReason"}]}, "venue": {"id": "4e0ef475e4cd27fc7d3492a2", "name": "Wochenmarkt am Mierendorffplatz", "location": {"address": "Mierendorffplatz 4", "lat": 52.52535941155594, "lng": 13.30415641132711, "labeledLatLngs": [{"label": "display", "lat": 52.52535941155594, "lng": 13.30415641132711}], "distance": 286, "postalCode": "10589", "cc": "DE", "city": "Berlin", "state": "Berlin", "country": "Deutschland", "formattedAddress": ["Mierendorffplatz 4", "10589 Berlin", "Deutschland"]}, "categories": [{"id": "4bf58dd8d48988d1fa941735", "name": "Farmers Market", "pluralName": "Farmers Markets", "shortName": "Farmer's Market", "icon": {"prefix": "https://ss3.4sqi.net/img/categories_v2/shops/food_farmersmarket_", "suffix": ".png"}, "primary": true}], "photos": {"count": 0, "groups": []}}, "referralId": "e-0-4e0ef475e4cd27fc7d3492a2-30"}, {"reasons": {"count": 0, "items": [{"summary": "This spot is popular", "type": "general", "reasonName": "globalInteractionReason"}]}, "venue": {"id": "4ba7122cf964a520557f39e3", "name": "ECONTEL HOTEL", "location": {"address": "S\u00f6mmeringstr. 24-26", "lat": 52.52339618318364, "lng": 13.306208607470733, "labeledLatLngs": [{"label": "display", "lat": 52.52339618318364, "lng": 13.306208607470733}], "distance": 471, "postalCode": "10589", "cc": "DE", "city": "Berlin", "state": "Berlin", "country": "Deutschland", "formattedAddress": ["S\u00f6mmeringstr. 24-26", "10589 Berlin", "Deutschland"]}, "categories": [{"id": "4bf58dd8d48988d1fa931735", "name": "Hotel", "pluralName": "Hotels", "shortName": "Hotel", "icon": {"prefix": "https://ss3.4sqi.net/img/categories_v2/travel/hotel_", "suffix": ".png"}, "primary": true}], "photos": {"count": 0, "groups": []}}, "referralId": "e-0-4ba7122cf964a520557f39e3-31"}, {"reasons": {"count": 0, "items": [{"summary": "This spot is popular", "type": "general", "reasonName": "globalInteractionReason"}]}, "venue": {"id": "58369b43de0cbc3f3305b3d0", "name": "Gleis 5/6 (S-Bahn)", "location": {"address": "Bahnhof Berlin Jungfernheide", "lat": 52.530395474747884, "lng": 13.299930088723114, "labeledLatLngs": [{"label": "display", "lat": 52.530395474747884, "lng": 13.299930088723114}], "distance": 521, "postalCode": "10589", "cc": "DE", "city": "Berlin", "state": "Berlin", "country": "Deutschland", "formattedAddress": ["Bahnhof Berlin Jungfernheide", "10589 Berlin", "Deutschland"]}, "categories": [{"id": "4f4531504b9074f6e4fb0102", "name": "Platform", "pluralName": "Platforms", "shortName": "Platform", "icon": {"prefix": "https://ss3.4sqi.net/img/categories_v2/travel/trainstation_", "suffix": ".png"}, "primary": true}], "photos": {"count": 0, "groups": []}}, "referralId": "e-0-58369b43de0cbc3f3305b3d0-32"}, {"reasons": {"count": 0, "items": [{"summary": "This spot is popular", "type": "general", "reasonName": "globalInteractionReason"}]}, "venue": {"id": "584596c55da8f471f2b865c3", "name": "Cuccis Jungfernheide", "location": {"lat": 52.53044, "lng": 13.299953, "labeledLatLngs": [{"label": "display", "lat": 52.53044, "lng": 13.299953}], "distance": 523, "postalCode": "10589", "cc": "DE", "city": "Berlin", "state": "Berlin", "country": "Deutschland", "formattedAddress": ["10589 Berlin", "Deutschland"]}, "categories": [{"id": "4bf58dd8d48988d1c5941735", "name": "Sandwich Place", "pluralName": "Sandwich Places", "shortName": "Sandwiches", "icon": {"prefix": "https://ss3.4sqi.net/img/categories_v2/food/deli_", "suffix": ".png"}, "primary": true}], "photos": {"count": 0, "groups": []}}, "referralId": "e-0-584596c55da8f471f2b865c3-33"}, {"reasons": {"count": 0, "items": [{"summary": "This spot is popular", "type": "general", "reasonName": "globalInteractionReason"}]}, "venue": {"id": "5108ddf0e4b082fec8e23f24", "name": "Gahrens + Battermann", "location": {"address": "Gau\u00dfstr. 1", "lat": 52.5310672908759, "lng": 13.31184565402779, "labeledLatLngs": [{"label": "display", "lat": 52.5310672908759, "lng": 13.31184565402779}], "distance": 543, "postalCode": "10589", "cc": "DE", "city": "Berlin", "state": "Berlin", "country": "Deutschland", "formattedAddress": ["Gau\u00dfstr. 1", "10589 Berlin", "Deutschland"]}, "categories": [{"id": "4bf58dd8d48988d122951735", "name": "Electronics Store", "pluralName": "Electronics Stores", "shortName": "Electronics", "icon": {"prefix": "https://ss3.4sqi.net/img/categories_v2/shops/technology_", "suffix": ".png"}, "primary": true}], "photos": {"count": 0, "groups": []}}, "referralId": "e-0-5108ddf0e4b082fec8e23f24-34"}, {"reasons": {"count": 0, "items": [{"summary": "This spot is popular", "type": "general", "reasonName": "globalInteractionReason"}]}, "venue": {"id": "4d7f636e3e50b1f788a1dbd3", "name": "Curry K\u00f6nig", "location": {"address": "Max Dohrn Strasse 5", "lat": 52.53084128489624, "lng": 13.299841217275922, "labeledLatLngs": [{"label": "display", "lat": 52.53084128489624, "lng": 13.299841217275922}], "distance": 557, "cc": "DE", "city": "Berlin", "state": "Berlin", "country": "Deutschland", "formattedAddress": ["Max Dohrn Strasse 5", "Berlin", "Deutschland"]}, "categories": [{"id": "4bf58dd8d48988d16e941735", "name": "Fast Food Restaurant", "pluralName": "Fast Food Restaurants", "shortName": "Fast Food", "icon": {"prefix": "https://ss3.4sqi.net/img/categories_v2/food/fastfood_", "suffix": ".png"}, "primary": true}], "photos": {"count": 0, "groups": []}}, "referralId": "e-0-4d7f636e3e50b1f788a1dbd3-35"}, {"reasons": {"count": 0, "items": [{"summary": "This spot is popular", "type": "general", "reasonName": "globalInteractionReason"}]}, "venue": {"id": "53b5289d498e31f84ce8d12e", "name": "Reederei Wolff (RRW) - Schiffahrt Berlin", "location": {"address": "Tegeler Weg 80", "lat": 52.52719759785015, "lng": 13.296925877553898, "labeledLatLngs": [{"label": "display", "lat": 52.52719759785015, "lng": 13.296925877553898}], "distance": 626, "postalCode": "10589", "cc": "DE", "city": "Berlin", "state": "Berlin", "country": "Deutschland", "formattedAddress": ["Tegeler Weg 80", "10589 Berlin", "Deutschland"]}, "categories": [{"id": "4bf58dd8d48988d12d951735", "name": "Boat or Ferry", "pluralName": "Boats or Ferries", "shortName": "Boat / Ferry", "icon": {"prefix": "https://ss3.4sqi.net/img/categories_v2/travel/boat_", "suffix": ".png"}, "primary": true}], "photos": {"count": 0, "groups": []}}, "referralId": "e-0-53b5289d498e31f84ce8d12e-36"}, {"reasons": {"count": 0, "items": [{"summary": "This spot is popular", "type": "general", "reasonName": "globalInteractionReason"}]}, "venue": {"id": "51e3c343498e559709acf5ed", "name": "H Tegeler Weg / S Jungfernheide", "location": {"address": "Tegeler Weg", "crossStreet": "Max-Dohrn-Str.", "lat": 52.530291378847494, "lng": 13.29635523235054, "labeledLatLngs": [{"label": "display", "lat": 52.530291378847494, "lng": 13.29635523235054}], "distance": 726, "postalCode": "10589", "cc": "DE", "city": "Berlin", "state": "Berlin", "country": "Deutschland", "formattedAddress": ["Tegeler Weg (Max-Dohrn-Str.)", "10589 Berlin", "Deutschland"]}, "categories": [{"id": "52f2ab2ebcbc57f1066b8b4f", "name": "Bus Stop", "pluralName": "Bus Stops", "shortName": "Bus Stop", "icon": {"prefix": "https://ss3.4sqi.net/img/categories_v2/travel/busstation_", "suffix": ".png"}, "primary": true}], "photos": {"count": 0, "groups": []}}, "referralId": "e-0-51e3c343498e559709acf5ed-37"}, {"reasons": {"count": 0, "items": [{"summary": "This spot is popular", "type": "general", "reasonName": "globalInteractionReason"}]}, "venue": {"id": "4d8dcdf612d52c0fcf245e34", "name": "Anlegestelle Charlottenburger Ufer", "location": {"address": "Charlottenburger Ufer", "crossStreet": "Schlo\u00dfbr\u00fccke", "lat": 52.52169489420972, "lng": 13.301098765220338, "labeledLatLngs": [{"label": "display", "lat": 52.52169489420972, "lng": 13.301098765220338}], "distance": 743, "postalCode": "10585", "cc": "DE", "city": "Berlin", "state": "Berlin", "country": "Deutschland", "formattedAddress": ["Charlottenburger Ufer (Schlo\u00dfbr\u00fccke)", "10585 Berlin", "Deutschland"]}, "categories": [{"id": "4e74f6cabd41c4836eac4c31", "name": "Pier", "pluralName": "Piers", "shortName": "Piers", "icon": {"prefix": "https://ss3.4sqi.net/img/categories_v2/travel/ferry_pier_", "suffix": ".png"}, "primary": true}], "photos": {"count": 0, "groups": []}}, "referralId": "e-0-4d8dcdf612d52c0fcf245e34-38"}, {"reasons": {"count": 0, "items": [{"summary": "This spot is popular", "type": "general", "reasonName": "globalInteractionReason"}]}, "venue": {"id": "4e05b69b45ddb2875c3f5f90", "name": "ALDI NORD", "location": {"address": "Huttenstr. 41-44", "lat": 52.52811489416172, "lng": 13.317741751670836, "labeledLatLngs": [{"label": "display", "lat": 52.52811489416172, "lng": 13.317741751670836}], "distance": 786, "postalCode": "10553", "cc": "DE", "neighborhood": "Westhafen", "city": "Berlin", "state": "Berlin", "country": "Deutschland", "formattedAddress": ["Huttenstr. 41-44", "10553 Berlin", "Deutschland"]}, "categories": [{"id": "52f2ab2ebcbc57f1066b8b46", "name": "Supermarket", "pluralName": "Supermarkets", "shortName": "Supermarket", "icon": {"prefix": "https://ss3.4sqi.net/img/categories_v2/shops/food_grocery_", "suffix": ".png"}, "primary": true}], "photos": {"count": 0, "groups": []}}, "referralId": "e-0-4e05b69b45ddb2875c3f5f90-39"}, {"reasons": {"count": 0, "items": [{"summary": "This spot is popular", "type": "general", "reasonName": "globalInteractionReason"}]}, "venue": {"id": "553cdaa2498e16d132d3f769", "name": "Karpfenteich", "location": {"address": "Schlossgarten Charlottenburg", "lat": 52.525229810560624, "lng": 13.29493761062622, "labeledLatLngs": [{"label": "display", "lat": 52.525229810560624, "lng": 13.29493761062622}], "distance": 804, "postalCode": "14059", "cc": "DE", "city": "Berlin", "state": "Berlin", "country": "Deutschland", "formattedAddress": ["Schlossgarten Charlottenburg", "14059 Berlin", "Deutschland"]}, "categories": [{"id": "4bf58dd8d48988d161941735", "name": "Lake", "pluralName": "Lakes", "shortName": "Lake", "icon": {"prefix": "https://ss3.4sqi.net/img/categories_v2/parks_outdoors/lake_", "suffix": ".png"}, "primary": true}], "photos": {"count": 0, "groups": []}}, "referralId": "e-0-553cdaa2498e16d132d3f769-40"}, {"reasons": {"count": 0, "items": [{"summary": "This spot is popular", "type": "general", "reasonName": "globalInteractionReason"}]}, "venue": {"id": "4f8ac765e4b0e67b864c004f", "name": "Heizkraftwerk Charlottenburg", "location": {"lat": 52.52042167360484, "lng": 13.308781231311956, "labeledLatLngs": [{"label": "display", "lat": 52.52042167360484, "lng": 13.308781231311956}], "distance": 821, "cc": "DE", "city": "Berlin", "state": "Berlin", "country": "Deutschland", "formattedAddress": ["Berlin", "Deutschland"]}, "categories": [{"id": "4deefb944765f83613cdba6e", "name": "Historic Site", "pluralName": "Historic Sites", "shortName": "Historic Site", "icon": {"prefix": "https://ss3.4sqi.net/img/categories_v2/arts_entertainment/historicsite_", "suffix": ".png"}, "primary": true}], "photos": {"count": 0, "groups": []}}, "referralId": "e-0-4f8ac765e4b0e67b864c004f-41"}, {"reasons": {"count": 0, "items": [{"summary": "This spot is popular", "type": "general", "reasonName": "globalInteractionReason"}]}, "venue": {"id": "4b29e75ef964a52002a424e3", "name": "Trofeo @ Meilenwerk", "location": {"address": "Wiebestrasse 36-37", "lat": 52.53010491234845, "lng": 13.318568693008178, "labeledLatLngs": [{"label": "display", "lat": 52.53010491234845, "lng": 13.318568693008178}], "distance": 885, "postalCode": "10553", "cc": "DE", "neighborhood": "Westhafen", "city": "Berlin", "state": "Berlin", "country": "Deutschland", "formattedAddress": ["Wiebestrasse 36-37", "10553 Berlin", "Deutschland"]}, "categories": [{"id": "4bf58dd8d48988d1c0941735", "name": "Mediterranean Restaurant", "pluralName": "Mediterranean Restaurants", "shortName": "Mediterranean", "icon": {"prefix": "https://ss3.4sqi.net/img/categories_v2/food/mediterranean_", "suffix": ".png"}, "primary": true}], "photos": {"count": 0, "groups": []}}, "referralId": "e-0-4b29e75ef964a52002a424e3-42"}, {"reasons": {"count": 0, "items": [{"summary": "This spot is popular", "type": "general", "reasonName": "globalInteractionReason"}]}, "venue": {"id": "5c719da2a87921002cffbfd6", "name": "Restaurant Saray", "location": {"address": "Luisenplatz 19A", "crossStreet": "Eosanderstrasse", "lat": 52.520378, "lng": 13.299632, "labeledLatLngs": [{"label": "display", "lat": 52.520378, "lng": 13.299632}], "distance": 919, "postalCode": "10587", "cc": "DE", "city": "Charlottenburg", "state": "Berlin", "country": "Deutschland", "formattedAddress": ["Luisenplatz 19A (Eosanderstrasse)", "10587 Charlottenburg", "Deutschland"]}, "categories": [{"id": "4bf58dd8d48988d1c4941735", "name": "Restaurant", "pluralName": "Restaurants", "shortName": "Restaurant", "icon": {"prefix": "https://ss3.4sqi.net/img/categories_v2/food/default_", "suffix": ".png"}, "primary": true}], "photos": {"count": 0, "groups": []}}, "referralId": "e-0-5c719da2a87921002cffbfd6-43"}, {"reasons": {"count": 0, "items": [{"summary": "This spot is popular", "type": "general", "reasonName": "globalInteractionReason"}]}, "venue": {"id": "4d30163ef986a0939631f966", "name": "H Wiebestra\u00dfe / Huttenstra\u00dfe", "location": {"address": "Huttenstr.", "crossStreet": "Wiebestr.", "lat": 52.5283721411396, "lng": 13.31976333756467, "labeledLatLngs": [{"label": "display", "lat": 52.5283721411396, "lng": 13.31976333756467}], "distance": 925, "postalCode": "10553", "cc": "DE", "city": "Berlin", "state": "Berlin", "country": "Deutschland", "formattedAddress": ["Huttenstr. (Wiebestr.)", "10553 Berlin", "Deutschland"]}, "categories": [{"id": "52f2ab2ebcbc57f1066b8b4f", "name": "Bus Stop", "pluralName": "Bus Stops", "shortName": "Bus Stop", "icon": {"prefix": "https://ss3.4sqi.net/img/categories_v2/travel/busstation_", "suffix": ".png"}, "primary": true}], "photos": {"count": 0, "groups": []}}, "referralId": "e-0-4d30163ef986a0939631f966-44"}, {"reasons": {"count": 0, "items": [{"summary": "This spot is popular", "type": "general", "reasonName": "globalInteractionReason"}]}, "venue": {"id": "52179a9f11d2c61e36b21a96", "name": "Yucatan", "location": {"lat": 52.53539131505399, "lng": 13.301203378084828, "labeledLatLngs": [{"label": "display", "lat": 52.53539131505399, "lng": 13.301203378084828}], "distance": 926, "cc": "DE", "city": "Berlin", "state": "Berlin", "country": "Deutschland", "formattedAddress": ["Berlin", "Deutschland"]}, "categories": [{"id": "4bf58dd8d48988d1c1941735", "name": "Mexican Restaurant", "pluralName": "Mexican Restaurants", "shortName": "Mexican", "icon": {"prefix": "https://ss3.4sqi.net/img/categories_v2/food/mexican_", "suffix": ".png"}, "primary": true}], "photos": {"count": 0, "groups": []}}, "referralId": "e-0-52179a9f11d2c61e36b21a96-45"}, {"reasons": {"count": 0, "items": [{"summary": "This spot is popular", "type": "general", "reasonName": "globalInteractionReason"}]}, "venue": {"id": "5033f8157e279f8eabb82f27", "name": "Sixt Autovermietung", "location": {"address": "Huttenstr. 50", "lat": 52.528067, "lng": 13.320426, "labeledLatLngs": [{"label": "display", "lat": 52.528067, "lng": 13.320426}], "distance": 968, "postalCode": "10553", "cc": "DE", "city": "Berlin", "state": "Berlin", "country": "Deutschland", "formattedAddress": ["Huttenstr. 50", "10553 Berlin", "Deutschland"]}, "categories": [{"id": "4bf58dd8d48988d1ef941735", "name": "Rental Car Location", "pluralName": "Rental Car Locations", "shortName": "Rental Car", "icon": {"prefix": "https://ss3.4sqi.net/img/categories_v2/shops/airport_rentalcar_", "suffix": ".png"}, "primary": true}], "photos": {"count": 0, "groups": []}}, "referralId": "e-0-5033f8157e279f8eabb82f27-46"}, {"reasons": {"count": 0, "items": [{"summary": "This spot is popular", "type": "general", "reasonName": "globalInteractionReason"}]}, "venue": {"id": "5123ba1de4b0ba7e4f13fc5d", "name": "H Luisenplatz / Schloss Charlottenburg", "location": {"address": "Otto-Suhr-Allee", "crossStreet": "Luisenplatz / Kaiser-Friedrich-Str.", "lat": 52.51978473723319, "lng": 13.299057778168995, "labeledLatLngs": [{"label": "display", "lat": 52.51978473723319, "lng": 13.299057778168995}], "distance": 996, "postalCode": "14059", "cc": "DE", "city": "Berlin", "state": "Berlin", "country": "Deutschland", "formattedAddress": ["Otto-Suhr-Allee (Luisenplatz / Kaiser-Friedrich-Str.)", "14059 Berlin", "Deutschland"]}, "categories": [{"id": "52f2ab2ebcbc57f1066b8b4f", "name": "Bus Stop", "pluralName": "Bus Stops", "shortName": "Bus Stop", "icon": {"prefix": "https://ss3.4sqi.net/img/categories_v2/travel/busstation_", "suffix": ".png"}, "primary": true}], "photos": {"count": 0, "groups": []}}, "referralId": "e-0-5123ba1de4b0ba7e4f13fc5d-47"}]