[{"reasons": {"count": 0, "items": [{"summary": "This spot is popular", "type": "general", "reasonName": "globalInteractionReason"}]}, "venue": {"id": "55229e08498e1c00ce660e4c", "name": "Einer dieser Tage", "location": {"address": "Waldstr. 32", "lat": 52.53238792130165, "lng": 13.3317325258927, "labeledLatLngs": [{"label": "display", "lat": 52.53238792130165, "lng": 13.3317325258927}], "distance": 178, "postalCode": "10551", "cc": "DE", "city": "Berlin", "state": "Berlin", "country": "Deutschland", "formattedAddress": ["Waldstr. 32", "10551 Berlin", "Deutschland"]}, "categories": [{"id": "4bf58dd8d48988d16d941735", "name": "Caf\u00e9", "pluralName": "Caf\u00e9s", "shortName": "Caf\u00e9", "icon": {"prefix": "https://ss3.4sqi.net/img/categories_v2/food/cafe_", "suffix": ".png"}, "primary": true}], "photos": {"count": 0, "groups": []}}, "referralId": "e-0-55229e08498e1c00ce660e4c-0"}, {"reasons": {"count": 0, "items": [{"summary": "This spot is popular", "type": "general", "reasonName": "globalInteractionReason"}]}, "venue": {"id": "54ddee94498e70bf7dbc880d", "name": "Garcia Kaffeebar", "location": {"address": "Waldstr. 59", "lat": 52.52766827466156, "lng": 13.33062445530357, "labeledLatLngs": [{"label": "display", "lat": 52.52766827466156, "lng": 13.33062445530357}], "distance": 364, "postalCode": "10551", "cc": "DE", "city": "Berlin", "state": "Berlin", "country": "Deutschland", "formattedAddress": ["Waldstr. 59", "10551 Berlin", "Deutschland"]}, "categories": [{"id": "4bf58dd8d48988d1e0931735", "name": "Coffee Shop", "pluralName": "Coffee Shops", "shortName": "Coffee Shop", "icon": {"prefix": "https://ss3.4sqi.net/img/categories_v2/food/coffeeshop_", "suffix": ".png"}, "primary": true}], "photos": {"count": 0, "groups": []}}, "referralId": "e-0-54ddee94498e70bf7dbc880d-1"}, {"reasons": {"count": 0, "items": [{"summary": "This spot is popular", "type": "general", "reasonName": "globalInteractionReason"}]}, "venue": {"id": "53b2f8ec498ee89a38492b02", "name": "Kallasch &", "location": {"address": "Unionstr. 2", "lat": 52.532868902197215, "lng": 13.336735511796723, "labeledLatLngs": [{"label": "display", "lat": 52.532868902197215, "lng": 13.336735511796723}], "distance": 386, "postalCode": "10551", "cc": "DE", "neighborhood": "Moabit", "city": "Berlin", "state": "Berlin", "country": "Deutschland", "formattedAddress": ["Unionstr. 2", "10551 Berlin", "Deutschland"]}, "categories": [{"id": "4bf58dd8d48988d116941735", "name": "Bar", "pluralName": "Bars", "shortName": "Bar", "icon": {"prefix": "https://ss3.4sqi.net/img/categories_v2/nightlife/pub_", "suffix": ".png"}, "primary": true}], "photos": {"count": 0, "groups": []}}, "referralId": "e-0-53b2f8ec498ee89a38492b02-2"}, {"reasons": {"count": 0, "items": [{"summary": "This spot is popular", "type": "general", "reasonName": "globalInteractionReason"}]}, "venue": {"id": "5002bdf9e4b0ae2f179ddcba", "name": "Zentrum f\u00fcr Kunst und Urbanistik (ZK/U)", "location": {"address": "Siemensstrasse 27", "lat": 52.53365944114363, "lng": 13.336372115138653, "labeledLatLngs": [{"label": "display", "lat": 52.53365944114363, "lng": 13.336372115138653}], "distance": 427, "postalCode": "10551", "cc": "DE", "city": "Berlin", "state": "Berlin", "country": "Deutschland", "formattedAddress": ["Siemensstrasse 27", "10551 Berlin", "Deutschland"]}, "categories": [{"id": "4bf58dd8d48988d1e2931735", "name": "Art Gallery", "pluralName": "Art Galleries", "shortName": "Art Gallery", "icon": {"prefix": "https://ss3.4sqi.net/img/categories_v2/arts_entertainment/artgallery_", "suffix": ".png"}, "primary": true}], "photos": {"count": 0, "groups": []}}, "referralId": "e-0-5002bdf9e4b0ae2f179ddcba-3"}, {"reasons": {"count": 0, "items": [{"summary": "This spot is popular", "type": "general", "reasonName": "globalInteractionReason"}]}, "venue": {"id": "59732b446f706a5bcd9712d8", "name": "Hamberger", "location": {"address": "Erna-Samuel-Str. 13", "lat": 52.53323005719321, "lng": 13.332538742285122, "labeledLatLngs": [{"label": "display", "lat": 52.53323005719321, "lng": 13.332538742285122}], "distance": 271, "postalCode": "10551", "cc": "DE", "city": "Berlin", "state": "Berlin", "country": "Deutschland", "formattedAddress": ["Erna-Samuel-Str. 13", "10551 Berlin", "Deutschland"]}, "categories": [{"id": "50be8ee891d4fa8dcc7199a7", "name": "Market", "pluralName": "Markets", "shortName": "Market", "icon": {"prefix": "https://ss3.4sqi.net/img/categories_v2/shops/market_", "suffix": ".png"}, "primary": true}], "photos": {"count": 0, "groups": []}}, "referralId": "e-0-59732b446f706a5bcd9712d8-4"}, {"reasons": {"count": 0, "items": [{"summary": "This spot is popular", "type": "general", "reasonName": "globalInteractionReason"}]}, "venue": {"id": "4f3e90f8e4b02787b44d5320", "name": "Recep Usta K\u00f6fteci", "location": {"address": "Turmstr. 76", "lat": 52.52713871478175, "lng": 13.33125093912706, "labeledLatLngs": [{"label": "display", "lat": 52.52713871478175, "lng": 13.33125093912706}], "distance": 412, "cc": "DE", "city": "Berlin", "state": "Berlin", "country": "Deutschland", "formattedAddress": ["Turmstr. 76", "Berlin", "Deutschland"]}, "categories": [{"id": "4f04af1f2fb6e1c99f3db0bb", "name": "Turkish Restaurant", "pluralName": "Turkish Restaurants", "shortName": "Turkish", "icon": {"prefix": "https://ss3.4sqi.net/img/categories_v2/food/turkish_", "suffix": ".png"}, "primary": true}], "photos": {"count": 0, "groups": []}}, "referralId": "e-0-4f3e90f8e4b02787b44d5320-5"}, {"reasons": {"count": 0, "items": [{"summary": "This spot is popular", "type": "general", "reasonName": "globalInteractionReason"}]}, "venue": {"id": "5a6dc7a1d48ec11116ea1e60", "name": "Waldcaf\u00e9", "location": {"address": "Waldstra\u00dfe 4", "lat": 52.527917, "lng": 13.331087, "labeledLatLngs": [{"label": "display", "lat": 52.527917, "lng": 13.331087}], "distance": 329, "postalCode": "10551", "cc": "DE", "neighborhood": "Turmstra\u00dfe", "city": "Berlin", "state": "Berlin", "country": "Deutschland", "formattedAddress": ["Waldstra\u00dfe 4", "10551 Berlin", "Deutschland"]}, "categories": [{"id": "4bf58dd8d48988d16d941735", "name": "Caf\u00e9", "pluralName": "Caf\u00e9s", "shortName": "Caf\u00e9", "icon": {"prefix": "https://ss3.4sqi.net/img/categories_v2/food/cafe_", "suffix": ".png"}, "primary": true}], "photos": {"count": 0, "groups": []}}, "referralId": "e-0-5a6dc7a1d48ec11116ea1e60-6"}, {"reasons": {"count": 0, "items": [{"summary": "This spot is popular", "type": "general", "reasonName": "globalInteractionReason"}]}, "venue": {"id": "4d88afad7d4c5481e23e4471", "name": "Eisdiele Marcon", "location": {"address": "Turmstra\u00dfe 64", "lat": 52.52721664721762, "lng": 13.330068408593696, "labeledLatLngs": [{"label": "display", "lat": 52.52721664721762, "lng": 13.330068408593696}], "distance": 423, "postalCode": "10553", "cc": "DE", "city": "Berlin", "state": "Berlin", "country": "Deutschland", "formattedAddress": ["Turmstra\u00dfe 64", "10553 Berlin", "Deutschland"]}, "categories": [{"id": "4bf58dd8d48988d1c9941735", "name": "Ice Cream Shop", "pluralName": "Ice Cream Shops", "shortName": "Ice Cream", "icon": {"prefix": "https://ss3.4sqi.net/img/categories_v2/food/icecream_", "suffix": ".png"}, "primary": true}], "photos": {"count": 0, "groups": []}}, "referralId": "e-0-4d88afad7d4c5481e23e4471-7"}, {"reasons": {"count": 0, "items": [{"summary": "This spot is popular", "type": "general", "reasonName": "globalInteractionReason"}]}, "venue": {"id": "4bcd6092cc8cd13a0784c2cf", "name": "Taverna Merkouri", "location": {"address": "Wiclefstra\u00dfe 30", "lat": 52.530984646778535, "lng": 13.330183584244173, "labeledLatLngs": [{"label": "display", "lat": 52.530984646778535, "lng": 13.330183584244173}], "distance": 134, "postalCode": "10551", "cc": "DE", "city": "Berlin", "state": "Berlin", "country": "Deutschland", "formattedAddress": ["Wiclefstra\u00dfe 30", "10551 Berlin", "Deutschland"]}, "categories": [{"id": "53d6c1b0e4b02351e88a83d2", "name": "Taverna", "pluralName": "Tavernas", "shortName": "Tavernas", "icon": {"prefix": "https://ss3.4sqi.net/img/categories_v2/food/greek_", "suffix": ".png"}, "primary": true}], "photos": {"count": 0, "groups": []}}, "referralId": "e-0-4bcd6092cc8cd13a0784c2cf-8"}, {"reasons": {"count": 0, "items": [{"summary": "This spot is popular", "type": "general", "reasonName": "globalInteractionReason"}]}, "venue": {"id": "4c8f576e1992a1cd35c6e4fb", "name": "Arminius-Markthalle", "location": {"address": "Arminiusstr. 2", "crossStreet": "Bremer Str.", "lat": 52.52773864047764, "lng": 13.338504312600316, "labeledLatLngs": [{"label": "display", "lat": 52.52773864047764, "lng": 13.338504312600316}], "distance": 549, "postalCode": "10551", "cc": "DE", "city": "Berlin", "state": "Berlin", "country": "Deutschland", "formattedAddress": ["Arminiusstr. 2 (Bremer Str.)", "10551 Berlin", "Deutschland"]}, "categories": [{"id": "4bf58dd8d48988d120951735", "name": "Food Court", "pluralName": "Food Courts", "shortName": "Food Court", "icon": {"prefix": "https://ss3.4sqi.net/img/categories_v2/shops/food_foodcourt_", "suffix": ".png"}, "primary": true}], "photos": {"count": 0, "groups": []}}, "referralId": "e-0-4c8f576e1992a1cd35c6e4fb-9"}, {"reasons": {"count": 0, "items": [{"summary": "This spot is popular", "type": "general", "reasonName": "globalInteractionReason"}]}, "venue": {"id": "52285b7311d24e01f8e4cb77", "name": "Pizza con Amore", "location": {"address": "Turmstr. 82", "lat": 52.52659523612807, "lng": 13.337372440673757, "labeledLatLngs": [{"label": "display", "lat": 52.52659523612807, "lng": 13.337372440673757}], "distance": 586, "postalCode": "10551", "cc": "DE", "city": "Berlin", "state": "Berlin", "country": "Deutschland", "formattedAddress": ["Turmstr. 82", "10551 Berlin", "Deutschland"]}, "categories": [{"id": "4bf58dd8d48988d1ca941735", "name": "Pizza Place", "pluralName": "Pizza Places", "shortName": "Pizza", "icon": {"prefix": "https://ss3.4sqi.net/img/categories_v2/food/pizza_", "suffix": ".png"}, "primary": true}], "photos": {"count": 0, "groups": []}}, "referralId": "e-0-52285b7311d24e01f8e4cb77-10"}, {"reasons": {"count": 0, "items": [{"summary": "This spot is popular", "type": "general", "reasonName": "globalInteractionReason"}]}, "venue": {"id": "578f2311498e641cdff83d26", "name": "Spontan Coffee", "location": {"address": "Gotzkowskystr. 28", "lat": 52.52519762835903, "lng": 13.330072160961876, "labeledLatLngs": [{"label": "display", "lat": 52.52519762835903, "lng": 13.330072160961876}], "distance": 640, "postalCode": "10555", "cc": "DE", "city": "Berlin", "state": "Berlin", "country": "Deutschland", "formattedAddress": ["Gotzkowskystr. 28", "10555 Berlin", "Deutschland"]}, "categories": [{"id": "4bf58dd8d48988d1e0931735", "name": "Coffee Shop", "pluralName": "Coffee Shops", "shortName": "Coffee Shop", "icon": {"prefix": "https://ss3.4sqi.net/img/categories_v2/food/coffeeshop_", "suffix": ".png"}, "primary": true}], "photos": {"count": 0, "groups": []}}, "referralId": "e-0-578f2311498e641cdff83d26-11"}, {"reasons": {"count": 0, "items": [{"summary": "This spot is popular", "type": "general", "reasonName": "globalInteractionReason"}]}, "venue": {"id": "4c6c19c16af58cfa65d28517", "name": "Zum Stammtisch", "location": {"address": "Bredowstr. 15", "crossStreet": "Wiclefstr.", "lat": 52.53008628769528, "lng": 13.340005179533046, "labeledLatLngs": [{"label": "display", "lat": 52.53008628769528, "lng": 13.340005179533046}], "distance": 537, "postalCode": "10551", "cc": "DE", "neighborhood": "Turmstra\u00dfe", "city": "Berlin", "state": "Berlin", "country": "Deutschland", "formattedAddress": ["Bredowstr. 15 (Wiclefstr.)", "10551 Berlin", "Deutschland"]}, "categories": [{"id": "4bf58dd8d48988d11b941735", "name": "Pub", "pluralName": "Pubs", "shortName": "Pub", "icon": {"prefix": "https://ss3.4sqi.net/img/categories_v2/nightlife/pub_", "suffix": ".png"}, "primary": true}], "photos": {"count": 0, "groups": []}}, "referralId": "e-0-4c6c19c16af58cfa65d28517-12"}, {"reasons": {"count": 0, "items": [{"summary": "This spot is popular", "type": "general", "reasonName": "globalInteractionReason"}]}, "venue": {"id": "50e4847052621298e8ca8f65", "name": "Sugar Tapas Bar", "location": {"address": "Wilhelmshavener Str. 14", "lat": 52.52987919772112, "lng": 13.341288500078788, "labeledLatLngs": [{"label": "display", "lat": 52.52987919772112, "lng": 13.341288500078788}], "distance": 627, "postalCode": "10551", "cc": "DE", "neighborhood": "Turmstra\u00dfe", "city": "Berlin", "state": "Berlin", "country": "Deutschland", "formattedAddress": ["Wilhelmshavener Str. 14", "10551 Berlin", "Deutschland"]}, "categories": [{"id": "4bf58dd8d48988d11e941735", "name": "Cocktail Bar", "pluralName": "Cocktail Bars", "shortName": "Cocktail", "icon": {"prefix": "https://ss3.4sqi.net/img/categories_v2/nightlife/cocktails_", "suffix": ".png"}, "primary": true}], "photos": {"count": 0, "groups": []}}, "referralId": "e-0-50e4847052621298e8ca8f65-13"}, {"reasons": {"count": 0, "items": [{"summary": "This spot is popular", "type": "general", "reasonName": "globalInteractionReason"}]}, "venue": {"id": "4d357f03eefa8cfa1deb54b3", "name": "T\u00f4nis", "location": {"address": "Huttenstr. 68", "lat": 52.52760451357689, "lng": 13.326887208850664, "labeledLatLngs": [{"label": "display", "lat": 52.52760451357689, "lng": 13.326887208850664}], "distance": 504, "postalCode": "10553", "cc": "DE", "city": "Berlin", "state": "Berlin", "country": "Deutschland", "formattedAddress": ["Huttenstr. 68", "10553 Berlin", "Deutschland"]}, "categories": [{"id": "4bf58dd8d48988d14a941735", "name": "Vietnamese Restaurant", "pluralName": "Vietnamese Restaurants", "shortName": "Vietnamese", "icon": {"prefix": "https://ss3.4sqi.net/img/categories_v2/food/vietnamese_", "suffix": ".png"}, "primary": true}], "photos": {"count": 0, "groups": []}}, "referralId": "e-0-4d357f03eefa8cfa1deb54b3-14"}, {"reasons": {"count": 0, "items": [{"summary": "This spot is popular", "type": "general", "reasonName": "globalInteractionReason"}]}, "venue": {"id": "4b4f666bf964a520e20427e3", "name": "Fam. Dang", "location": {"address": "Huttenstr. 5", "lat": 52.5275960863533, "lng": 13.327365040721588, "labeledLatLngs": [{"label": "display", "lat": 52.5275960863533, "lng": 13.327365040721588}], "distance": 482, "postalCode": "10553", "cc": "DE", "city": "Berlin", "state": "Berlin", "country": "Deutschland", "formattedAddress": ["Huttenstr. 5", "10553 Berlin", "Deutschland"]}, "categories": [{"id": "4bf58dd8d48988d14a941735", "name": "Vietnamese Restaurant", "pluralName": "Vietnamese Restaurants", "shortName": "Vietnamese", "icon": {"prefix": "https://ss3.4sqi.net/img/categories_v2/food/vietnamese_", "suffix": ".png"}, "primary": true}], "photos": {"count": 0, "groups": []}}, "referralId": "e-0-4b4f666bf964a520e20427e3-15"}, {"reasons": {"count": 0, "items": [{"summary": "This spot is popular", "type": "general", "reasonName": "globalInteractionReason"}]}, "venue": {"id": "513b4d60e4b049104b868652", "name": "Favorit Gem\u00fcse Kebap", "location": {"address": "Turmstr. 41", "lat": 52.52673726789724, "lng": 13.335997701931085, "labeledLatLngs": [{"label": "display", "lat": 52.52673726789724, "lng": 13.335997701931085}], "distance": 522, "postalCode": "10551", "cc": "DE", "city": "Berlin", "state": "Berlin", "country": "Deutschland", "formattedAddress": ["Turmstr. 41", "10551 Berlin", "Deutschland"]}, "categories": [{"id": "5283c7b4e4b094cb91ec88d8", "name": "Doner Restaurant", "pluralName": "Doner Restaurants", "shortName": "Doner", "icon": {"prefix": "https://ss3.4sqi.net/img/categories_v2/food/turkish_", "suffix": ".png"}, "primary": true}], "photos": {"count": 0, "groups": []}}, "referralId": "e-0-513b4d60e4b049104b868652-16"}, {"reasons": {"count": 0, "items": [{"summary": "This spot is popular", "type": "general", "reasonName": "globalInteractionReason"}]}, "venue": {"id": "50b0c5c6e4b0a71212006b47", "name": "Alimentari e Vini", "location": {"address": "Arminiusstr. 2-4", "lat": 52.52779253912857, "lng": 13.338373145895305, "labeledLatLngs": [{"label": "display", "lat": 52.52779253912857, "lng": 13.338373145895305}], "distance": 538, "postalCode": "10551", "cc": "DE", "city": "Berlin", "state": "Berlin", "country": "Deutschland", "formattedAddress": ["Arminiusstr. 2-4", "10551 Berlin", "Deutschland"]}, "categories": [{"id": "4bf58dd8d48988d110941735", "name": "Italian Restaurant", "pluralName": "Italian Restaurants", "shortName": "Italian", "icon": {"prefix": "https://ss3.4sqi.net/img/categories_v2/food/italian_", "suffix": ".png"}, "primary": true}], "photos": {"count": 0, "groups": []}}, "referralId": "e-0-50b0c5c6e4b0a71212006b47-17"}, {"reasons": {"count": 0, "items": [{"summary": "This spot is popular", "type": "general", "reasonName": "globalInteractionReason"}]}, "venue": {"id": "51fd7012498e32e3a0e1ef94", "name": "Tirr\u00e9e", "location": {"address": "Birkenstr. 46", "crossStreet": "Wilhelmshavener Str.", "lat": 52.532153741214614, "lng": 13.341539621589543, "labeledLatLngs": [{"label": "display", "lat": 52.532153741214614, "lng": 13.341539621589543}], "distance": 653, "postalCode": "10551", "cc": "DE", "city": "Berlin", "state": "Berlin", "country": "Deutschland", "formattedAddress": ["Birkenstr. 46 (Wilhelmshavener Str.)", "10551 Berlin", "Deutschland"]}, "categories": [{"id": "4bf58dd8d48988d16d941735", "name": "Caf\u00e9", "pluralName": "Caf\u00e9s", "shortName": "Caf\u00e9", "icon": {"prefix": "https://ss3.4sqi.net/img/categories_v2/food/cafe_", "suffix": ".png"}, "primary": true}], "photos": {"count": 0, "groups": []}}, "referralId": "e-0-51fd7012498e32e3a0e1ef94-18"}, {"reasons": {"count": 0, "items": [{"summary": "This spot is popular", "type": "general", "reasonName": "globalInteractionReason"}]}, "venue": {"id": "51b60762498e7b6ce4844bd8", "name": "Flying Fisch", "location": {"address": "Turmstr. 39", "crossStreet": "Oldenburger Str.", "lat": 52.52670205762429, "lng": 13.33604427844273, "labeledLatLngs": [{"label": "display", "lat": 52.52670205762429, "lng": 13.33604427844273}], "distance": 527, "postalCode": "10551", "cc": "DE", "city": "Berlin", "state": "Berlin", "country": "Deutschland", "formattedAddress": ["Turmstr. 39 (Oldenburger Str.)", "10551 Berlin", "Deutschland"]}, "categories": [{"id": "4bf58dd8d48988d10e951735", "name": "Fish Market", "pluralName": "Fish Markets", "shortName": "Fish Market", "icon": {"prefix": "https://ss3.4sqi.net/img/categories_v2/shops/food_fishmarket_", "suffix": ".png"}, "primary": true}], "photos": {"count": 0, "groups": []}}, "referralId": "e-0-51b60762498e7b6ce4844bd8-19"}, {"reasons": {"count": 0, "items": [{"summary": "This spot is popular", "type": "general", "reasonName": "globalInteractionReason"}]}, "venue": {"id": "527148d4498e317c10956070", "name": "Pignut BBQ", "location": {"address": "Arminiusstr. 2-4", "crossStreet": "Bremerstr.", "lat": 52.527859685727734, "lng": 13.338472860553619, "labeledLatLngs": [{"label": "display", "lat": 52.527859685727734, "lng": 13.338472860553619}], "distance": 539, "postalCode": "10551", "cc": "DE", "neighborhood": "Turmstra\u00dfe", "city": "Berlin", "state": "Berlin", "country": "Deutschland", "formattedAddress": ["Arminiusstr. 2-4 (Bremerstr.)", "10551 Berlin", "Deutschland"]}, "categories": [{"id": "4bf58dd8d48988d1df931735", "name": "BBQ Joint", "pluralName": "BBQ Joints", "shortName": "BBQ", "icon": {"prefix": "https://ss3.4sqi.net/img/categories_v2/food/bbqalt_", "suffix": ".png"}, "primary": true}], "photos": {"count": 0, "groups": []}, "venuePage": {"id": "76116555"}}, "referralId": "e-0-527148d4498e317c10956070-20"}, {"reasons": {"count": 0, "items": [{"summary": "This spot is popular", "type": "general", "reasonName": "globalInteractionReason"}]}, "venue": {"id": "4c17c87bfe5a76b0b4120115", "name": "Taverna Amphipolis", "location": {"address": "wilhelmshavener str. 6", "lat": 52.5283773025609, "lng": 13.341430713623419, "labeledLatLngs": [{"label": "display", "lat": 52.5283773025609, "lng": 13.341430713623419}], "distance": 683, "postalCode": "13353", "cc": "DE", "neighborhood": "Turmstra\u00dfe", "city": "Berlin", "state": "Berlin", "country": "Deutschland", "formattedAddress": ["wilhelmshavener str. 6", "13353 Berlin", "Deutschland"]}, "categories": [{"id": "53d6c1b0e4b02351e88a83d2", "name": "Taverna", "pluralName": "Tavernas", "shortName": "Tavernas", "icon": {"prefix": "https://ss3.4sqi.net/img/categories_v2/food/greek_", "suffix": ".png"}, "primary": true}], "photos": {"count": 0, "groups": []}}, "referralId": "e-0-4c17c87bfe5a76b0b4120115-21"}, {"reasons": {"count": 0, "items": [{"summary": "This spot is popular", "type": "general", "reasonName": "globalInteractionReason"}]}, "venue": {"id": "4c3894b418e72d7f3a8918f5", "name": "Freddy Leck sein Waschsalon", "location": {"address": "Gotzkowskystr. 11", "lat": 52.52515487276702, "lng": 13.330067733384357, "labeledLatLngs": [{"label": "display", "lat": 52.52515487276702, "lng": 13.330067733384357}], "distance": 644, "postalCode": "10555", "cc": "DE", "city": "Berlin", "state": "Berlin", "country": "Deutschland", "formattedAddress": ["Gotzkowskystr. 11", "10555 Berlin", "Deutschland"]}, "categories": [{"id": "52f2ab2ebcbc57f1066b8b33", "name": "Laundromat", "pluralName": "Laundromats", "shortName": "Laundromat", "icon": {"prefix": "https://ss3.4sqi.net/img/categories_v2/shops/laundry_", "suffix": ".png"}, "primary": true}], "photos": {"count": 0, "groups": []}}, "referralId": "e-0-4c3894b418e72d7f3a8918f5-22"}, {"reasons": {"count": 0, "items": [{"summary": "This spot is popular", "type": "general", "reasonName": "globalInteractionReason"}]}, "venue": {"id": "5704ef8e498e01d01a38f46f", "name": "Habe die Ehre", "location": {"address": "Arminiusstr. 2-4", "lat": 52.528024, "lng": 13.338907, "labeledLatLngs": [{"label": "display", "lat": 52.528024, "lng": 13.338907}], "distance": 552, "cc": "DE", "city": "Berlin", "state": "Berlin", "country": "Deutschland", "formattedAddress": ["Arminiusstr. 2-4", "Berlin", "Deutschland"]}, "categories": [{"id": "52e81612bcbc57f1066b7a01", "name": "Austrian Restaurant", "pluralName": "Austrian Restaurants", "shortName": "Austrian", "icon": {"prefix": "https://ss3.4sqi.net/img/categories_v2/food/austrian_", "suffix": ".png"}, "primary": true}], "photos": {"count": 0, "groups": []}}, "referralId": "e-0-5704ef8e498e01d01a38f46f-23"}, {"reasons": {"count": 0, "items": [{"summary": "This spot is popular", "type": "general", "reasonName": "globalInteractionReason"}]}, "venue": {"id": "4b56e95df964a520f91e28e3", "name": "El Reda", "location": {"address": "Huttenstr. 69", "crossStreet": "Moabit", "lat": 52.527577353533765, "lng": 13.327298666410915, "labeledLatLngs": [{"label": "display", "lat": 52.527577353533765, "lng": 13.327298666410915}], "distance": 487, "postalCode": "10553", "cc": "DE", "city": "Berlin", "state": "Berlin", "country": "Deutschland", "formattedAddress": ["Huttenstr. 69 (Moabit)", "10553 Berlin", "Deutschland"]}, "categories": [{"id": "52e81612bcbc57f1066b79f7", "name": "Persian Restaurant", "pluralName": "Persian Restaurants", "shortName": "Persian", "icon": {"prefix": "https://ss3.4sqi.net/img/categories_v2/food/middleeastern_", "suffix": ".png"}, "primary": true}], "photos": {"count": 0, "groups": []}}, "referralId": "e-0-4b56e95df964a520f91e28e3-24"}, {"reasons": {"count": 0, "items": [{"summary": "This spot is popular", "type": "general", "reasonName": "globalInteractionReason"}]}, "venue": {"id": "4e46ef31887781a619b22146", "name": "Mauerwerk", "location": {"address": "Zwinglistr. 7", "lat": 52.52560853367, "lng": 13.332909862887456, "labeledLatLngs": [{"label": "display", "lat": 52.52560853367, "lng": 13.332909862887456}], "distance": 580, "postalCode": "10555", "cc": "DE", "city": "Berlin", "state": "Berlin", "country": "Deutschland", "formattedAddress": ["Zwinglistr. 7", "10555 Berlin", "Deutschland"]}, "categories": [{"id": "4bf58dd8d48988d116941735", "name": "Bar", "pluralName": "Bars", "shortName": "Bar", "icon": {"prefix": "https://ss3.4sqi.net/img/categories_v2/nightlife/pub_", "suffix": ".png"}, "primary": true}], "photos": {"count": 0, "groups": []}, "venuePage": {"id": "79378905"}}, "referralId": "e-0-4e46ef31887781a619b22146-25"}, {"reasons": {"count": 0, "items": [{"summary": "This spot is popular", "type": "general", "reasonName": "globalInteractionReason"}]}, "venue": {"id": "4d5d6274e7f75481965b2497", "name": "Agni", "location": {"address": "Kaiserin-Augusta-Allee 1", "lat": 52.524497232010674, "lng": 13.327126062283286, "labeledLatLngs": [{"label": "display", "lat": 52.524497232010674, "lng": 13.327126062283286}], "distance": 780, "postalCode": "10553", "cc": "DE", "city": "Berlin", "state": "Berlin", "country": "Deutschland", "formattedAddress": ["Kaiserin-Augusta-Allee 1", "10553 Berlin", "Deutschland"]}, "categories": [{"id": "4bf58dd8d48988d10f941735", "name": "Indian Restaurant", "pluralName": "Indian Restaurants", "shortName": "Indian", "icon": {"prefix": "https://ss3.4sqi.net/img/categories_v2/food/indian_", "suffix": ".png"}, "primary": true}], "photos": {"count": 0, "groups": []}}, "referralId": "e-0-4d5d6274e7f75481965b2497-26"}, {"reasons": {"count": 0, "items": [{"summary": "This spot is popular", "type": "general", "reasonName": "globalInteractionReason"}]}, "venue": {"id": "530e12bc498e0415a7cb55ef", "name": "ZamZam", "location": {"address": "Huttenstr. 6", "crossStreet": "Rostocker Str.", "lat": 52.527697137499764, "lng": 13.326585917924316, "labeledLatLngs": [{"label": "display", "lat": 52.527697137499764, "lng": 13.326585917924316}], "distance": 511, "postalCode": "10553", "cc": "DE", "neighborhood": "Moabit", "city": "Berlin", "state": "Berlin", "country": "Deutschland", "formattedAddress": ["Huttenstr. 6 (Rostocker Str.)", "10553 Berlin", "Deutschland"]}, "categories": [{"id": "4bf58dd8d48988d10f941735", "name": "Indian Restaurant", "pluralName": "Indian Restaurants", "shortName": "Indian", "icon": {"prefix": "https://ss3.4sqi.net/img/categories_v2/food/indian_", "suffix": ".png"}, "primary": true}], "photos": {"count": 0, "groups": []}}, "referralId": "e-0-530e12bc498e0415a7cb55ef-27"}, {"reasons": {"count": 0, "items": [{"summary": "This spot is popular", "type": "general", "reasonName": "globalInteractionReason"}]}, "venue": {"id": "4adcda83f964a520af4821e3", "name": "Classic Remise Berlin", "location": {"address": "Wiebestr. 36", "crossStreet": "Sickingenstr.", "lat": 52.53026879229302, "lng": 13.318734169006348, "labeledLatLngs": [{"label": "display", "lat": 52.53026879229302, "lng": 13.318734169006348}], "distance": 910, "postalCode": "10553", "cc": "DE", "city": "Berlin", "state": "Berlin", "country": "Deutschland", "formattedAddress": ["Wiebestr. 36 (Sickingenstr.)", "10553 Berlin", "Deutschland"]}, "categories": [{"id": "4bf58dd8d48988d181941735", "name": "Museum", "pluralName": "Museums", "shortName": "Museum", "icon": {"prefix": "https://ss3.4sqi.net/img/categories_v2/arts_entertainment/museum_", "suffix": ".png"}, "primary": true}], "photos": {"count": 0, "groups": []}}, "referralId": "e-0-4adcda83f964a520af4821e3-28"}, {"reasons": {"count": 0, "items": [{"summary": "This spot is popular", "type": "general", "reasonName": "globalInteractionReason"}]}, "venue": {"id": "5808dadd38fab9ca5d32bccb", "name": "Domberger Brot-Werk", "location": {"address": "Essener Str. 11", "lat": 52.52379455873132, "lng": 13.338192365937138, "labeledLatLngs": [{"label": "display", "lat": 52.52379455873132, "lng": 13.338192365937138}], "distance": 881, "postalCode": "10555", "cc": "DE", "city": "Berlin", "state": "Berlin", "country": "Deutschland", "formattedAddress": ["Essener Str. 11", "10555 Berlin", "Deutschland"]}, "categories": [{"id": "4bf58dd8d48988d16a941735", "name": "Bakery", "pluralName": "Bakeries", "shortName": "Bakery", "icon": {"prefix": "https://ss3.4sqi.net/img/categories_v2/food/bakery_", "suffix": ".png"}, "primary": true}], "photos": {"count": 0, "groups": []}}, "referralId": "e-0-5808dadd38fab9ca5d32bccb-29"}, {"reasons": {"count": 0, "items": [{"summary": "This spot is popular", "type": "general", "reasonName": "globalInteractionReason"}]}, "venue": {"id": "4c35b5987cc0c9b6d551f59a", "name": "Bogazici", "location": {"address": "Turmstr. 47", "lat": 52.5269828624452, "lng": 13.333562969972007, "labeledLatLngs": [{"label": "display", "lat": 52.5269828624452, "lng": 13.333562969972007}], "distance": 436, "postalCode": "10551", "cc": "DE", "city": "Berlin", "state": "Berlin", "country": "Deutschland", "formattedAddress": ["Turmstr. 47", "10551 Berlin", "Deutschland"]}, "categories": [{"id": "4f04af1f2fb6e1c99f3db0bb", "name": "Turkish Restaurant", "pluralName": "Turkish Restaurants", "shortName": "Turkish", "icon": {"prefix": "https://ss3.4sqi.net/img/categories_v2/food/turkish_", "suffix": ".png"}, "primary": true}], "photos": {"count": 0, "groups": []}}, "referralId": "e-0-4c35b5987cc0c9b6d551f59a-30"}, {"reasons": {"count": 0, "items": [{"summary": "This spot is popular", "type": "general", "reasonName": "globalInteractionReason"}]}, "venue": {"id": "4fd39ba7e4b09ba56825c9d1", "name": "Hoan Kiem", "location": {"address": "Jonasstr. 4", "lat": 52.52704713750668, "lng": 13.338969585746785, "labeledLatLngs": [{"label": "display", "lat": 52.52704713750668, "lng": 13.338969585746785}], "distance": 622, "postalCode": "10551", "cc": "DE", "neighborhood": "Turmstra\u00dfe", "city": "Berlin", "state": "Berlin", "country": "Deutschland", "formattedAddress": ["Jonasstr. 4", "10551 Berlin", "Deutschland"]}, "categories": [{"id": "4bf58dd8d48988d14a941735", "name": "Vietnamese Restaurant", "pluralName": "Vietnamese Restaurants", "shortName": "Vietnamese", "icon": {"prefix": "https://ss3.4sqi.net/img/categories_v2/food/vietnamese_", "suffix": ".png"}, "primary": true}], "photos": {"count": 0, "groups": []}}, "referralId": "e-0-4fd39ba7e4b09ba56825c9d1-31"}, {"reasons": {"count": 0, "items": [{"summary": "This spot is popular", "type": "general", "reasonName": "globalInteractionReason"}]}, "venue": {"id": "532371c5498e4320e5978dac", "name": "George R", "location": {"address": "Wilhelmshavener Str. 57", "crossStreet": "Wiclefstr.", "lat": 52.53024939868373, "lng": 13.341323381420828, "labeledLatLngs": [{"label": "display", "lat": 52.53024939868373, "lng": 13.341323381420828}], "distance": 624, "postalCode": "10551", "cc": "DE", "city": "Berlin", "state": "Berlin", "country": "Deutschland", "formattedAddress": ["Wilhelmshavener Str. 57 (Wiclefstr.)", "10551 Berlin", "Deutschland"]}, "categories": [{"id": "4bf58dd8d48988d11e941735", "name": "Cocktail Bar", "pluralName": "Cocktail Bars", "shortName": "Cocktail", "icon": {"prefix": "https://ss3.4sqi.net/img/categories_v2/nightlife/cocktails_", "suffix": ".png"}, "primary": true}], "photos": {"count": 0, "groups": []}}, "referralId": "e-0-532371c5498e4320e5978dac-32"}, {"reasons": {"count": 0, "items": [{"summary": "This spot is popular", "type": "general", "reasonName": "globalInteractionReason"}]}, "venue": {"id": "51a9f430498e0972655cadef", "name": "Nat\u00fcrlicher Lebensraum", "location": {"address": "Jonasstr. 7", "lat": 52.52773631933308, "lng": 13.339344263076782, "labeledLatLngs": [{"label": "display", "lat": 52.52773631933308, "lng": 13.339344263076782}], "distance": 594, "postalCode": "10551", "cc": "DE", "city": "Berlin", "state": "Berlin", "country": "Deutschland", "formattedAddress": ["Jonasstr. 7", "10551 Berlin", "Deutschland"]}, "categories": [{"id": "4bf58dd8d48988d16d941735", "name": "Caf\u00e9", "pluralName": "Caf\u00e9s", "shortName": "Caf\u00e9", "icon": {"prefix": "https://ss3.4sqi.net/img/categories_v2/food/cafe_", "suffix": ".png"}, "primary": true}], "photos": {"count": 0, "groups": []}}, "referralId": "e-0-51a9f430498e0972655cadef-33"}, {"reasons": {"count": 0, "items": [{"summary": "This spot is popular", "type": "general", "reasonName": "globalInteractionReason"}]}, "venue": {"id": "517bc021e4b0e711fbe77f01", "name": "go asia \u6771 Asien Supermarkt", "location": {"address": "Turmstr. 29", "crossStreet": "Wilhelmshavener Str.", "lat": 52.52649613755785, "lng": 13.341554403305054, "labeledLatLngs": [{"label": "display", "lat": 52.52649613755785, "lng": 13.341554403305054}], "distance": 797, "postalCode": "10551", "cc": "DE", "city": "Berlin", "state": "Berlin", "country": "Deutschland", "formattedAddress": ["Turmstr. 29 (Wilhelmshavener Str.)", "10551 Berlin", "Deutschland"]}, "categories": [{"id": "4bf58dd8d48988d118951735", "name": "Grocery Store", "pluralName": "Grocery Stores", "shortName": "Grocery Store", "icon": {"prefix": "https://ss3.4sqi.net/img/categories_v2/shops/food_grocery_", "suffix": ".png"}, "primary": true}], "photos": {"count": 0, "groups": []}}, "referralId": "e-0-517bc021e4b0e711fbe77f01-34"}, {"reasons": {"count": 0, "items": [{"summary": "This spot is popular", "type": "general", "reasonName": "globalInteractionReason"}]}, "venue": {"id": "518e1278498ee2886e8ebb6a", "name": "Ihr Meisterb\u00e4cker", "location": {"address": "Elberfelder Str. 2", "lat": 52.524342054402965, "lng": 13.336093425750732, "labeledLatLngs": [{"label": "display", "lat": 52.524342054402965, "lng": 13.336093425750732}], "distance": 767, "postalCode": "10555", "cc": "DE", "city": "Berlin", "state": "Berlin", "country": "Deutschland", "formattedAddress": ["Elberfelder Str. 2", "10555 Berlin", "Deutschland"]}, "categories": [{"id": "4bf58dd8d48988d16a941735", "name": "Bakery", "pluralName": "Bakeries", "shortName": "Bakery", "icon": {"prefix": "https://ss3.4sqi.net/img/categories_v2/food/bakery_", "suffix": ".png"}, "primary": true}], "photos": {"count": 0, "groups": []}}, "referralId": "e-0-518e1278498ee2886e8ebb6a-35"}, {"reasons": {"count": 0, "items": [{"summary": "This spot is popular", "type": "general", "reasonName": "globalInteractionReason"}]}, "venue": {"id": "5765c066498ec6de8e2b735b", "name": "KOWSKI", "location": {"address": "Wilhelmshavener Str. 4", "lat": 52.527820615830024, "lng": 13.341444789252778, "labeledLatLngs": [{"label": "display", "lat": 52.527820615830024, "lng": 13.341444789252778}], "distance": 711, "postalCode": "10551", "cc": "DE", "city": "Berlin", "state": "Berlin", "country": "Deutschland", "formattedAddress": ["Wilhelmshavener Str. 4", "10551 Berlin", "Deutschland"]}, "categories": [{"id": "4bf58dd8d48988d116941735", "name": "Bar", "pluralName": "Bars", "shortName": "Bar", "icon": {"prefix": "https://ss3.4sqi.net/img/categories_v2/nightlife/pub_", "suffix": ".png"}, "primary": true}], "photos": {"count": 0, "groups": []}}, "referralId": "e-0-5765c066498ec6de8e2b735b-36"}, {"reasons": {"count": 0, "items": [{"summary": "This spot is popular", "type": "general", "reasonName": "globalInteractionReason"}]}, "venue": {"id": "4bc0938b461576b0364f7a32", "name": "Kanun", "location": {"address": "Huttenstr. 70", "lat": 52.52747397515529, "lng": 13.327646647788121, "labeledLatLngs": [{"label": "display", "lat": 52.52747397515529, "lng": 13.327646647788121}], "distance": 480, "postalCode": "10553", "cc": "DE", "city": "Berlin", "state": "Berlin", "country": "Deutschland", "formattedAddress": ["Huttenstr. 70", "10553 Berlin", "Deutschland"]}, "categories": [{"id": "4d4ae6fc7a7b7dea34424761", "name": "Fried Chicken Joint", "pluralName": "Fried Chicken Joints", "shortName": "Fried Chicken", "icon": {"prefix": "https://ss3.4sqi.net/img/categories_v2/food/friedchicken_", "suffix": ".png"}, "primary": true}], "photos": {"count": 0, "groups": []}}, "referralId": "e-0-4bc0938b461576b0364f7a32-37"}, {"reasons": {"count": 0, "items": [{"summary": "This spot is popular", "type": "general", "reasonName": "globalInteractionReason"}]}, "venue": {"id": "55b668d2498e30478e6faa41", "name": "Wilhelms-Burger", "location": {"address": "Wilhelmshavener Str. 3", "lat": 52.52775903929864, "lng": 13.341485459948792, "labeledLatLngs": [{"label": "display", "lat": 52.52775903929864, "lng": 13.341485459948792}], "distance": 717, "postalCode": "10551", "cc": "DE", "city": "Berlin", "state": "Berlin", "country": "Deutschland", "formattedAddress": ["Wilhelmshavener Str. 3", "10551 Berlin", "Deutschland"]}, "categories": [{"id": "4bf58dd8d48988d16c941735", "name": "Burger Joint", "pluralName": "Burger Joints", "shortName": "Burgers", "icon": {"prefix": "https://ss3.4sqi.net/img/categories_v2/food/burger_", "suffix": ".png"}, "primary": true}], "photos": {"count": 0, "groups": []}}, "referralId": "e-0-55b668d2498e30478e6faa41-38"}, {"reasons": {"count": 0, "items": [{"summary": "This spot is popular", "type": "general", "reasonName": "globalInteractionReason"}]}, "venue": {"id": "53d912b8498e73e427138e86", "name": "Humbaba", "location": {"address": "Turmstr. 85", "lat": 52.526300316181675, "lng": 13.338223099708557, "labeledLatLngs": [{"label": "display", "lat": 52.526300316181675, "lng": 13.338223099708557}], "distance": 648, "postalCode": "10551", "cc": "DE", "city": "Berlin", "state": "Berlin", "country": "Deutschland", "formattedAddress": ["Turmstr. 85", "10551 Berlin", "Deutschland"]}, "categories": [{"id": "5bae9231bedf3950379f89e4", "name": "Shawarma Place", "pluralName": "Shawarma Places", "shortName": "Shawarma Place", "icon": {"prefix": "https://ss3.4sqi.net/img/categories_v2/food/middleeastern_", "suffix": ".png"}, "primary": true}], "photos": {"count": 0, "groups": []}}, "referralId": "e-0-53d912b8498e73e427138e86-39"}, {"reasons": {"count": 0, "items": [{"summary": "This spot is popular", "type": "general", "reasonName": "globalInteractionReason"}]}, "venue": {"id": "506d9036830297190ce91196", "name": "BIO COMPANY", "location": {"address": "Turmstr. 42", "lat": 52.52689079750634, "lng": 13.334986166390536, "labeledLatLngs": [{"label": "display", "lat": 52.52689079750634, "lng": 13.334986166390536}], "distance": 476, "postalCode": "10551", "cc": "DE", "city": "Berlin", "state": "Berlin", "country": "Deutschland", "formattedAddress": ["Turmstr. 42", "10551 Berlin", "Deutschland"]}, "categories": [{"id": "52f2ab2ebcbc57f1066b8b45", "name": "Organic Grocery", "pluralName": "Organic Groceries", "shortName": "Organic Grocery", "icon": {"prefix": "https://ss3.4sqi.net/img/categories_v2/shops/food_grocery_", "suffix": ".png"}, "primary": true}], "photos": {"count": 0, "groups": []}, "venuePage": {"id": "456289308"}}, "referralId": "e-0-506d9036830297190ce91196-40"}, {"reasons": {"count": 0, "items": [{"summary": "This spot is popular", "type": "general", "reasonName": "globalInteractionReason"}]}, "venue": {"id": "4b3675bcf964a520f03525e3", "name": "Lichtblick", "location": {"address": "Birkenstr. 33", "crossStreet": "Wilhelmshavener Stra\u00dfe", "lat": 52.532392, "lng": 13.341196, "labeledLatLngs": [{"label": "display", "lat": 52.532392, "lng": 13.341196}], "distance": 637, "postalCode": "10551", "cc": "DE", "city": "Berlin", "state": "Berlin", "country": "Deutschland", "formattedAddress": ["Birkenstr. 33 (Wilhelmshavener Stra\u00dfe)", "10551 Berlin", "Deutschland"]}, "categories": [{"id": "4bf58dd8d48988d1c4941735", "name": "Restaurant", "pluralName": "Restaurants", "shortName": "Restaurant", "icon": {"prefix": "https://ss3.4sqi.net/img/categories_v2/food/default_", "suffix": ".png"}, "primary": true}], "photos": {"count": 0, "groups": []}}, "referralId": "e-0-4b3675bcf964a520f03525e3-41"}, {"reasons": {"count": 0, "items": [{"summary": "This spot is popular", "type": "general", "reasonName": "globalInteractionReason"}]}, "venue": {"id": "4c0632c7d3842d7f5235bf41", "name": "Focaccia Pasta & Pizza", "location": {"address": "Alt-Moabit 51", "lat": 52.52384359546581, "lng": 13.330276295254126, "labeledLatLngs": [{"label": "display", "lat": 52.52384359546581, "lng": 13.330276295254126}], "distance": 785, "cc": "DE", "city": "Berlin", "state": "Berlin", "country": "Deutschland", "formattedAddress": ["Alt-Moabit 51", "Berlin", "Deutschland"]}, "categories": [{"id": "4bf58dd8d48988d110941735", "name": "Italian Restaurant", "pluralName": "Italian Restaurants", "shortName": "Italian", "icon": {"prefix": "https://ss3.4sqi.net/img/categories_v2/food/italian_", "suffix": ".png"}, "primary": true}], "photos": {"count": 0, "groups": []}}, "referralId": "e-0-4c0632c7d3842d7f5235bf41-42"}, {"reasons": {"count": 0, "items": [{"summary": "This spot is popular", "type": "general", "reasonName": "globalInteractionReason"}]}, "venue": {"id": "4b445560f964a520e9f325e3", "name": "Arema Caf\u00e9 & Restaurant", "location": {"address": "Birkenstr. 30", "lat": 52.53224629268898, "lng": 13.34228664798818, "labeledLatLngs": [{"label": "display", "lat": 52.53224629268898, "lng": 13.34228664798818}], "distance": 704, "postalCode": "10551", "cc": "DE", "city": "Berlin", "state": "Berlin", "country": "Deutschland", "formattedAddress": ["Birkenstr. 30", "10551 Berlin", "Deutschland"]}, "categories": [{"id": "4bf58dd8d48988d143941735", "name": "Breakfast Spot", "pluralName": "Breakfast Spots", "shortName": "Breakfast", "icon": {"prefix": "https://ss3.4sqi.net/img/categories_v2/food/breakfast_", "suffix": ".png"}, "primary": true}], "photos": {"count": 0, "groups": []}}, "referralId": "e-0-4b445560f964a520e9f325e3-43"}, {"reasons": {"count": 0, "items": [{"summary": "This spot is popular", "type": "general", "reasonName": "globalInteractionReason"}]}, "venue": {"id": "51795b9de4b0cca38d411a98", "name": "dm-drogerie markt", "location": {"address": "Turmstra\u00dfe 29", "crossStreet": "Wilhelmshavener Str.", "lat": 52.526563, "lng": 13.341574, "labeledLatLngs": [{"label": "display", "lat": 52.526563, "lng": 13.341574}], "distance": 793, "postalCode": "10551", "cc": "DE", "city": "Berlin", "state": "Berlin", "country": "Deutschland", "formattedAddress": ["Turmstra\u00dfe 29 (Wilhelmshavener Str.)", "10551 Berlin", "Deutschland"]}, "categories": [{"id": "5745c2e4498e11e7bccabdbd", "name": "Drugstore", "pluralName": "Drugstores", "shortName": "Drugstore", "icon": {"prefix": "https://ss3.4sqi.net/img/categories_v2/shops/pharmacy_", "suffix": ".png"}, "primary": true}], "photos": {"count": 0, "groups": []}, "venuePage": {"id": "452039801"}}, "referralId": "e-0-51795b9de4b0cca38d411a98-44"}, {"reasons": {"count": 0, "items": [{"summary": "This spot is popular", "type": "general", "reasonName": "globalInteractionReason"}]}, "venue": {"id": "4de3acbee4cd056f74603eff", "name": "Caf\u00e9 & Simit Evi", "location": {"address": "Turmstr. 39", "lat": 52.52915018239252, "lng": 13.337161177135163, "labeledLatLngs": [{"label": "display", "lat": 52.52915018239252, "lng": 13.337161177135163}], "distance": 385, "postalCode": "10551", "cc": "DE", "city": "Berlin", "state": "Berlin", "country": "Deutschland", "formattedAddress": ["Turmstr. 39", "10551 Berlin", "Deutschland"]}, "categories": [{"id": "4bf58dd8d48988d143941735", "name": "Breakfast Spot", "pluralName": "Breakfast Spots", "shortName": "Breakfast", "icon": {"prefix": "https://ss3.4sqi.net/img/categories_v2/food/breakfast_", "suffix": ".png"}, "primary": true}], "photos": {"count": 0, "groups": []}}, "referralId": "e-0-4de3acbee4cd056f74603eff-45"}, {"reasons": {"count": 0, "items": [{"summary": "This spot is popular", "type": "general", "reasonName": "globalInteractionReason"}]}, "venue": {"id": "5b75da3212c8f0002cd2b9f0", "name": "Kaufland", "location": {"address": "Perleberger Str. 42a", "crossStreet": "Stromstr.", "lat": 52.52900800094072, "lng": 13.34416258044748, "labeledLatLngs": [{"label": "display", "lat": 52.52900800094072, "lng": 13.34416258044748}], "distance": 837, "postalCode": "10559", "cc": "DE", "city": "Berlin", "state": "Berlin", "country": "Deutschland", "formattedAddress": ["Perleberger Str. 42a (Stromstr.)", "10559 Berlin", "Deutschland"]}, "categories": [{"id": "52f2ab2ebcbc57f1066b8b42", "name": "Big Box Store", "pluralName": "Big Box Stores", "shortName": "Big Box Store", "icon": {"prefix": "https://ss3.4sqi.net/img/categories_v2/shops/default_", "suffix": ".png"}, "primary": true}], "photos": {"count": 0, "groups": []}}, "referralId": "e-0-5b75da3212c8f0002cd2b9f0-46"}, {"reasons": {"count": 0, "items": [{"summary": "This spot is popular", "type": "general", "reasonName": "globalInteractionReason"}]}, "venue": {"id": "50d448aae4b038b59eaeca5e", "name": "Thea & coffee", "location": {"address": "Birkenstr. 19", "lat": 52.531051148755026, "lng": 13.34619112126696, "labeledLatLngs": [{"label": "display", "lat": 52.531051148755026, "lng": 13.34619112126696}], "distance": 950, "postalCode": "10559", "cc": "DE", "city": "Berlin", "state": "Berlin", "country": "Deutschland", "formattedAddress": ["Birkenstr. 19", "10559 Berlin", "Deutschland"]}, "categories": [{"id": "4bf58dd8d48988d16d941735", "name": "Caf\u00e9", "pluralName": "Caf\u00e9s", "shortName": "Caf\u00e9", "icon": {"prefix": "https://ss3.4sqi.net/img/categories_v2/food/cafe_", "suffix": ".png"}, "primary": true}], "photos": {"count": 0, "groups": []}}, "referralId": "e-0-50d448aae4b038b59eaeca5e-47"}, {"reasons": {"count": 0, "items": [{"summary": "This spot is popular", "type": "general", "reasonName": "globalInteractionReason"}]}, "venue": {"id": "54342923498ed6ec05a72716", "name": "Wallyard", "location": {"address": "L\u00fcbecker Str. 46", "lat": 52.52759272113066, "lng": 13.345239758491514, "labeledLatLngs": [{"label": "display", "lat": 52.52759272113066, "lng": 13.345239758491514}], "distance": 955, "postalCode": "10559", "cc": "DE", "city": "Berlin", "state": "Berlin", "country": "Deutschland", "formattedAddress": ["L\u00fcbecker Str. 46", "10559 Berlin", "Deutschland"]}, "categories": [{"id": "4bf58dd8d48988d1ee931735", "name": "Hostel", "pluralName": "Hostels", "shortName": "Hostel", "icon": {"prefix": "https://ss3.4sqi.net/img/categories_v2/travel/hostel_", "suffix": ".png"}, "primary": true}], "photos": {"count": 0, "groups": []}}, "referralId": "e-0-54342923498ed6ec05a72716-48"}, {"reasons": {"count": 0, "items": [{"summary": "This spot is popular", "type": "general", "reasonName": "globalInteractionReason"}]}, "venue": {"id": "4ec79eecf5b9e88192aace96", "name": "Big Bascha", "location": {"address": "Huttenstr. 3", "lat": 52.527589931972564, "lng": 13.327295558095226, "labeledLatLngs": [{"label": "display", "lat": 52.527589931972564, "lng": 13.327295558095226}], "distance": 486, "postalCode": "10553", "cc": "DE", "neighborhood": "Moabit", "city": "Berlin", "state": "Berlin", "country": "Deutschland", "formattedAddress": ["Huttenstr. 3", "10553 Berlin", "Deutschland"]}, "categories": [{"id": "58daa1558bbb0b01f18ec1cd", "name": "Lebanese Restaurant", "pluralName": "Lebanese Restaurants", "shortName": "Lebanese", "icon": {"prefix": "https://ss3.4sqi.net/img/categories_v2/food/middleeastern_", "suffix": ".png"}, "primary": true}], "photos": {"count": 0, "groups": []}}, "referralId": "e-0-4ec79eecf5b9e88192aace96-49"}, {"reasons": {"count": 0, "items": [{"summary": "This spot is popular", "type": "general", "reasonName": "globalInteractionReason"}]}, "venue": {"id": "528f5e9211d2d2479a4c1a54", "name": "Der Hofladen", "location": {"address": "Arminiusstr. 2-4", "lat": 52.527938169500885, "lng": 13.338569216491486, "labeledLatLngs": [{"label": "display", "lat": 52.527938169500885, "lng": 13.338569216491486}], "distance": 539, "cc": "DE", "city": "Berlin", "state": "Berlin", "country": "Deutschland", "formattedAddress": ["Arminiusstr. 2-4", "Berlin", "Deutschland"]}, "categories": [{"id": "4bf58dd8d48988d10d941735", "name": "German Restaurant", "pluralName": "German Restaurants", "shortName": "German", "icon": {"prefix": "https://ss3.4sqi.net/img/categories_v2/food/german_", "suffix": ".png"}, "primary": true}], "photos": {"count": 0, "groups": []}}, "referralId": "e-0-528f5e9211d2d2479a4c1a54-50"}, {"reasons": {"count": 0, "items": [{"summary": "This spot is popular", "type": "general", "reasonName": "globalInteractionReason"}]}, "venue": {"id": "54a1b5f2498e03eea6180c8a", "name": "Trattoria da Luma", "location": {"address": "Birkenstrasse 55", "lat": 52.531531708133606, "lng": 13.344550872952926, "labeledLatLngs": [{"label": "display", "lat": 52.531531708133606, "lng": 13.344550872952926}], "distance": 843, "postalCode": "10559", "cc": "DE", "city": "Berlin", "state": "Berlin", "country": "Deutschland", "formattedAddress": ["Birkenstrasse 55", "10559 Berlin", "Deutschland"]}, "categories": [{"id": "55a5a1ebe4b013909087cb7f", "name": "Trattoria/Osteria", "pluralName": "Trattorias/Osterias", "shortName": "Trattoria/Osteria", "icon": {"prefix": "https://ss3.4sqi.net/img/categories_v2/food/italian_", "suffix": ".png"}, "primary": true}], "photos": {"count": 0, "groups": []}}, "referralId": "e-0-54a1b5f2498e03eea6180c8a-51"}, {"reasons": {"count": 0, "items": [{"summary": "This spot is popular", "type": "general", "reasonName": "globalInteractionReason"}]}, "venue": {"id": "5b9ba49166f3cd002c373a26", "name": "FitX", "location": {"address": "Stromstra\u00dfe 11-17", "lat": 52.527584, "lng": 13.3436737, "labeledLatLngs": [{"label": "display", "lat": 52.527584, "lng": 13.3436737}], "distance": 858, "postalCode": "10551", "cc": "DE", "neighborhood": "Turmstra\u00dfe", "city": "Berlin", "state": "Berlin", "country": "Deutschland", "formattedAddress": ["Stromstra\u00dfe 11-17", "10551 Berlin", "Deutschland"]}, "categories": [{"id": "4bf58dd8d48988d175941735", "name": "Gym / Fitness Center", "pluralName": "Gyms or Fitness Centers", "shortName": "Gym / Fitness", "icon": {"prefix": "https://ss3.4sqi.net/img/categories_v2/building/gym_", "suffix": ".png"}, "primary": true}], "photos": {"count": 0, "groups": []}}, "referralId": "e-0-5b9ba49166f3cd002c373a26-52"}, {"reasons": {"count": 0, "items": [{"summary": "This spot is popular", "type": "general", "reasonName": "globalInteractionReason"}]}, "venue": {"id": "559d9d84498eddeef0d4c782", "name": "S\u00f6nmez Baklava Manufaktur", "location": {"address": "Turmstr. 31", "lat": 52.52646599096769, "lng": 13.340957566636522, "labeledLatLngs": [{"label": "display", "lat": 52.52646599096769, "lng": 13.340957566636522}], "distance": 767, "postalCode": "10551", "cc": "DE", "neighborhood": "Turmstra\u00dfe", "city": "Berlin", "state": "Berlin", "country": "Deutschland", "formattedAddress": ["Turmstr. 31", "10551 Berlin", "Deutschland"]}, "categories": [{"id": "5744ccdfe4b0c0459246b4e2", "name": "Pastry Shop", "pluralName": "Pastry Shops", "shortName": "Pastry", "icon": {"prefix": "https://ss3.4sqi.net/img/categories_v2/food/dessert_", "suffix": ".png"}, "primary": true}], "photos": {"count": 0, "groups": []}}, "referralId": "e-0-559d9d84498eddeef0d4c782-53"}, {"reasons": {"count": 0, "items": [{"summary": "This spot is popular", "type": "general", "reasonName": "globalInteractionReason"}]}, "venue": {"id": "56765ab3498ef8a58e215083", "name": "Mercure Hotel MOA Berlin", "location": {"address": "Stephanstrasse 41", "crossStreet": "Birkenstr.", "lat": 52.53208518021409, "lng": 13.344259482313191, "labeledLatLngs": [{"label": "display", "lat": 52.53208518021409, "lng": 13.344259482313191}], "distance": 832, "postalCode": "10559", "cc": "DE", "city": "Berlin", "state": "Berlin", "country": "Deutschland", "formattedAddress": ["Stephanstrasse 41 (Birkenstr.)", "10559 Berlin", "Deutschland"]}, "categories": [{"id": "4bf58dd8d48988d1fa931735", "name": "Hotel", "pluralName": "Hotels", "shortName": "Hotel", "icon": {"prefix": "https://ss3.4sqi.net/img/categories_v2/travel/hotel_", "suffix": ".png"}, "primary": true}], "photos": {"count": 0, "groups": []}}, "referralId": "e-0-56765ab3498ef8a58e215083-54"}, {"reasons": {"count": 0, "items": [{"summary": "This spot is popular", "type": "general", "reasonName": "globalInteractionReason"}]}, "venue": {"id": "4bbe38a279eaef3b66daaec3", "name": "Dicker Engel", "location": {"address": "Birkenstr. 44", "lat": 52.53238228959622, "lng": 13.34082598218573, "labeledLatLngs": [{"label": "display", "lat": 52.53238228959622, "lng": 13.34082598218573}], "distance": 612, "postalCode": "10551", "cc": "DE", "city": "Berlin", "state": "Berlin", "country": "Deutschland", "formattedAddress": ["Birkenstr. 44", "10551 Berlin", "Deutschland"]}, "categories": [{"id": "4bf58dd8d48988d10d941735", "name": "German Restaurant", "pluralName": "German Restaurants", "shortName": "German", "icon": {"prefix": "https://ss3.4sqi.net/img/categories_v2/food/german_", "suffix": ".png"}, "primary": true}], "photos": {"count": 0, "groups": []}}, "referralId": "e-0-4bbe38a279eaef3b66daaec3-55"}, {"reasons": {"count": 0, "items": [{"summary": "This spot is popular", "type": "general", "reasonName": "globalInteractionReason"}]}, "venue": {"id": "5bafe69a59c423002c1262c0", "name": "MEININGER Hotel Berlin Tiergarten", "location": {"address": "Turmstr. 25", "crossStreet": "Stromstr.", "lat": 52.52657220109225, "lng": 13.344305319557076, "labeledLatLngs": [{"label": "display", "lat": 52.52657220109225, "lng": 13.344305319557076}], "distance": 948, "postalCode": "10559", "cc": "DE", "city": "Berlin", "state": "Berlin", "country": "Deutschland", "formattedAddress": ["Turmstr. 25 (Stromstr.)", "10559 Berlin", "Deutschland"]}, "categories": [{"id": "4bf58dd8d48988d1fa931735", "name": "Hotel", "pluralName": "Hotels", "shortName": "Hotel", "icon": {"prefix": "https://ss3.4sqi.net/img/categories_v2/travel/hotel_", "suffix": ".png"}, "primary": true}], "photos": {"count": 0, "groups": []}}, "referralId": "e-0-5bafe69a59c423002c1262c0-56"}, {"reasons": {"count": 0, "items": [{"summary": "This spot is popular", "type": "general", "reasonName": "globalInteractionReason"}]}, "venue": {"id": "4e39798aa809d73012e63a07", "name": "Zunftwirtschaft", "location": {"address": "Arminiusstr. 2-4", "lat": 52.52748502217075, "lng": 13.338249921798704, "labeledLatLngs": [{"label": "display", "lat": 52.52748502217075, "lng": 13.338249921798704}], "distance": 554, "postalCode": "10551", "cc": "DE", "city": "Berlin", "state": "Berlin", "country": "Deutschland", "formattedAddress": ["Arminiusstr. 2-4", "10551 Berlin", "Deutschland"]}, "categories": [{"id": "4bf58dd8d48988d10d941735", "name": "German Restaurant", "pluralName": "German Restaurants", "shortName": "German", "icon": {"prefix": "https://ss3.4sqi.net/img/categories_v2/food/german_", "suffix": ".png"}, "primary": true}], "photos": {"count": 0, "groups": []}}, "referralId": "e-0-4e39798aa809d73012e63a07-57"}, {"reasons": {"count": 0, "items": [{"summary": "This spot is popular", "type": "general", "reasonName": "globalInteractionReason"}]}, "venue": {"id": "54df15c6498ed36be495c287", "name": "geh Veg", "location": {"address": "Birkenstr. 30", "lat": 52.53217798550378, "lng": 13.342044124870919, "labeledLatLngs": [{"label": "display", "lat": 52.53217798550378, "lng": 13.342044124870919}], "distance": 686, "postalCode": "10551", "cc": "DE", "city": "Berlin", "state": "Berlin", "country": "Deutschland", "formattedAddress": ["Birkenstr. 30", "10551 Berlin", "Deutschland"]}, "categories": [{"id": "4bf58dd8d48988d1d3941735", "name": "Vegetarian / Vegan Restaurant", "pluralName": "Vegetarian / Vegan Restaurants", "shortName": "Vegetarian / Vegan", "icon": {"prefix": "https://ss3.4sqi.net/img/categories_v2/food/vegetarian_", "suffix": ".png"}, "primary": true}], "photos": {"count": 0, "groups": []}}, "referralId": "e-0-54df15c6498ed36be495c287-58"}, {"reasons": {"count": 0, "items": [{"summary": "This spot is popular", "type": "general", "reasonName": "globalInteractionReason"}]}, "venue": {"id": "50aa1a2ee4b0b2e8c0c734ff", "name": "Burgerlich", "location": {"address": "Arminiusstr. 2-4", "lat": 52.527867, "lng": 13.338765, "labeledLatLngs": [{"label": "display", "lat": 52.527867, "lng": 13.338765}], "distance": 554, "postalCode": "10551", "cc": "DE", "city": "Berlin", "state": "Berlin", "country": "Deutschland", "formattedAddress": ["Arminiusstr. 2-4", "10551 Berlin", "Deutschland"]}, "categories": [{"id": "4bf58dd8d48988d16c941735", "name": "Burger Joint", "pluralName": "Burger Joints", "shortName": "Burgers", "icon": {"prefix": "https://ss3.4sqi.net/img/categories_v2/food/burger_", "suffix": ".png"}, "primary": true}], "photos": {"count": 0, "groups": []}}, "referralId": "e-0-50aa1a2ee4b0b2e8c0c734ff-59"}, {"reasons": {"count": 0, "items": [{"summary": "This spot is popular", "type": "general", "reasonName": "globalInteractionReason"}]}, "venue": {"id": "590ee3d282a750569dcd7247", "name": "Beirut Express", "location": {"address": "Huttenstr. 72", "lat": 52.527609, "lng": 13.328155, "labeledLatLngs": [{"label": "display", "lat": 52.527609, "lng": 13.328155}], "distance": 447, "cc": "DE", "city": "Berlin", "state": "Berlin", "country": "Deutschland", "formattedAddress": ["Huttenstr. 72", "Berlin", "Deutschland"]}, "categories": [{"id": "58daa1558bbb0b01f18ec1cd", "name": "Lebanese Restaurant", "pluralName": "Lebanese Restaurants", "shortName": "Lebanese", "icon": {"prefix": "https://ss3.4sqi.net/img/categories_v2/food/middleeastern_", "suffix": ".png"}, "primary": true}], "photos": {"count": 0, "groups": []}}, "referralId": "e-0-590ee3d282a750569dcd7247-60"}, {"reasons": {"count": 0, "items": [{"summary": "This spot is popular", "type": "general", "reasonName": "globalInteractionReason"}]}, "venue": {"id": "52851632498e6f29acf6b5a9", "name": "An Nam", "location": {"address": "Gotzkowskystr 10", "lat": 52.52534362475411, "lng": 13.330186292925472, "labeledLatLngs": [{"label": "display", "lat": 52.52534362475411, "lng": 13.330186292925472}], "distance": 622, "postalCode": "10555", "cc": "DE", "city": "Berlin", "state": "Berlin", "country": "Deutschland", "formattedAddress": ["Gotzkowskystr 10", "10555 Berlin", "Deutschland"]}, "categories": [{"id": "4bf58dd8d48988d142941735", "name": "Asian Restaurant", "pluralName": "Asian Restaurants", "shortName": "Asian", "icon": {"prefix": "https://ss3.4sqi.net/img/categories_v2/food/asian_", "suffix": ".png"}, "primary": true}], "photos": {"count": 0, "groups": []}}, "referralId": "e-0-52851632498e6f29acf6b5a9-61"}, {"reasons": {"count": 0, "items": [{"summary": "This spot is popular", "type": "general", "reasonName": "globalInteractionReason"}]}, "venue": {"id": "5165ab11e4b0c1c41a980f39", "name": "City Chicken", "location": {"address": "Huttenstr. 71", "lat": 52.52747408784474, "lng": 13.328018140354283, "labeledLatLngs": [{"label": "display", "lat": 52.52747408784474, "lng": 13.328018140354283}], "distance": 464, "postalCode": "10553", "cc": "DE", "city": "Berlin", "state": "Berlin", "country": "Deutschland", "formattedAddress": ["Huttenstr. 71", "10553 Berlin", "Deutschland"]}, "categories": [{"id": "52e81612bcbc57f1066b79ff", "name": "Halal Restaurant", "pluralName": "Halal Restaurants", "shortName": "Halal", "icon": {"prefix": "https://ss3.4sqi.net/img/categories_v2/food/halal_", "suffix": ".png"}, "primary": true}], "photos": {"count": 0, "groups": []}}, "referralId": "e-0-5165ab11e4b0c1c41a980f39-62"}, {"reasons": {"count": 0, "items": [{"summary": "This spot is popular", "type": "general", "reasonName": "globalInteractionReason"}]}, "venue": {"id": "5908787235d3fc5e1cc34bfd", "name": "Caf\u00e9 Ella", "location": {"address": "Elberfelder Str. 9", "lat": 52.522629, "lng": 13.335777, "labeledLatLngs": [{"label": "display", "lat": 52.522629, "lng": 13.335777}], "distance": 942, "postalCode": "10555", "cc": "DE", "city": "Berlin", "state": "Berlin", "country": "Deutschland", "formattedAddress": ["Elberfelder Str. 9", "10555 Berlin", "Deutschland"]}, "categories": [{"id": "4bf58dd8d48988d16d941735", "name": "Caf\u00e9", "pluralName": "Caf\u00e9s", "shortName": "Caf\u00e9", "icon": {"prefix": "https://ss3.4sqi.net/img/categories_v2/food/cafe_", "suffix": ".png"}, "primary": true}], "photos": {"count": 0, "groups": []}}, "referralId": "e-0-5908787235d3fc5e1cc34bfd-63"}, {"reasons": {"count": 0, "items": [{"summary": "This spot is popular", "type": "general", "reasonName": "globalInteractionReason"}]}, "venue": {"id": "5b68826f029a550039102c17", "name": "Alverdes", "location": {"address": "Stromstra\u00dfe 20", "lat": 52.525985, "lng": 13.343321, "labeledLatLngs": [{"label": "display", "lat": 52.525985, "lng": 13.343321}], "distance": 927, "postalCode": "10555", "cc": "DE", "city": "Berlin", "state": "Berlin", "country": "Deutschland", "formattedAddress": ["Stromstra\u00dfe 20", "10555 Berlin", "Deutschland"]}, "categories": [{"id": "4bf58dd8d48988d1c4941735", "name": "Restaurant", "pluralName": "Restaurants", "shortName": "Restaurant", "icon": {"prefix": "https://ss3.4sqi.net/img/categories_v2/food/default_", "suffix": ".png"}, "primary": true}], "photos": {"count": 0, "groups": []}}, "referralId": "e-0-5b68826f029a550039102c17-64"}, {"reasons": {"count": 0, "items": [{"summary": "This spot is popular", "type": "general", "reasonName": "globalInteractionReason"}]}, "venue": {"id": "50601e6ee4b08a8b4600034c", "name": "Stadtgarten Moabit", "location": {"address": "Siemensstr. 27", "lat": 52.53405417545038, "lng": 13.337144851684569, "labeledLatLngs": [{"label": "display", "lat": 52.53405417545038, "lng": 13.337144851684569}], "distance": 494, "postalCode": "10551", "cc": "DE", "city": "Berlin", "state": "Berlin", "country": "Deutschland", "formattedAddress": ["Siemensstr. 27", "10551 Berlin", "Deutschland"]}, "categories": [{"id": "4bf58dd8d48988d163941735", "name": "Park", "pluralName": "Parks", "shortName": "Park", "icon": {"prefix": "https://ss3.4sqi.net/img/categories_v2/parks_outdoors/park_", "suffix": ".png"}, "primary": true}], "photos": {"count": 0, "groups": []}}, "referralId": "e-0-50601e6ee4b08a8b4600034c-65"}, {"reasons": {"count": 0, "items": [{"summary": "This spot is popular", "type": "general", "reasonName": "globalInteractionReason"}]}, "venue": {"id": "4e613559b61cd7808804a0c9", "name": "Ristorante La Tettoia", "location": {"address": "Waldstra\u00dfe 55", "lat": 52.52823381983103, "lng": 13.3308434860563, "labeledLatLngs": [{"label": "display", "lat": 52.52823381983103, "lng": 13.3308434860563}], "distance": 299, "postalCode": "10551", "cc": "DE", "city": "Berlin", "state": "Berlin", "country": "Deutschland", "formattedAddress": ["Waldstra\u00dfe 55", "10551 Berlin", "Deutschland"]}, "categories": [{"id": "4bf58dd8d48988d110941735", "name": "Italian Restaurant", "pluralName": "Italian Restaurants", "shortName": "Italian", "icon": {"prefix": "https://ss3.4sqi.net/img/categories_v2/food/italian_", "suffix": ".png"}, "primary": true}], "photos": {"count": 0, "groups": []}}, "referralId": "e-0-4e613559b61cd7808804a0c9-66"}, {"reasons": {"count": 0, "items": [{"summary": "This spot is popular", "type": "general", "reasonName": "globalInteractionReason"}]}, "venue": {"id": "58e524aa89151d53e9bb77ca", "name": "FIT STAR Fitnessstudio Berlin-Moabit", "location": {"address": "Turmstra\u00dfe 29", "lat": 52.5264973, "lng": 13.3420837, "labeledLatLngs": [{"label": "display", "lat": 52.5264973, "lng": 13.3420837}], "distance": 825, "postalCode": "10551", "cc": "DE", "city": "Berlin", "state": "Berlin", "country": "Deutschland", "formattedAddress": ["Turmstra\u00dfe 29", "10551 Berlin", "Deutschland"]}, "categories": [{"id": "4bf58dd8d48988d175941735", "name": "Gym / Fitness Center", "pluralName": "Gyms or Fitness Centers", "shortName": "Gym / Fitness", "icon": {"prefix": "https://ss3.4sqi.net/img/categories_v2/building/gym_", "suffix": ".png"}, "primary": true}], "photos": {"count": 0, "groups": []}}, "referralId": "e-0-58e524aa89151d53e9bb77ca-67"}, {"reasons": {"count": 0, "items": [{"summary": "This spot is popular", "type": "general", "reasonName": "globalInteractionReason"}]}, "venue": {"id": "4adcda75f964a520994521e3", "name": "Gastst\u00e4tte Walhalla", "location": {"address": "Krefelder Strasse 6", "lat": 52.52423, "lng": 13.339362, "labeledLatLngs": [{"label": "display", "lat": 52.52423, "lng": 13.339362}], "distance": 879, "postalCode": "10555", "cc": "DE", "city": "Berlin", "state": "Berlin", "country": "Deutschland", "formattedAddress": ["Krefelder Strasse 6", "10555 Berlin", "Deutschland"]}, "categories": [{"id": "4bf58dd8d48988d155941735", "name": "Gastropub", "pluralName": "Gastropubs", "shortName": "Gastropub", "icon": {"prefix": "https://ss3.4sqi.net/img/categories_v2/food/gastropub_", "suffix": ".png"}, "primary": true}], "photos": {"count": 0, "groups": []}}, "referralId": "e-0-4adcda75f964a520994521e3-68"}, {"reasons": {"count": 0, "items": [{"summary": "This spot is popular", "type": "general", "reasonName": "globalInteractionReason"}]}, "venue": {"id": "4c1698e7955976b0cdcba4f6", "name": "Osteria dell'Arte", "location": {"address": "Bochumer Stra\u00dfe 26", "lat": 52.52497902832037, "lng": 13.337843239400778, "labeledLatLngs": [{"label": "display", "lat": 52.52497902832037, "lng": 13.337843239400778}], "distance": 754, "postalCode": "10555", "cc": "DE", "city": "Berlin", "state": "Berlin", "country": "Deutschland", "formattedAddress": ["Bochumer Stra\u00dfe 26", "10555 Berlin", "Deutschland"]}, "categories": [{"id": "55a5a1ebe4b013909087cb7f", "name": "Trattoria/Osteria", "pluralName": "Trattorias/Osterias", "shortName": "Trattoria/Osteria", "icon": {"prefix": "https://ss3.4sqi.net/img/categories_v2/food/italian_", "suffix": ".png"}, "primary": true}], "photos": {"count": 0, "groups": []}}, "referralId": "e-0-4c1698e7955976b0cdcba4f6-69"}, {"reasons": {"count": 0, "items": [{"summary": "This spot is popular", "type": "general", "reasonName": "globalInteractionReason"}]}, "venue": {"id": "5ce943ac27cbd10025098361", "name": "Wonder Waffel", "location": {"address": "Stromstr. 11-17", "lat": 52.526483, "lng": 13.343541, "labeledLatLngs": [{"label": "display", "lat": 52.526483, "lng": 13.343541}], "distance": 908, "cc": "DE", "country": "Deutschland", "formattedAddress": ["Stromstr. 11-17", "Deutschland"]}, "categories": [{"id": "4bf58dd8d48988d1c9941735", "name": "Ice Cream Shop", "pluralName": "Ice Cream Shops", "shortName": "Ice Cream", "icon": {"prefix": "https://ss3.4sqi.net/img/categories_v2/food/icecream_", "suffix": ".png"}, "primary": true}], "photos": {"count": 0, "groups": []}}, "referralId": "e-0-5ce943ac27cbd10025098361-70"}, {"reasons": {"count": 0, "items": [{"summary": "This spot is popular", "type": "general", "reasonName": "globalInteractionReason"}]}, "venue": {"id": "4c0221fdcbd876b0a5f1f043", "name": "Caf\u00e9 Pfau", "location": {"address": "Turmstr.", "crossStreet": "Waldstr.", "lat": 52.52726660224447, "lng": 13.33055617842835, "labeledLatLngs": [{"label": "display", "lat": 52.52726660224447, "lng": 13.33055617842835}], "distance": 408, "cc": "DE", "city": "Berlin", "state": "Berlin", "country": "Deutschland", "formattedAddress": ["Turmstr. (Waldstr.)", "Berlin", "Deutschland"]}, "categories": [{"id": "4bf58dd8d48988d143941735", "name": "Breakfast Spot", "pluralName": "Breakfast Spots", "shortName": "Breakfast", "icon": {"prefix": "https://ss3.4sqi.net/img/categories_v2/food/breakfast_", "suffix": ".png"}, "primary": true}], "photos": {"count": 0, "groups": []}}, "referralId": "e-0-4c0221fdcbd876b0a5f1f043-71"}, {"reasons": {"count": 0, "items": [{"summary": "This spot is popular", "type": "general", "reasonName": "globalInteractionReason"}]}, "venue": {"id": "4dd2c672814d137867b96e78", "name": "eisbox", "location": {"address": "Elberfelder Str. 27", "lat": 52.522152134438066, "lng": 13.33601916555651, "labeledLatLngs": [{"label": "display", "lat": 52.522152134438066, "lng": 13.33601916555651}], "distance": 998, "postalCode": "10555", "cc": "DE", "city": "Berlin", "state": "Berlin", "country": "Deutschland", "formattedAddress": ["Elberfelder Str. 27", "10555 Berlin", "Deutschland"]}, "categories": [{"id": "4bf58dd8d48988d1c9941735", "name": "Ice Cream Shop", "pluralName": "Ice Cream Shops", "shortName": "Ice Cream", "icon": {"prefix": "https://ss3.4sqi.net/img/categories_v2/food/icecream_", "suffix": ".png"}, "primary": true}], "photos": {"count": 0, "groups": []}}, "referralId": "e-0-4dd2c672814d137867b96e78-72"}, {"reasons": {"count": 0, "items": [{"summary": "This spot is popular", "type": "general", "reasonName": "globalInteractionReason"}]}, "venue": {"id": "520e49c911d2514beba4b143", "name": "La Fiamma", "location": {"address": "Turmstr. 59", "lat": 52.527443717776826, "lng": 13.329631102918592, "labeledLatLngs": [{"label": "display", "lat": 52.527443717776826, "lng": 13.329631102918592}], "distance": 411, "postalCode": "10551", "cc": "DE", "city": "Berlin", "state": "Berlin", "country": "Deutschland", "formattedAddress": ["Turmstr. 59", "10551 Berlin", "Deutschland"]}, "categories": [{"id": "4bf58dd8d48988d1ca941735", "name": "Pizza Place", "pluralName": "Pizza Places", "shortName": "Pizza", "icon": {"prefix": "https://ss3.4sqi.net/img/categories_v2/food/pizza_", "suffix": ".png"}, "primary": true}], "photos": {"count": 0, "groups": []}}, "referralId": "e-0-520e49c911d2514beba4b143-73"}, {"reasons": {"count": 0, "items": [{"summary": "This spot is popular", "type": "general", "reasonName": "globalInteractionReason"}]}, "venue": {"id": "58445382af5c144c4e117f99", "name": "Honig & Senf - Burger Grill", "location": {"address": "Huttenstrasse 68", "lat": 52.52760311139755, "lng": 13.326999361813002, "labeledLatLngs": [{"label": "display", "lat": 52.52760311139755, "lng": 13.326999361813002}], "distance": 498, "postalCode": "10553", "cc": "DE", "city": "Berlin", "state": "Berlin", "country": "Deutschland", "formattedAddress": ["Huttenstrasse 68", "10553 Berlin", "Deutschland"]}, "categories": [{"id": "4bf58dd8d48988d16c941735", "name": "Burger Joint", "pluralName": "Burger Joints", "shortName": "Burgers", "icon": {"prefix": "https://ss3.4sqi.net/img/categories_v2/food/burger_", "suffix": ".png"}, "primary": true}], "photos": {"count": 0, "groups": []}}, "referralId": "e-0-58445382af5c144c4e117f99-74"}, {"reasons": {"count": 0, "items": [{"summary": "This spot is popular", "type": "general", "reasonName": "globalInteractionReason"}]}, "venue": {"id": "5b9afe40364d97002c25d4ae", "name": "dm-drogerie markt", "location": {"address": "Stromstra\u00dfe 14", "crossStreet": "Turmstr.", "lat": 52.526658, "lng": 13.341953, "labeledLatLngs": [{"label": "display", "lat": 52.526658, "lng": 13.341953}], "distance": 808, "postalCode": "10551", "cc": "DE", "neighborhood": "Turmstra\u00dfe", "city": "Berlin", "state": "Berlin", "country": "Deutschland", "formattedAddress": ["Stromstra\u00dfe 14 (Turmstr.)", "10551 Berlin", "Deutschland"]}, "categories": [{"id": "5745c2e4498e11e7bccabdbd", "name": "Drugstore", "pluralName": "Drugstores", "shortName": "Drugstore", "icon": {"prefix": "https://ss3.4sqi.net/img/categories_v2/shops/pharmacy_", "suffix": ".png"}, "primary": true}], "photos": {"count": 0, "groups": []}}, "referralId": "e-0-5b9afe40364d97002c25d4ae-75"}, {"reasons": {"count": 0, "items": [{"summary": "This spot is popular", "type": "general", "reasonName": "globalInteractionReason"}]}, "venue": {"id": "51e3dcd9498ebf3b21ca8f60", "name": "Chum's Vietnamese Cuisine", "location": {"address": "Elberfelder Str. 8", "lat": 52.523341, "lng": 13.33587, "labeledLatLngs": [{"label": "display", "lat": 52.523341, "lng": 13.33587}], "distance": 868, "postalCode": "10555", "cc": "DE", "city": "Berlin", "state": "Berlin", "country": "Deutschland", "formattedAddress": ["Elberfelder Str. 8", "10555 Berlin", "Deutschland"]}, "categories": [{"id": "4bf58dd8d48988d14a941735", "name": "Vietnamese Restaurant", "pluralName": "Vietnamese Restaurants", "shortName": "Vietnamese", "icon": {"prefix": "https://ss3.4sqi.net/img/categories_v2/food/vietnamese_", "suffix": ".png"}, "primary": true}], "photos": {"count": 0, "groups": []}}, "referralId": "e-0-51e3dcd9498ebf3b21ca8f60-76"}, {"reasons": {"count": 0, "items": [{"summary": "This spot is popular", "type": "general", "reasonName": "globalInteractionReason"}]}, "venue": {"id": "4d26d09ef7a9224bf88ee59f", "name": "dm-drogerie markt", "location": {"address": "Turmstra\u00dfe 59", "lat": 52.52755, "lng": 13.329334, "labeledLatLngs": [{"label": "display", "lat": 52.52755, "lng": 13.329334}], "distance": 409, "postalCode": "10551", "cc": "DE", "city": "Berlin", "state": "Berlin", "country": "Deutschland", "formattedAddress": ["Turmstra\u00dfe 59", "10551 Berlin", "Deutschland"]}, "categories": [{"id": "5745c2e4498e11e7bccabdbd", "name": "Drugstore", "pluralName": "Drugstores", "shortName": "Drugstore", "icon": {"prefix": "https://ss3.4sqi.net/img/categories_v2/shops/pharmacy_", "suffix": ".png"}, "primary": true}], "photos": {"count": 0, "groups": []}, "venuePage": {"id": "454789356"}}, "referralId": "e-0-4d26d09ef7a9224bf88ee59f-77"}, {"reasons": {"count": 0, "items": [{"summary": "This spot is popular", "type": "general", "reasonName": "globalInteractionReason"}]}, "venue": {"id": "56b89edd498e84344b9ea4d4", "name": "Movinga", "location": {"address": "Perleberger Str. 42", "lat": 52.52892022, "lng": 13.34413968, "labeledLatLngs": [{"label": "display", "lat": 52.52892022, "lng": 13.34413968}], "distance": 838, "postalCode": "10559", "cc": "DE", "city": "Berlin", "state": "Berlin", "country": "Deutschland", "formattedAddress": ["Perleberger Str. 42", "10559 Berlin", "Deutschland"]}, "categories": [{"id": "52f2ab2ebcbc57f1066b8b36", "name": "IT Services", "pluralName": "IT Services", "shortName": "IT Services", "icon": {"prefix": "https://ss3.4sqi.net/img/categories_v2/shops/technology_", "suffix": ".png"}, "primary": true}], "photos": {"count": 0, "groups": []}}, "referralId": "e-0-56b89edd498e84344b9ea4d4-78"}, {"reasons": {"count": 0, "items": [{"summary": "This spot is popular", "type": "general", "reasonName": "globalInteractionReason"}]}, "venue": {"id": "4c364d5c2c8020a153178700", "name": "Subito", "location": {"address": "Waldenser Stra\u00dfe", "crossStreet": "Bremer Stra\u00dfe", "lat": 52.529161226415596, "lng": 13.337145040545183, "labeledLatLngs": [{"label": "display", "lat": 52.529161226415596, "lng": 13.337145040545183}], "distance": 384, "postalCode": "10551", "cc": "DE", "city": "Berlin", "state": "Berlin", "country": "Deutschland", "formattedAddress": ["Waldenser Stra\u00dfe (Bremer Stra\u00dfe)", "10551 Berlin", "Deutschland"]}, "categories": [{"id": "4bf58dd8d48988d116941735", "name": "Bar", "pluralName": "Bars", "shortName": "Bar", "icon": {"prefix": "https://ss3.4sqi.net/img/categories_v2/nightlife/pub_", "suffix": ".png"}, "primary": true}], "photos": {"count": 0, "groups": []}}, "referralId": "e-0-4c364d5c2c8020a153178700-79"}, {"reasons": {"count": 0, "items": [{"summary": "This spot is popular", "type": "general", "reasonName": "globalInteractionReason"}]}, "venue": {"id": "4bf13fd23a15d13ad8523f9f", "name": "Fiaker", "location": {"address": "Bochumer Str. 5", "lat": 52.52369193495437, "lng": 13.338041897270227, "labeledLatLngs": [{"label": "display", "lat": 52.52369193495437, "lng": 13.338041897270227}], "distance": 886, "postalCode": "10555", "cc": "DE", "city": "Berlin", "state": "Berlin", "country": "Deutschland", "formattedAddress": ["Bochumer Str. 5", "10555 Berlin", "Deutschland"]}, "categories": [{"id": "4bf58dd8d48988d16d941735", "name": "Caf\u00e9", "pluralName": "Caf\u00e9s", "shortName": "Caf\u00e9", "icon": {"prefix": "https://ss3.4sqi.net/img/categories_v2/food/cafe_", "suffix": ".png"}, "primary": true}], "photos": {"count": 0, "groups": []}}, "referralId": "e-0-4bf13fd23a15d13ad8523f9f-80"}, {"reasons": {"count": 0, "items": [{"summary": "This spot is popular", "type": "general", "reasonName": "globalInteractionReason"}]}, "venue": {"id": "4c7f9f25d51ea143570c5b9f", "name": "Rossmann", "location": {"address": "Turmstra\u00dfe 61", "lat": 52.5274092816705, "lng": 13.329007008503721, "labeledLatLngs": [{"label": "display", "lat": 52.5274092816705, "lng": 13.329007008503721}], "distance": 434, "postalCode": "10551", "cc": "DE", "city": "Berlin", "state": "Berlin", "country": "Deutschland", "formattedAddress": ["Turmstra\u00dfe 61", "10551 Berlin", "Deutschland"]}, "categories": [{"id": "5745c2e4498e11e7bccabdbd", "name": "Drugstore", "pluralName": "Drugstores", "shortName": "Drugstore", "icon": {"prefix": "https://ss3.4sqi.net/img/categories_v2/shops/pharmacy_", "suffix": ".png"}, "primary": true}], "photos": {"count": 0, "groups": []}}, "referralId": "e-0-4c7f9f25d51ea143570c5b9f-81"}, {"reasons": {"count": 0, "items": [{"summary": "This spot is popular", "type": "general", "reasonName": "globalInteractionReason"}]}, "venue": {"id": "4a205404f964a5206e7c1fe3", "name": "Ya-Man", "location": {"address": "Gotzkowskystr. 17", "lat": 52.524289068537385, "lng": 13.329874498717384, "labeledLatLngs": [{"label": "display", "lat": 52.524289068537385, "lng": 13.329874498717384}], "distance": 741, "postalCode": "10555", "cc": "DE", "city": "Berlin", "state": "Berlin", "country": "Deutschland", "formattedAddress": ["Gotzkowskystr. 17", "10555 Berlin", "Deutschland"]}, "categories": [{"id": "4bf58dd8d48988d144941735", "name": "Caribbean Restaurant", "pluralName": "Caribbean Restaurants", "shortName": "Caribbean", "icon": {"prefix": "https://ss3.4sqi.net/img/categories_v2/food/caribbean_", "suffix": ".png"}, "primary": true}], "photos": {"count": 0, "groups": []}}, "referralId": "e-0-4a205404f964a5206e7c1fe3-82"}, {"reasons": {"count": 0, "items": [{"summary": "This spot is popular", "type": "general", "reasonName": "globalInteractionReason"}]}, "venue": {"id": "57a78c44498e0e2f44e0d628", "name": "Delphin Fisch & Steak", "location": {"address": "Putlitzstra\u00dfe 1", "lat": 52.53233, "lng": 13.343766, "labeledLatLngs": [{"label": "display", "lat": 52.53233, "lng": 13.343766}], "distance": 804, "postalCode": "10551", "cc": "DE", "neighborhood": "Moabit", "city": "Berlin", "state": "Berlin", "country": "Deutschland", "formattedAddress": ["Putlitzstra\u00dfe 1", "10551 Berlin", "Deutschland"]}, "categories": [{"id": "4bf58dd8d48988d1ce941735", "name": "Seafood Restaurant", "pluralName": "Seafood Restaurants", "shortName": "Seafood", "icon": {"prefix": "https://ss3.4sqi.net/img/categories_v2/food/seafood_", "suffix": ".png"}, "primary": true}], "photos": {"count": 0, "groups": []}, "venuePage": {"id": "582967620"}}, "referralId": "e-0-57a78c44498e0e2f44e0d628-83"}, {"reasons": {"count": 0, "items": [{"summary": "This spot is popular", "type": "general", "reasonName": "globalInteractionReason"}]}, "venue": {"id": "4b97d1dcf964a520be1735e3", "name": "Osmanya", "location": {"address": "Birkenstr. 17", "lat": 52.530963383137504, "lng": 13.34683636051725, "labeledLatLngs": [{"label": "display", "lat": 52.530963383137504, "lng": 13.34683636051725}], "distance": 994, "postalCode": "10559", "cc": "DE", "city": "Berlin", "state": "Berlin", "country": "Deutschland", "formattedAddress": ["Birkenstr. 17", "10559 Berlin", "Deutschland"]}, "categories": [{"id": "4f04af1f2fb6e1c99f3db0bb", "name": "Turkish Restaurant", "pluralName": "Turkish Restaurants", "shortName": "Turkish", "icon": {"prefix": "https://ss3.4sqi.net/img/categories_v2/food/turkish_", "suffix": ".png"}, "primary": true}], "photos": {"count": 0, "groups": []}}, "referralId": "e-0-4b97d1dcf964a520be1735e3-84"}, {"reasons": {"count": 0, "items": [{"summary": "This spot is popular", "type": "general", "reasonName": "globalInteractionReason"}]}, "venue": {"id": "4ef09a0d722ece9f175aeb20", "name": "Blumengro\u00dfmarkt Berlin", "location": {"address": "Beusselstr.", "lat": 52.5354507925234, "lng": 13.319648354519694, "labeledLatLngs": [{"label": "display", "lat": 52.5354507925234, "lng": 13.319648354519694}], "distance": 992, "cc": "DE", "city": "Berlin", "state": "Berlin", "country": "Deutschland", "formattedAddress": ["Beusselstr.", "Berlin", "Deutschland"]}, "categories": [{"id": "4bf58dd8d48988d11b951735", "name": "Flower Shop", "pluralName": "Flower Shops", "shortName": "Flower Shop", "icon": {"prefix": "https://ss3.4sqi.net/img/categories_v2/shops/flowershop_", "suffix": ".png"}, "primary": true}], "photos": {"count": 0, "groups": []}}, "referralId": "e-0-4ef09a0d722ece9f175aeb20-85"}, {"reasons": {"count": 0, "items": [{"summary": "This spot is popular", "type": "general", "reasonName": "globalInteractionReason"}]}, "venue": {"id": "5001819ee4b0946791c0a405", "name": "Burgerme", "location": {"address": "Gotzkowskystr. 7", "lat": 52.52564757195592, "lng": 13.329977989196777, "labeledLatLngs": [{"label": "display", "lat": 52.52564757195592, "lng": 13.329977989196777}], "distance": 592, "postalCode": "10555", "cc": "DE", "city": "Berlin", "state": "Berlin", "country": "Deutschland", "formattedAddress": ["Gotzkowskystr. 7", "10555 Berlin", "Deutschland"]}, "categories": [{"id": "4bf58dd8d48988d16c941735", "name": "Burger Joint", "pluralName": "Burger Joints", "shortName": "Burgers", "icon": {"prefix": "https://ss3.4sqi.net/img/categories_v2/food/burger_", "suffix": ".png"}, "primary": true}], "photos": {"count": 0, "groups": []}, "venuePage": {"id": "35196560"}}, "referralId": "e-0-5001819ee4b0946791c0a405-86"}, {"reasons": {"count": 0, "items": [{"summary": "This spot is popular", "type": "general", "reasonName": "globalInteractionReason"}]}, "venue": {"id": "4df133f1d22d8c5470d3db82", "name": "Main Station Hostel", "location": {"address": "Quitzowstr. 110", "lat": 52.53436868384473, "lng": 13.344710106058553, "labeledLatLngs": [{"label": "display", "lat": 52.53436868384473, "lng": 13.344710106058553}], "distance": 938, "postalCode": "10559", "cc": "DE", "city": "Berlin", "state": "Berlin", "country": "Deutschland", "formattedAddress": ["Quitzowstr. 110", "10559 Berlin", "Deutschland"]}, "categories": [{"id": "4bf58dd8d48988d1ee931735", "name": "Hostel", "pluralName": "Hostels", "shortName": "Hostel", "icon": {"prefix": "https://ss3.4sqi.net/img/categories_v2/travel/hostel_", "suffix": ".png"}, "primary": true}], "photos": {"count": 0, "groups": []}}, "referralId": "e-0-4df133f1d22d8c5470d3db82-87"}, {"reasons": {"count": 0, "items": [{"summary": "This spot is popular", "type": "general", "reasonName": "globalInteractionReason"}]}, "venue": {"id": "4b6f283af964a520e4e02ce3", "name": "Beussel Grill", "location": {"address": "Siemensstra\u00dfe 43-49", "crossStreet": "Beusselstra\u00dfe", "lat": 52.533059782716215, "lng": 13.32865608049043, "labeledLatLngs": [{"label": "display", "lat": 52.533059782716215, "lng": 13.32865608049043}], "distance": 345, "postalCode": "10551", "cc": "DE", "city": "Berlin", "state": "Berlin", "country": "Deutschland", "formattedAddress": ["Siemensstra\u00dfe 43-49 (Beusselstra\u00dfe)", "10551 Berlin", "Deutschland"]}, "categories": [{"id": "5283c7b4e4b094cb91ec88d8", "name": "Doner Restaurant", "pluralName": "Doner Restaurants", "shortName": "Doner", "icon": {"prefix": "https://ss3.4sqi.net/img/categories_v2/food/turkish_", "suffix": ".png"}, "primary": true}], "photos": {"count": 0, "groups": []}}, "referralId": "e-0-4b6f283af964a520e4e02ce3-88"}, {"reasons": {"count": 0, "items": [{"summary": "This spot is popular", "type": "general", "reasonName": "globalInteractionReason"}]}, "venue": {"id": "50363570e4b0179adc8fb04d", "name": "Shell", "location": {"address": "Beusselstra\u00dfe 44", "lat": 52.53558452, "lng": 13.32487202, "labeledLatLngs": [{"label": "display", "lat": 52.53558452, "lng": 13.32487202}], "distance": 725, "postalCode": "10553", "cc": "DE", "city": "Berlin", "state": "Berlin", "country": "Deutschland", "formattedAddress": ["Beusselstra\u00dfe 44", "10553 Berlin", "Deutschland"]}, "categories": [{"id": "4bf58dd8d48988d113951735", "name": "Gas Station", "pluralName": "Gas Stations", "shortName": "Gas Station", "icon": {"prefix": "https://ss3.4sqi.net/img/categories_v2/shops/gas_", "suffix": ".png"}, "primary": true}], "photos": {"count": 0, "groups": []}}, "referralId": "e-0-50363570e4b0179adc8fb04d-89"}, {"reasons": {"count": 0, "items": [{"summary": "This spot is popular", "type": "general", "reasonName": "globalInteractionReason"}]}, "venue": {"id": "4d570828611aa35d68ec4839", "name": "Food Point", "location": {"address": "Birkenstr. 29", "lat": 52.532090821858084, "lng": 13.34238142894178, "labeledLatLngs": [{"label": "display", "lat": 52.532090821858084, "lng": 13.34238142894178}], "distance": 707, "postalCode": "10559", "cc": "DE", "city": "Berlin", "state": "Berlin", "country": "Deutschland", "formattedAddress": ["Birkenstr. 29", "10559 Berlin", "Deutschland"]}, "categories": [{"id": "5283c7b4e4b094cb91ec88d8", "name": "Doner Restaurant", "pluralName": "Doner Restaurants", "shortName": "Doner", "icon": {"prefix": "https://ss3.4sqi.net/img/categories_v2/food/turkish_", "suffix": ".png"}, "primary": true}], "photos": {"count": 0, "groups": []}}, "referralId": "e-0-4d570828611aa35d68ec4839-90"}, {"reasons": {"count": 0, "items": [{"summary": "This spot is popular", "type": "general", "reasonName": "globalInteractionReason"}]}, "venue": {"id": "4d28ad62467d6ea80494c895", "name": "Maharadsch", "location": {"address": "Gotzkowskystr. 25", "lat": 52.52447157838985, "lng": 13.32993490721969, "labeledLatLngs": [{"label": "display", "lat": 52.52447157838985, "lng": 13.32993490721969}], "distance": 720, "postalCode": "10555", "cc": "DE", "city": "Berlin", "state": "Berlin", "country": "Deutschland", "formattedAddress": ["Gotzkowskystr. 25", "10555 Berlin", "Deutschland"]}, "categories": [{"id": "4bf58dd8d48988d10f941735", "name": "Indian Restaurant", "pluralName": "Indian Restaurants", "shortName": "Indian", "icon": {"prefix": "https://ss3.4sqi.net/img/categories_v2/food/indian_", "suffix": ".png"}, "primary": true}], "photos": {"count": 0, "groups": []}}, "referralId": "e-0-4d28ad62467d6ea80494c895-91"}, {"reasons": {"count": 0, "items": [{"summary": "This spot is popular", "type": "general", "reasonName": "globalInteractionReason"}]}, "venue": {"id": "4c04a45173a8c9b6636396e0", "name": "Freundliche B\u00e4ckerei", "location": {"address": "Beusselstr. 44 S-T", "lat": 52.53314119680605, "lng": 13.328357333121604, "labeledLatLngs": [{"label": "display", "lat": 52.53314119680605, "lng": 13.328357333121604}], "distance": 365, "postalCode": "10553", "cc": "DE", "city": "Berlin", "state": "Berlin", "country": "Deutschland", "formattedAddress": ["Beusselstr. 44 S-T", "10553 Berlin", "Deutschland"]}, "categories": [{"id": "4bf58dd8d48988d16a941735", "name": "Bakery", "pluralName": "Bakeries", "shortName": "Bakery", "icon": {"prefix": "https://ss3.4sqi.net/img/categories_v2/food/bakery_", "suffix": ".png"}, "primary": true}], "photos": {"count": 0, "groups": []}}, "referralId": "e-0-4c04a45173a8c9b6636396e0-92"}, {"reasons": {"count": 0, "items": [{"summary": "This spot is popular", "type": "general", "reasonName": "globalInteractionReason"}]}, "venue": {"id": "4f4a670ae4b08334fc25129a", "name": "Melek Pastanesi", "location": {"address": "Wiclefstr. 21", "crossStreet": "Emdener Str.", "lat": 52.53080725032057, "lng": 13.333593606948853, "labeledLatLngs": [{"label": "display", "lat": 52.53080725032057, "lng": 13.333593606948853}], "distance": 97, "postalCode": "10551", "cc": "DE", "city": "Berlin", "state": "Berlin", "country": "Deutschland", "formattedAddress": ["Wiclefstr. 21 (Emdener Str.)", "10551 Berlin", "Deutschland"]}, "categories": [{"id": "4bf58dd8d48988d16a941735", "name": "Bakery", "pluralName": "Bakeries", "shortName": "Bakery", "icon": {"prefix": "https://ss3.4sqi.net/img/categories_v2/food/bakery_", "suffix": ".png"}, "primary": true}], "photos": {"count": 0, "groups": []}}, "referralId": "e-0-4f4a670ae4b08334fc25129a-93"}, {"reasons": {"count": 0, "items": [{"summary": "This spot is popular", "type": "general", "reasonName": "globalInteractionReason"}]}, "venue": {"id": "4da7efeacda119a2c8f25718", "name": "Sickinger Hof", "location": {"address": "Beusselstrasse 44-t", "lat": 52.53307240992177, "lng": 13.328257193971446, "labeledLatLngs": [{"label": "display", "lat": 52.53307240992177, "lng": 13.328257193971446}], "distance": 365, "postalCode": "13553", "cc": "DE", "city": "Berlin", "state": "Berlin", "country": "Deutschland", "formattedAddress": ["Beusselstrasse 44-t", "13553 Berlin", "Deutschland"]}, "categories": [{"id": "4bf58dd8d48988d1fa931735", "name": "Hotel", "pluralName": "Hotels", "shortName": "Hotel", "icon": {"prefix": "https://ss3.4sqi.net/img/categories_v2/travel/hotel_", "suffix": ".png"}, "primary": true}], "photos": {"count": 0, "groups": []}}, "referralId": "e-0-4da7efeacda119a2c8f25718-94"}, {"reasons": {"count": 0, "items": [{"summary": "This spot is popular", "type": "general", "reasonName": "globalInteractionReason"}]}, "venue": {"id": "4ea7f88b722e38f634c713f1", "name": "Wok-Man", "location": {"address": "Sickingenstr. 7", "lat": 52.53249804324453, "lng": 13.326752790163676, "labeledLatLngs": [{"label": "display", "lat": 52.53249804324453, "lng": 13.326752790163676}], "distance": 411, "postalCode": "10553", "cc": "DE", "city": "Berlin", "state": "Berlin", "country": "Deutschland", "formattedAddress": ["Sickingenstr. 7", "10553 Berlin", "Deutschland"]}, "categories": [{"id": "4bf58dd8d48988d142941735", "name": "Asian Restaurant", "pluralName": "Asian Restaurants", "shortName": "Asian", "icon": {"prefix": "https://ss3.4sqi.net/img/categories_v2/food/asian_", "suffix": ".png"}, "primary": true}], "photos": {"count": 0, "groups": []}}, "referralId": "e-0-4ea7f88b722e38f634c713f1-95"}, {"reasons": {"count": 0, "items": [{"summary": "This spot is popular", "type": "general", "reasonName": "globalInteractionReason"}]}, "venue": {"id": "4e9d444c0aaf015a05e50933", "name": "Lehmann Getr\u00e4nke", "location": {"address": "Beusselstr. 31", "lat": 52.53247502239694, "lng": 13.326720913020345, "labeledLatLngs": [{"label": "display", "lat": 52.53247502239694, "lng": 13.326720913020345}], "distance": 412, "postalCode": "10553", "cc": "DE", "city": "Berlin", "state": "Berlin", "country": "Deutschland", "formattedAddress": ["Beusselstr. 31", "10553 Berlin", "Deutschland"]}, "categories": [{"id": "4bf58dd8d48988d1f9941735", "name": "Food & Drink Shop", "pluralName": "Food & Drink Shops", "shortName": "Food & Drink", "icon": {"prefix": "https://ss3.4sqi.net/img/categories_v2/shops/foodanddrink_", "suffix": ".png"}, "primary": true}], "photos": {"count": 0, "groups": []}}, "referralId": "e-0-4e9d444c0aaf015a05e50933-96"}, {"reasons": {"count": 0, "items": [{"summary": "This spot is popular", "type": "general", "reasonName": "globalInteractionReason"}]}, "venue": {"id": "4e83532bf7906364bb132836", "name": "PENNY", "location": {"address": "Stephanstra\u00dfe 30", "lat": 52.53305670509825, "lng": 13.345339490763877, "labeledLatLngs": [{"label": "display", "lat": 52.53305670509825, "lng": 13.345339490763877}], "distance": 927, "postalCode": "10559", "cc": "DE", "city": "Berlin", "state": "Berlin", "country": "Deutschland", "formattedAddress": ["Stephanstra\u00dfe 30", "10559 Berlin", "Deutschland"]}, "categories": [{"id": "52f2ab2ebcbc57f1066b8b46", "name": "Supermarket", "pluralName": "Supermarkets", "shortName": "Supermarket", "icon": {"prefix": "https://ss3.4sqi.net/img/categories_v2/shops/food_grocery_", "suffix": ".png"}, "primary": true}], "photos": {"count": 0, "groups": []}, "venuePage": {"id": "473448923"}}, "referralId": "e-0-4e83532bf7906364bb132836-97"}, {"reasons": {"count": 0, "items": [{"summary": "This spot is popular", "type": "general", "reasonName": "globalInteractionReason"}]}, "venue": {"id": "4b2e15e1f964a520badc24e3", "name": "S Beusselstra\u00dfe", "location": {"address": "Beusselstr.", "lat": 52.53425765575362, "lng": 13.328670736478864, "labeledLatLngs": [{"label": "display", "lat": 52.53425765575362, "lng": 13.328670736478864}], "distance": 450, "postalCode": "10553", "cc": "DE", "city": "Berlin", "state": "Berlin", "country": "Deutschland", "formattedAddress": ["Beusselstr.", "10553 Berlin", "Deutschland"]}, "categories": [{"id": "4bf58dd8d48988d1fc931735", "name": "Light Rail Station", "pluralName": "Light Rail Stations", "shortName": "Light Rail", "icon": {"prefix": "https://ss3.4sqi.net/img/categories_v2/travel/lightrail_", "suffix": ".png"}, "primary": true}], "photos": {"count": 0, "groups": []}}, "referralId": "e-0-4b2e15e1f964a520badc24e3-98"}, {"reasons": {"count": 0, "items": [{"summary": "This spot is popular", "type": "general", "reasonName": "globalInteractionReason"}]}, "venue": {"id": "4be180d20365c9b62bd6b338", "name": "ALDI NORD", "location": {"address": "Saatwinkler Damm 8", "lat": 52.53899058713572, "lng": 13.327081661844819, "labeledLatLngs": [{"label": "display", "lat": 52.53899058713572, "lng": 13.327081661844819}], "distance": 973, "postalCode": "13627", "cc": "DE", "city": "Berlin", "state": "Berlin", "country": "Deutschland", "formattedAddress": ["Saatwinkler Damm 8", "13627 Berlin", "Deutschland"]}, "categories": [{"id": "52f2ab2ebcbc57f1066b8b46", "name": "Supermarket", "pluralName": "Supermarkets", "shortName": "Supermarket", "icon": {"prefix": "https://ss3.4sqi.net/img/categories_v2/shops/food_grocery_", "suffix": ".png"}, "primary": true}], "photos": {"count": 0, "groups": []}}, "referralId": "e-0-4be180d20365c9b62bd6b338-99"}]