[{"reasons": {"count": 0, "items": [{"summary": "This spot is popular", "type": "general", "reasonName": "globalInteractionReason"}]}, "venue": {"id": "5961d4047269fe39b84ff175", "name": "Sapori Di Casa", "location": {"address": "Wilsnacker Str. 61", "lat": 52.52742475408659, "lng": 13.351518996754958, "labeledLatLngs": [{"label": "display", "lat": 52.52742475408659, "lng": 13.351518996754958}], "distance": 288, "postalCode": "10559", "cc": "DE", "neighborhood": "Turmstra\u00dfe", "city": "Berlin", "state": "Berlin", "country": "Deutschland", "formattedAddress": ["Wilsnacker Str. 61", "10559 Berlin", "Deutschland"]}, "categories": [{"id": "4bf58dd8d48988d110941735", "name": "Italian Restaurant", "pluralName": "Italian Restaurants", "shortName": "Italian", "icon": {"prefix": "https://ss3.4sqi.net/img/categories_v2/food/italian_", "suffix": ".png"}, "primary": true}], "photos": {"count": 0, "groups": []}}, "referralId": "e-0-5961d4047269fe39b84ff175-0"}, {"reasons": {"count": 0, "items": [{"summary": "This spot is popular", "type": "general", "reasonName": "globalInteractionReason"}]}, "venue": {"id": "53a47c2d498e7989b0a7ab5b", "name": "vabali spa", "location": {"address": "Seydlitzstr. 6", "lat": 52.52760251193211, "lng": 13.360555171966553, "labeledLatLngs": [{"label": "display", "lat": 52.52760251193211, "lng": 13.360555171966553}], "distance": 383, "postalCode": "10557", "cc": "DE", "neighborhood": "Turmstra\u00dfe", "city": "Berlin", "state": "Berlin", "country": "Deutschland", "formattedAddress": ["Seydlitzstr. 6", "10557 Berlin", "Deutschland"]}, "categories": [{"id": "4bf58dd8d48988d1ed941735", "name": "Spa", "pluralName": "Spas", "shortName": "Spa", "icon": {"prefix": "https://ss3.4sqi.net/img/categories_v2/shops/spa_", "suffix": ".png"}, "primary": true}], "photos": {"count": 0, "groups": []}, "venuePage": {"id": "94213375"}}, "referralId": "e-0-53a47c2d498e7989b0a7ab5b-1"}, {"reasons": {"count": 0, "items": [{"summary": "This spot is popular", "type": "general", "reasonName": "globalInteractionReason"}]}, "venue": {"id": "4fef597ce4b018055bd14e81", "name": "Moabiter Freiheit", "location": {"address": "Alt Moabit 25", "lat": 52.52530309756155, "lng": 13.349064535222439, "labeledLatLngs": [{"label": "display", "lat": 52.52530309756155, "lng": 13.349064535222439}], "distance": 437, "postalCode": "10555", "cc": "DE", "city": "Berlin", "state": "Berlin", "country": "Deutschland", "formattedAddress": ["Alt Moabit 25", "10555 Berlin", "Deutschland"]}, "categories": [{"id": "4bf58dd8d48988d117941735", "name": "Beer Garden", "pluralName": "Beer Gardens", "shortName": "Beer Garden", "icon": {"prefix": "https://ss3.4sqi.net/img/categories_v2/nightlife/beergarden_", "suffix": ".png"}, "primary": true}], "photos": {"count": 0, "groups": []}}, "referralId": "e-0-4fef597ce4b018055bd14e81-2"}, {"reasons": {"count": 0, "items": [{"summary": "This spot is popular", "type": "general", "reasonName": "globalInteractionReason"}]}, "venue": {"id": "4d9c9833c593a1cd32c94c19", "name": "Fritz-Schlo\u00df-Park", "location": {"address": "Rathenower Str. 14", "lat": 52.52807442092505, "lng": 13.356627920346035, "labeledLatLngs": [{"label": "display", "lat": 52.52807442092505, "lng": 13.356627920346035}], "distance": 219, "postalCode": "10559", "cc": "DE", "city": "Berlin", "state": "Berlin", "country": "Deutschland", "formattedAddress": ["Rathenower Str. 14", "10559 Berlin", "Deutschland"]}, "categories": [{"id": "4bf58dd8d48988d163941735", "name": "Park", "pluralName": "Parks", "shortName": "Park", "icon": {"prefix": "https://ss3.4sqi.net/img/categories_v2/parks_outdoors/park_", "suffix": ".png"}, "primary": true}], "photos": {"count": 0, "groups": []}}, "referralId": "e-0-4d9c9833c593a1cd32c94c19-3"}, {"reasons": {"count": 0, "items": [{"summary": "This spot is popular", "type": "general", "reasonName": "globalInteractionReason"}]}, "venue": {"id": "4ff80ecee4b02ca33c8aab0b", "name": "Berlin Bier Shop", "location": {"address": "Kirchstr. 23", "crossStreet": "Alt-Moabit", "lat": 52.52379018468996, "lng": 13.349350421526868, "labeledLatLngs": [{"label": "display", "lat": 52.52379018468996, "lng": 13.349350421526868}], "distance": 489, "postalCode": "10557", "cc": "DE", "city": "Berlin", "state": "Berlin", "country": "Deutschland", "formattedAddress": ["Kirchstr. 23 (Alt-Moabit)", "10557 Berlin", "Deutschland"]}, "categories": [{"id": "5370f356bcbc57f1066c94c2", "name": "Beer Store", "pluralName": "Beer Stores", "shortName": "Beer Store", "icon": {"prefix": "https://ss3.4sqi.net/img/categories_v2/nightlife/beergarden_", "suffix": ".png"}, "primary": true}], "photos": {"count": 0, "groups": []}}, "referralId": "e-0-4ff80ecee4b02ca33c8aab0b-4"}, {"reasons": {"count": 0, "items": [{"summary": "This spot is popular", "type": "general", "reasonName": "globalInteractionReason"}]}, "venue": {"id": "4adcda84f964a520d04821e3", "name": "Paris-Moskau", "location": {"address": "Alt-Moabit 141", "lat": 52.522695363826976, "lng": 13.364400102023664, "labeledLatLngs": [{"label": "display", "lat": 52.522695363826976, "lng": 13.364400102023664}], "distance": 731, "postalCode": "10557", "cc": "DE", "city": "Berlin", "state": "Berlin", "country": "Deutschland", "formattedAddress": ["Alt-Moabit 141", "10557 Berlin", "Deutschland"]}, "categories": [{"id": "4bf58dd8d48988d10c941735", "name": "French Restaurant", "pluralName": "French Restaurants", "shortName": "French", "icon": {"prefix": "https://ss3.4sqi.net/img/categories_v2/food/french_", "suffix": ".png"}, "primary": true}], "photos": {"count": 0, "groups": []}}, "referralId": "e-0-4adcda84f964a520d04821e3-5"}, {"reasons": {"count": 0, "items": [{"summary": "This spot is popular", "type": "general", "reasonName": "globalInteractionReason"}]}, "venue": {"id": "4e2c24d2d164223a6988cda3", "name": "Nusantara", "location": {"address": "Turmstr. 18", "lat": 52.52639231968529, "lng": 13.349169108321588, "labeledLatLngs": [{"label": "display", "lat": 52.52639231968529, "lng": 13.349169108321588}], "distance": 417, "postalCode": "10559", "cc": "DE", "city": "Berlin", "state": "Berlin", "country": "Deutschland", "formattedAddress": ["Turmstr. 18", "10559 Berlin", "Deutschland"]}, "categories": [{"id": "4deefc054765f83613cdba6f", "name": "Indonesian Restaurant", "pluralName": "Indonesian Restaurants", "shortName": "Indonesian", "icon": {"prefix": "https://ss3.4sqi.net/img/categories_v2/food/indonesian_", "suffix": ".png"}, "primary": true}], "photos": {"count": 0, "groups": []}}, "referralId": "e-0-4e2c24d2d164223a6988cda3-6"}, {"reasons": {"count": 0, "items": [{"summary": "This spot is popular", "type": "general", "reasonName": "globalInteractionReason"}]}, "venue": {"id": "5c687fbe6e4650002cb688fa", "name": "Moa Caf\u00e9 & Bar", "location": {"address": "Kirchstr. 1", "lat": 52.524479, "lng": 13.349503, "labeledLatLngs": [{"label": "display", "lat": 52.524479, "lng": 13.349503}], "distance": 441, "postalCode": "10557", "cc": "DE", "neighborhood": "Mitte", "city": "Berlin", "state": "Berlin", "country": "Deutschland", "formattedAddress": ["Kirchstr. 1", "10557 Berlin", "Deutschland"]}, "categories": [{"id": "4bf58dd8d48988d16d941735", "name": "Caf\u00e9", "pluralName": "Caf\u00e9s", "shortName": "Caf\u00e9", "icon": {"prefix": "https://ss3.4sqi.net/img/categories_v2/food/cafe_", "suffix": ".png"}, "primary": true}], "photos": {"count": 0, "groups": []}}, "referralId": "e-0-5c687fbe6e4650002cb688fa-7"}, {"reasons": {"count": 0, "items": [{"summary": "This spot is popular", "type": "general", "reasonName": "globalInteractionReason"}]}, "venue": {"id": "50942cffe4b0147d2d1aedae", "name": "interFace", "location": {"address": "Perleberger Str. 17", "lat": 52.53316998085407, "lng": 13.351883002525678, "labeledLatLngs": [{"label": "display", "lat": 52.53316998085407, "lng": 13.351883002525678}], "distance": 803, "postalCode": "10559", "cc": "DE", "city": "Berlin", "state": "Berlin", "country": "Deutschland", "formattedAddress": ["Perleberger Str. 17", "10559 Berlin", "Deutschland"]}, "categories": [{"id": "4bf58dd8d48988d11e941735", "name": "Cocktail Bar", "pluralName": "Cocktail Bars", "shortName": "Cocktail", "icon": {"prefix": "https://ss3.4sqi.net/img/categories_v2/nightlife/cocktails_", "suffix": ".png"}, "primary": true}], "photos": {"count": 0, "groups": []}}, "referralId": "e-0-50942cffe4b0147d2d1aedae-8"}, {"reasons": {"count": 0, "items": [{"summary": "This spot is popular", "type": "general", "reasonName": "globalInteractionReason"}]}, "venue": {"id": "54342923498ed6ec05a72716", "name": "Wallyard", "location": {"address": "L\u00fcbecker Str. 46", "lat": 52.52759272113066, "lng": 13.345239758491514, "labeledLatLngs": [{"label": "display", "lat": 52.52759272113066, "lng": 13.345239758491514}], "distance": 699, "postalCode": "10559", "cc": "DE", "city": "Berlin", "state": "Berlin", "country": "Deutschland", "formattedAddress": ["L\u00fcbecker Str. 46", "10559 Berlin", "Deutschland"]}, "categories": [{"id": "4bf58dd8d48988d1ee931735", "name": "Hostel", "pluralName": "Hostels", "shortName": "Hostel", "icon": {"prefix": "https://ss3.4sqi.net/img/categories_v2/travel/hostel_", "suffix": ".png"}, "primary": true}], "photos": {"count": 0, "groups": []}}, "referralId": "e-0-54342923498ed6ec05a72716-9"}, {"reasons": {"count": 0, "items": [{"summary": "This spot is popular", "type": "general", "reasonName": "globalInteractionReason"}]}, "venue": {"id": "4e2ab436d22d3f83c8867ff2", "name": "G\u00fcll\u00fc Lahmacun", "location": {"address": "Perleberger Str. 56", "lat": 52.53221740861135, "lng": 13.350061209216781, "labeledLatLngs": [{"label": "display", "lat": 52.53221740861135, "lng": 13.350061209216781}], "distance": 752, "postalCode": "10559", "cc": "DE", "neighborhood": "Moabit", "city": "Berlin", "state": "Berlin", "country": "Deutschland", "formattedAddress": ["Perleberger Str. 56", "10559 Berlin", "Deutschland"]}, "categories": [{"id": "4f04af1f2fb6e1c99f3db0bb", "name": "Turkish Restaurant", "pluralName": "Turkish Restaurants", "shortName": "Turkish", "icon": {"prefix": "https://ss3.4sqi.net/img/categories_v2/food/turkish_", "suffix": ".png"}, "primary": true}], "photos": {"count": 0, "groups": []}}, "referralId": "e-0-4e2ab436d22d3f83c8867ff2-10"}, {"reasons": {"count": 0, "items": [{"summary": "This spot is popular", "type": "general", "reasonName": "globalInteractionReason"}]}, "venue": {"id": "5369512b498e33a23517b41c", "name": "Steigenberger Spa", "location": {"address": "Ella-Trebe-Str. 5", "crossStreet": "Berta-Benz-Str.", "lat": 52.523586613570636, "lng": 13.368029293903854, "labeledLatLngs": [{"label": "display", "lat": 52.523586613570636, "lng": 13.368029293903854}], "distance": 910, "postalCode": "10557", "cc": "DE", "city": "Berlin", "state": "Berlin", "country": "Deutschland", "formattedAddress": ["Ella-Trebe-Str. 5 (Berta-Benz-Str.)", "10557 Berlin", "Deutschland"]}, "categories": [{"id": "4bf58dd8d48988d1ed941735", "name": "Spa", "pluralName": "Spas", "shortName": "Spa", "icon": {"prefix": "https://ss3.4sqi.net/img/categories_v2/shops/spa_", "suffix": ".png"}, "primary": true}], "photos": {"count": 0, "groups": []}}, "referralId": "e-0-5369512b498e33a23517b41c-11"}, {"reasons": {"count": 0, "items": [{"summary": "This spot is popular", "type": "general", "reasonName": "globalInteractionReason"}]}, "venue": {"id": "4c655634e0c4be9a73d18758", "name": "Marjan Grill", "location": {"address": "Stadtbahnbogen 411", "crossStreet": "Bartningallee", "lat": 52.52019090974542, "lng": 13.346992507015973, "labeledLatLngs": [{"label": "display", "lat": 52.52019090974542, "lng": 13.346992507015973}], "distance": 880, "postalCode": "10557", "cc": "DE", "city": "Berlin", "state": "Berlin", "country": "Deutschland", "formattedAddress": ["Stadtbahnbogen 411 (Bartningallee)", "10557 Berlin", "Deutschland"]}, "categories": [{"id": "4bf58dd8d48988d1c0941735", "name": "Mediterranean Restaurant", "pluralName": "Mediterranean Restaurants", "shortName": "Mediterranean", "icon": {"prefix": "https://ss3.4sqi.net/img/categories_v2/food/mediterranean_", "suffix": ".png"}, "primary": true}], "photos": {"count": 0, "groups": []}}, "referralId": "e-0-4c655634e0c4be9a73d18758-12"}, {"reasons": {"count": 0, "items": [{"summary": "This spot is popular", "type": "general", "reasonName": "globalInteractionReason"}]}, "venue": {"id": "4bc4688af8219c744445b710", "name": "Calumet Photographic", "location": {"address": "Bertha-Benz-Str. 5", "lat": 52.523183, "lng": 13.366734, "labeledLatLngs": [{"label": "display", "lat": 52.523183, "lng": 13.366734}], "distance": 845, "postalCode": "10557", "cc": "DE", "city": "Berlin", "state": "Berlin", "country": "Deutschland", "formattedAddress": ["Bertha-Benz-Str. 5", "10557 Berlin", "Deutschland"]}, "categories": [{"id": "4eb1bdf03b7b55596b4a7491", "name": "Camera Store", "pluralName": "Camera Stores", "shortName": "Camera Store", "icon": {"prefix": "https://ss3.4sqi.net/img/categories_v2/shops/camerastore_", "suffix": ".png"}, "primary": true}], "photos": {"count": 0, "groups": []}}, "referralId": "e-0-4bc4688af8219c744445b710-13"}, {"reasons": {"count": 0, "items": [{"summary": "This spot is popular", "type": "general", "reasonName": "globalInteractionReason"}]}, "venue": {"id": "4f26e3d5e4b006e5c491448a", "name": "Filmrauschpalast", "location": {"address": "Lehrter Str. 35", "lat": 52.53429829821408, "lng": 13.359632364945671, "labeledLatLngs": [{"label": "display", "lat": 52.53429829821408, "lng": 13.359632364945671}], "distance": 940, "postalCode": "10557", "cc": "DE", "city": "Berlin", "state": "Berlin", "country": "Deutschland", "formattedAddress": ["Lehrter Str. 35", "10557 Berlin", "Deutschland"]}, "categories": [{"id": "4bf58dd8d48988d17e941735", "name": "Indie Movie Theater", "pluralName": "Indie Movie Theaters", "shortName": "Indie Movies", "icon": {"prefix": "https://ss3.4sqi.net/img/categories_v2/arts_entertainment/movietheater_", "suffix": ".png"}, "primary": true}], "photos": {"count": 0, "groups": []}}, "referralId": "e-0-4f26e3d5e4b006e5c491448a-14"}, {"reasons": {"count": 0, "items": [{"summary": "This spot is popular", "type": "general", "reasonName": "globalInteractionReason"}]}, "venue": {"id": "53808f83498ebb8d531b44ee", "name": "CrossFit Mitte", "location": {"address": "Heidestr. 48", "lat": 52.53092593054399, "lng": 13.36744992809018, "labeledLatLngs": [{"label": "display", "lat": 52.53092593054399, "lng": 13.36744992809018}], "distance": 971, "cc": "DE", "city": "Berlin", "state": "Berlin", "country": "Deutschland", "formattedAddress": ["Heidestr. 48", "Berlin", "Deutschland"]}, "categories": [{"id": "4bf58dd8d48988d175941735", "name": "Gym / Fitness Center", "pluralName": "Gyms or Fitness Centers", "shortName": "Gym / Fitness", "icon": {"prefix": "https://ss3.4sqi.net/img/categories_v2/building/gym_", "suffix": ".png"}, "primary": true}], "photos": {"count": 0, "groups": []}}, "referralId": "e-0-53808f83498ebb8d531b44ee-15"}, {"reasons": {"count": 0, "items": [{"summary": "This spot is popular", "type": "general", "reasonName": "globalInteractionReason"}]}, "venue": {"id": "4c249d19136d20a1b70ae261", "name": "Monopol", "location": {"address": "Kirchstr. 23", "lat": 52.52395827347707, "lng": 13.349390095484578, "labeledLatLngs": [{"label": "display", "lat": 52.52395827347707, "lng": 13.349390095484578}], "distance": 477, "postalCode": "10557", "cc": "DE", "city": "Berlin", "state": "Berlin", "country": "Deutschland", "formattedAddress": ["Kirchstr. 23", "10557 Berlin", "Deutschland"]}, "categories": [{"id": "4bf58dd8d48988d1c4941735", "name": "Restaurant", "pluralName": "Restaurants", "shortName": "Restaurant", "icon": {"prefix": "https://ss3.4sqi.net/img/categories_v2/food/default_", "suffix": ".png"}, "primary": true}], "photos": {"count": 0, "groups": []}}, "referralId": "e-0-4c249d19136d20a1b70ae261-16"}, {"reasons": {"count": 0, "items": [{"summary": "This spot is popular", "type": "general", "reasonName": "globalInteractionReason"}]}, "venue": {"id": "5287af76498e083002dff568", "name": "Agra - Indian Cuisine", "location": {"address": "Alt-Moabit 107", "lat": 52.52448584793399, "lng": 13.349313669086767, "labeledLatLngs": [{"label": "display", "lat": 52.52448584793399, "lng": 13.349313669086767}], "distance": 453, "postalCode": "10559", "cc": "DE", "city": "Moabit", "state": "Berlin", "country": "Deutschland", "formattedAddress": ["Alt-Moabit 107", "10559 Moabit", "Deutschland"]}, "categories": [{"id": "4bf58dd8d48988d10f941735", "name": "Indian Restaurant", "pluralName": "Indian Restaurants", "shortName": "Indian", "icon": {"prefix": "https://ss3.4sqi.net/img/categories_v2/food/indian_", "suffix": ".png"}, "primary": true}], "photos": {"count": 0, "groups": []}}, "referralId": "e-0-5287af76498e083002dff568-17"}, {"reasons": {"count": 0, "items": [{"summary": "This spot is popular", "type": "general", "reasonName": "globalInteractionReason"}]}, "venue": {"id": "5bafe69a59c423002c1262c0", "name": "MEININGER Hotel Berlin Tiergarten", "location": {"address": "Turmstr. 25", "crossStreet": "Stromstr.", "lat": 52.52657220109225, "lng": 13.344305319557076, "labeledLatLngs": [{"label": "display", "lat": 52.52657220109225, "lng": 13.344305319557076}], "distance": 747, "postalCode": "10559", "cc": "DE", "city": "Berlin", "state": "Berlin", "country": "Deutschland", "formattedAddress": ["Turmstr. 25 (Stromstr.)", "10559 Berlin", "Deutschland"]}, "categories": [{"id": "4bf58dd8d48988d1fa931735", "name": "Hotel", "pluralName": "Hotels", "shortName": "Hotel", "icon": {"prefix": "https://ss3.4sqi.net/img/categories_v2/travel/hotel_", "suffix": ".png"}, "primary": true}], "photos": {"count": 0, "groups": []}}, "referralId": "e-0-5bafe69a59c423002c1262c0-18"}, {"reasons": {"count": 0, "items": [{"summary": "This spot is popular", "type": "general", "reasonName": "globalInteractionReason"}]}, "venue": {"id": "4baf7350f964a520c8003ce3", "name": "Konditorei & Caf\u00e9 Buchwald", "location": {"address": "Bartningallee 29", "crossStreet": "Holsteiner Ufer", "lat": 52.521197, "lng": 13.347825, "labeledLatLngs": [{"label": "display", "lat": 52.521197, "lng": 13.347825}], "distance": 759, "postalCode": "10557", "cc": "DE", "neighborhood": "Mitte", "city": "Berlin", "state": "Berlin", "country": "Deutschland", "formattedAddress": ["Bartningallee 29 (Holsteiner Ufer)", "10557 Berlin", "Deutschland"]}, "categories": [{"id": "5744ccdfe4b0c0459246b4e2", "name": "Pastry Shop", "pluralName": "Pastry Shops", "shortName": "Pastry", "icon": {"prefix": "https://ss3.4sqi.net/img/categories_v2/food/dessert_", "suffix": ".png"}, "primary": true}], "photos": {"count": 0, "groups": []}, "venuePage": {"id": "408943752"}}, "referralId": "e-0-4baf7350f964a520c8003ce3-19"}, {"reasons": {"count": 0, "items": [{"summary": "This spot is popular", "type": "general", "reasonName": "globalInteractionReason"}]}, "venue": {"id": "50d448aae4b038b59eaeca5e", "name": "Thea & coffee", "location": {"address": "Birkenstr. 19", "lat": 52.531051148755026, "lng": 13.34619112126696, "labeledLatLngs": [{"label": "display", "lat": 52.531051148755026, "lng": 13.34619112126696}], "distance": 816, "postalCode": "10559", "cc": "DE", "city": "Berlin", "state": "Berlin", "country": "Deutschland", "formattedAddress": ["Birkenstr. 19", "10559 Berlin", "Deutschland"]}, "categories": [{"id": "4bf58dd8d48988d16d941735", "name": "Caf\u00e9", "pluralName": "Caf\u00e9s", "shortName": "Caf\u00e9", "icon": {"prefix": "https://ss3.4sqi.net/img/categories_v2/food/cafe_", "suffix": ".png"}, "primary": true}], "photos": {"count": 0, "groups": []}}, "referralId": "e-0-50d448aae4b038b59eaeca5e-20"}, {"reasons": {"count": 0, "items": [{"summary": "This spot is popular", "type": "general", "reasonName": "globalInteractionReason"}]}, "venue": {"id": "517c11a8498e199d3dd61f90", "name": "DAV Kletterzentrum Berlin", "location": {"address": "Seydlitzstr. 1h", "crossStreet": "Lehrtersta\u00dfe", "lat": 52.52841920202643, "lng": 13.362783477417869, "labeledLatLngs": [{"label": "display", "lat": 52.52841920202643, "lng": 13.362783477417869}], "distance": 558, "postalCode": "10557", "cc": "DE", "city": "Berlin", "state": "Berlin", "country": "Deutschland", "formattedAddress": ["Seydlitzstr. 1h (Lehrtersta\u00dfe)", "10557 Berlin", "Deutschland"]}, "categories": [{"id": "503289d391d4c4b30a586d6a", "name": "Climbing Gym", "pluralName": "Climbing Gyms", "shortName": "Climbing Gym", "icon": {"prefix": "https://ss3.4sqi.net/img/categories_v2/building/gym_", "suffix": ".png"}, "primary": true}], "photos": {"count": 0, "groups": []}}, "referralId": "e-0-517c11a8498e199d3dd61f90-21"}, {"reasons": {"count": 0, "items": [{"summary": "This spot is popular", "type": "general", "reasonName": "globalInteractionReason"}]}, "venue": {"id": "4dd6f909cc3f75159f1cd1c3", "name": "Motel One Berlin-Hauptbahnhof", "location": {"address": "Invalidenstr. 54", "lat": 52.52561923326395, "lng": 13.36600575634014, "labeledLatLngs": [{"label": "display", "lat": 52.52561923326395, "lng": 13.36600575634014}], "distance": 726, "postalCode": "10557", "cc": "DE", "city": "Berlin", "state": "Berlin", "country": "Deutschland", "formattedAddress": ["Invalidenstr. 54", "10557 Berlin", "Deutschland"]}, "categories": [{"id": "4bf58dd8d48988d1fa931735", "name": "Hotel", "pluralName": "Hotels", "shortName": "Hotel", "icon": {"prefix": "https://ss3.4sqi.net/img/categories_v2/travel/hotel_", "suffix": ".png"}, "primary": true}], "photos": {"count": 0, "groups": []}, "venuePage": {"id": "450788486"}}, "referralId": "e-0-4dd6f909cc3f75159f1cd1c3-22"}, {"reasons": {"count": 0, "items": [{"summary": "This spot is popular", "type": "general", "reasonName": "globalInteractionReason"}]}, "venue": {"id": "5339b708498e2c424972e4bf", "name": "Steigenberger Hotel Am Kanzleramt", "location": {"address": "Ella-Trebe-Str. 5", "lat": 52.523609784492315, "lng": 13.368045438056027, "labeledLatLngs": [{"label": "display", "lat": 52.523609784492315, "lng": 13.368045438056027}], "distance": 910, "postalCode": "10557", "cc": "DE", "city": "Berlin", "state": "Berlin", "country": "Deutschland", "formattedAddress": ["Ella-Trebe-Str. 5", "10557 Berlin", "Deutschland"]}, "categories": [{"id": "4bf58dd8d48988d1fa931735", "name": "Hotel", "pluralName": "Hotels", "shortName": "Hotel", "icon": {"prefix": "https://ss3.4sqi.net/img/categories_v2/travel/hotel_", "suffix": ".png"}, "primary": true}], "photos": {"count": 0, "groups": []}, "venuePage": {"id": "88383038"}}, "referralId": "e-0-5339b708498e2c424972e4bf-23"}, {"reasons": {"count": 0, "items": [{"summary": "This spot is popular", "type": "general", "reasonName": "globalInteractionReason"}]}, "venue": {"id": "4b89420ef964a5207a2632e3", "name": "Lir Irish Pub", "location": {"address": "Flensburger Stra\u00dfe 7", "lat": 52.520284479191844, "lng": 13.344340720449152, "labeledLatLngs": [{"label": "display", "lat": 52.520284479191844, "lng": 13.344340720449152}], "distance": 998, "postalCode": "10557", "cc": "DE", "city": "Berlin", "state": "Berlin", "country": "Deutschland", "formattedAddress": ["Flensburger Stra\u00dfe 7", "10557 Berlin", "Deutschland"]}, "categories": [{"id": "52e81612bcbc57f1066b7a06", "name": "Irish Pub", "pluralName": "Irish Pubs", "shortName": "Irish", "icon": {"prefix": "https://ss3.4sqi.net/img/categories_v2/nightlife/pub_", "suffix": ".png"}, "primary": true}], "photos": {"count": 0, "groups": []}}, "referralId": "e-0-4b89420ef964a5207a2632e3-24"}, {"reasons": {"count": 0, "items": [{"summary": "This spot is popular", "type": "general", "reasonName": "globalInteractionReason"}]}, "venue": {"id": "4c17c87bfe5a76b0b4120115", "name": "Taverna Amphipolis", "location": {"address": "wilhelmshavener str. 6", "lat": 52.5283773025609, "lng": 13.341430713623419, "labeledLatLngs": [{"label": "display", "lat": 52.5283773025609, "lng": 13.341430713623419}], "distance": 970, "postalCode": "13353", "cc": "DE", "neighborhood": "Turmstra\u00dfe", "city": "Berlin", "state": "Berlin", "country": "Deutschland", "formattedAddress": ["wilhelmshavener str. 6", "13353 Berlin", "Deutschland"]}, "categories": [{"id": "53d6c1b0e4b02351e88a83d2", "name": "Taverna", "pluralName": "Tavernas", "shortName": "Tavernas", "icon": {"prefix": "https://ss3.4sqi.net/img/categories_v2/food/greek_", "suffix": ".png"}, "primary": true}], "photos": {"count": 0, "groups": []}}, "referralId": "e-0-4c17c87bfe5a76b0b4120115-25"}, {"reasons": {"count": 0, "items": [{"summary": "This spot is popular", "type": "general", "reasonName": "globalInteractionReason"}]}, "venue": {"id": "4c3c9ca34bc9a59360e5d271", "name": "Balikci Erg\u00fcn", "location": {"address": "L\u00fcneburger Str. 382", "lat": 52.51973918415058, "lng": 13.357100152637567, "labeledLatLngs": [{"label": "display", "lat": 52.51973918415058, "lng": 13.357100152637567}], "distance": 736, "postalCode": "10557", "cc": "DE", "city": "Berlin", "state": "Berlin", "country": "Deutschland", "formattedAddress": ["L\u00fcneburger Str. 382", "10557 Berlin", "Deutschland"]}, "categories": [{"id": "4bf58dd8d48988d1ce941735", "name": "Seafood Restaurant", "pluralName": "Seafood Restaurants", "shortName": "Seafood", "icon": {"prefix": "https://ss3.4sqi.net/img/categories_v2/food/seafood_", "suffix": ".png"}, "primary": true}], "photos": {"count": 0, "groups": []}}, "referralId": "e-0-4c3c9ca34bc9a59360e5d271-26"}, {"reasons": {"count": 0, "items": [{"summary": "This spot is popular", "type": "general", "reasonName": "globalInteractionReason"}]}, "venue": {"id": "517bc021e4b0e711fbe77f01", "name": "go asia \u6771 Asien Supermarkt", "location": {"address": "Turmstr. 29", "crossStreet": "Wilhelmshavener Str.", "lat": 52.52649613755785, "lng": 13.341554403305054, "labeledLatLngs": [{"label": "display", "lat": 52.52649613755785, "lng": 13.341554403305054}], "distance": 933, "postalCode": "10551", "cc": "DE", "city": "Berlin", "state": "Berlin", "country": "Deutschland", "formattedAddress": ["Turmstr. 29 (Wilhelmshavener Str.)", "10551 Berlin", "Deutschland"]}, "categories": [{"id": "4bf58dd8d48988d118951735", "name": "Grocery Store", "pluralName": "Grocery Stores", "shortName": "Grocery Store", "icon": {"prefix": "https://ss3.4sqi.net/img/categories_v2/shops/food_grocery_", "suffix": ".png"}, "primary": true}], "photos": {"count": 0, "groups": []}}, "referralId": "e-0-517bc021e4b0e711fbe77f01-27"}, {"reasons": {"count": 0, "items": [{"summary": "This spot is popular", "type": "general", "reasonName": "globalInteractionReason"}]}, "venue": {"id": "52a7249f11d241c64a0b108c", "name": "Bata Bar & Billiards", "location": {"address": "Heidestr. 50", "lat": 52.53041363653681, "lng": 13.367150017595907, "labeledLatLngs": [{"label": "display", "lat": 52.53041363653681, "lng": 13.367150017595907}], "distance": 924, "postalCode": "10557", "cc": "DE", "city": "Berlin", "state": "Berlin", "country": "Deutschland", "formattedAddress": ["Heidestr. 50", "10557 Berlin", "Deutschland"]}, "categories": [{"id": "4bf58dd8d48988d1e3931735", "name": "Pool Hall", "pluralName": "Pool Halls", "shortName": "Billiards", "icon": {"prefix": "https://ss3.4sqi.net/img/categories_v2/arts_entertainment/billiards_", "suffix": ".png"}, "primary": true}], "photos": {"count": 0, "groups": []}, "venuePage": {"id": "84776698"}}, "referralId": "e-0-52a7249f11d241c64a0b108c-28"}, {"reasons": {"count": 0, "items": [{"summary": "This spot is popular", "type": "general", "reasonName": "globalInteractionReason"}]}, "venue": {"id": "5bb6242189e490002c3ddcb3", "name": "Pret A Manger", "location": {"address": "Washingtonplatz", "lat": 52.524322, "lng": 13.369473, "labeledLatLngs": [{"label": "display", "lat": 52.524322, "lng": 13.369473}], "distance": 981, "postalCode": "10557", "cc": "DE", "neighborhood": "Mitte", "city": "Berlin", "state": "Berlin", "country": "Deutschland", "formattedAddress": ["Washingtonplatz", "10557 Berlin", "Deutschland"]}, "categories": [{"id": "4bf58dd8d48988d1c5941735", "name": "Sandwich Place", "pluralName": "Sandwich Places", "shortName": "Sandwiches", "icon": {"prefix": "https://ss3.4sqi.net/img/categories_v2/food/deli_", "suffix": ".png"}, "primary": true}], "photos": {"count": 0, "groups": []}}, "referralId": "e-0-5bb6242189e490002c3ddcb3-29"}, {"reasons": {"count": 0, "items": [{"summary": "This spot is popular", "type": "general", "reasonName": "globalInteractionReason"}]}, "venue": {"id": "5b75da3212c8f0002cd2b9f0", "name": "Kaufland", "location": {"address": "Perleberger Str. 42a", "crossStreet": "Stromstr.", "lat": 52.52900800094072, "lng": 13.34416258044748, "labeledLatLngs": [{"label": "display", "lat": 52.52900800094072, "lng": 13.34416258044748}], "distance": 815, "postalCode": "10559", "cc": "DE", "city": "Berlin", "state": "Berlin", "country": "Deutschland", "formattedAddress": ["Perleberger Str. 42a (Stromstr.)", "10559 Berlin", "Deutschland"]}, "categories": [{"id": "52f2ab2ebcbc57f1066b8b42", "name": "Big Box Store", "pluralName": "Big Box Stores", "shortName": "Big Box Store", "icon": {"prefix": "https://ss3.4sqi.net/img/categories_v2/shops/default_", "suffix": ".png"}, "primary": true}], "photos": {"count": 0, "groups": []}}, "referralId": "e-0-5b75da3212c8f0002cd2b9f0-30"}, {"reasons": {"count": 0, "items": [{"summary": "This spot is popular", "type": "general", "reasonName": "globalInteractionReason"}]}, "venue": {"id": "4be30183f07b0f47aed1f643", "name": "Zollpackhof", "location": {"address": "Elisabeth-Abegg-Str. 1", "crossStreet": "Magnus-Hirschfeld-Ufer", "lat": 52.52122279223264, "lng": 13.367035220106201, "labeledLatLngs": [{"label": "display", "lat": 52.52122279223264, "lng": 13.367035220106201}], "distance": 971, "postalCode": "10557", "cc": "DE", "city": "Berlin", "state": "Berlin", "country": "Deutschland", "formattedAddress": ["Elisabeth-Abegg-Str. 1 (Magnus-Hirschfeld-Ufer)", "10557 Berlin", "Deutschland"]}, "categories": [{"id": "4bf58dd8d48988d117941735", "name": "Beer Garden", "pluralName": "Beer Gardens", "shortName": "Beer Garden", "icon": {"prefix": "https://ss3.4sqi.net/img/categories_v2/nightlife/beergarden_", "suffix": ".png"}, "primary": true}], "photos": {"count": 0, "groups": []}}, "referralId": "e-0-4be30183f07b0f47aed1f643-31"}, {"reasons": {"count": 0, "items": [{"summary": "This spot is popular", "type": "general", "reasonName": "globalInteractionReason"}]}, "venue": {"id": "4adcda80f964a5203c4821e3", "name": "Poststadion", "location": {"address": "Lehrter Str. 59", "lat": 52.52958606852346, "lng": 13.360494839254562, "labeledLatLngs": [{"label": "display", "lat": 52.52958606852346, "lng": 13.360494839254562}], "distance": 508, "postalCode": "10557", "cc": "DE", "neighborhood": "Turmstra\u00dfe", "city": "Berlin", "state": "Berlin", "country": "Deutschland", "formattedAddress": ["Lehrter Str. 59", "10557 Berlin", "Deutschland"]}, "categories": [{"id": "4bf58dd8d48988d188941735", "name": "Soccer Stadium", "pluralName": "Soccer Stadiums", "shortName": "Soccer", "icon": {"prefix": "https://ss3.4sqi.net/img/categories_v2/arts_entertainment/stadium_soccer_", "suffix": ".png"}, "primary": true}], "photos": {"count": 0, "groups": []}}, "referralId": "e-0-4adcda80f964a5203c4821e3-32"}, {"reasons": {"count": 0, "items": [{"summary": "This spot is popular", "type": "general", "reasonName": "globalInteractionReason"}]}, "venue": {"id": "5b9ba49166f3cd002c373a26", "name": "FitX", "location": {"address": "Stromstra\u00dfe 11-17", "lat": 52.527584, "lng": 13.3436737, "labeledLatLngs": [{"label": "display", "lat": 52.527584, "lng": 13.3436737}], "distance": 803, "postalCode": "10551", "cc": "DE", "neighborhood": "Turmstra\u00dfe", "city": "Berlin", "state": "Berlin", "country": "Deutschland", "formattedAddress": ["Stromstra\u00dfe 11-17", "10551 Berlin", "Deutschland"]}, "categories": [{"id": "4bf58dd8d48988d175941735", "name": "Gym / Fitness Center", "pluralName": "Gyms or Fitness Centers", "shortName": "Gym / Fitness", "icon": {"prefix": "https://ss3.4sqi.net/img/categories_v2/building/gym_", "suffix": ".png"}, "primary": true}], "photos": {"count": 0, "groups": []}}, "referralId": "e-0-5b9ba49166f3cd002c373a26-33"}, {"reasons": {"count": 0, "items": [{"summary": "This spot is popular", "type": "general", "reasonName": "globalInteractionReason"}]}, "venue": {"id": "4e4ab30e45dd81ecad90607c", "name": "Schlosspark Bellevue", "location": {"address": "Bellevue-Ufer", "lat": 52.517970572031565, "lng": 13.351049423217773, "labeledLatLngs": [{"label": "display", "lat": 52.517970572031565, "lng": 13.351049423217773}], "distance": 967, "postalCode": "10557", "cc": "DE", "city": "Berlin", "state": "Berlin", "country": "Deutschland", "formattedAddress": ["Bellevue-Ufer", "10557 Berlin", "Deutschland"]}, "categories": [{"id": "4bf58dd8d48988d163941735", "name": "Park", "pluralName": "Parks", "shortName": "Park", "icon": {"prefix": "https://ss3.4sqi.net/img/categories_v2/parks_outdoors/park_", "suffix": ".png"}, "primary": true}], "photos": {"count": 0, "groups": []}}, "referralId": "e-0-4e4ab30e45dd81ecad90607c-34"}, {"reasons": {"count": 0, "items": [{"summary": "This spot is popular", "type": "general", "reasonName": "globalInteractionReason"}]}, "venue": {"id": "55e95a81498e2db706a667b1", "name": "ibis Berlin Hauptbahnhof", "location": {"address": "Invalidenstrasse 53", "lat": 52.5269289, "lng": 13.3700036, "labeledLatLngs": [{"label": "display", "lat": 52.5269289, "lng": 13.3700036}], "distance": 996, "postalCode": "10557", "cc": "DE", "city": "Berlin", "state": "Berlin", "country": "Deutschland", "formattedAddress": ["Invalidenstrasse 53", "10557 Berlin", "Deutschland"]}, "categories": [{"id": "4bf58dd8d48988d1fa931735", "name": "Hotel", "pluralName": "Hotels", "shortName": "Hotel", "icon": {"prefix": "https://ss3.4sqi.net/img/categories_v2/travel/hotel_", "suffix": ".png"}, "primary": true}], "photos": {"count": 0, "groups": []}}, "referralId": "e-0-55e95a81498e2db706a667b1-35"}, {"reasons": {"count": 0, "items": [{"summary": "This spot is popular", "type": "general", "reasonName": "globalInteractionReason"}]}, "venue": {"id": "4adcda7ef964a520c24721e3", "name": "Schloss Bellevue", "location": {"address": "Spreeweg", "lat": 52.51745480710997, "lng": 13.352744579315186, "labeledLatLngs": [{"label": "display", "lat": 52.51745480710997, "lng": 13.352744579315186}], "distance": 996, "postalCode": "10557", "cc": "DE", "city": "Berlin", "state": "Berlin", "country": "Deutschland", "formattedAddress": ["Spreeweg", "10557 Berlin", "Deutschland"]}, "categories": [{"id": "52e81612bcbc57f1066b7a14", "name": "Palace", "pluralName": "Palaces", "shortName": "Palace", "icon": {"prefix": "https://ss3.4sqi.net/img/categories_v2/parks_outdoors/default_", "suffix": ".png"}, "primary": true}], "photos": {"count": 0, "groups": []}}, "referralId": "e-0-4adcda7ef964a520c24721e3-36"}, {"reasons": {"count": 0, "items": [{"summary": "This spot is popular", "type": "general", "reasonName": "globalInteractionReason"}]}, "venue": {"id": "516a8de0e4b0782ec13fec2f", "name": "Bellevue-Ufer", "location": {"address": "Bellevue-Ufer", "lat": 52.51856059314833, "lng": 13.3518648147583, "labeledLatLngs": [{"label": "display", "lat": 52.51856059314833, "lng": 13.3518648147583}], "distance": 889, "postalCode": "10557", "cc": "DE", "city": "Berlin", "state": "Berlin", "country": "Deutschland", "formattedAddress": ["Bellevue-Ufer", "10557 Berlin", "Deutschland"]}, "categories": [{"id": "56aa371be4b08b9a8d5734c3", "name": "Waterfront", "pluralName": "Waterfronts", "shortName": "Waterfront", "icon": {"prefix": "https://ss3.4sqi.net/img/categories_v2/parks_outdoors/river_", "suffix": ".png"}, "primary": true}], "photos": {"count": 0, "groups": []}}, "referralId": "e-0-516a8de0e4b0782ec13fec2f-37"}, {"reasons": {"count": 0, "items": [{"summary": "This spot is popular", "type": "general", "reasonName": "globalInteractionReason"}]}, "venue": {"id": "5765c066498ec6de8e2b735b", "name": "KOWSKI", "location": {"address": "Wilhelmshavener Str. 4", "lat": 52.527820615830024, "lng": 13.341444789252778, "labeledLatLngs": [{"label": "display", "lat": 52.527820615830024, "lng": 13.341444789252778}], "distance": 956, "postalCode": "10551", "cc": "DE", "city": "Berlin", "state": "Berlin", "country": "Deutschland", "formattedAddress": ["Wilhelmshavener Str. 4", "10551 Berlin", "Deutschland"]}, "categories": [{"id": "4bf58dd8d48988d116941735", "name": "Bar", "pluralName": "Bars", "shortName": "Bar", "icon": {"prefix": "https://ss3.4sqi.net/img/categories_v2/nightlife/pub_", "suffix": ".png"}, "primary": true}], "photos": {"count": 0, "groups": []}}, "referralId": "e-0-5765c066498ec6de8e2b735b-38"}, {"reasons": {"count": 0, "items": [{"summary": "This spot is popular", "type": "general", "reasonName": "globalInteractionReason"}]}, "venue": {"id": "55b668d2498e30478e6faa41", "name": "Wilhelms-Burger", "location": {"address": "Wilhelmshavener Str. 3", "lat": 52.52775903929864, "lng": 13.341485459948792, "labeledLatLngs": [{"label": "display", "lat": 52.52775903929864, "lng": 13.341485459948792}], "distance": 952, "postalCode": "10551", "cc": "DE", "city": "Berlin", "state": "Berlin", "country": "Deutschland", "formattedAddress": ["Wilhelmshavener Str. 3", "10551 Berlin", "Deutschland"]}, "categories": [{"id": "4bf58dd8d48988d16c941735", "name": "Burger Joint", "pluralName": "Burger Joints", "shortName": "Burgers", "icon": {"prefix": "https://ss3.4sqi.net/img/categories_v2/food/burger_", "suffix": ".png"}, "primary": true}], "photos": {"count": 0, "groups": []}}, "referralId": "e-0-55b668d2498e30478e6faa41-39"}, {"reasons": {"count": 0, "items": [{"summary": "This spot is popular", "type": "general", "reasonName": "globalInteractionReason"}]}, "venue": {"id": "4d246967f39ca143235275b8", "name": "Carl-von-Ossietzky-Park", "location": {"address": "Alt Moabit", "crossStreet": "Paulstr", "lat": 52.523214606904354, "lng": 13.355492522337334, "labeledLatLngs": [{"label": "display", "lat": 52.523214606904354, "lng": 13.355492522337334}], "distance": 339, "postalCode": "10559", "cc": "DE", "city": "Berlin", "state": "Berlin", "country": "Deutschland", "formattedAddress": ["Alt Moabit (Paulstr)", "10559 Berlin", "Deutschland"]}, "categories": [{"id": "4bf58dd8d48988d163941735", "name": "Park", "pluralName": "Parks", "shortName": "Park", "icon": {"prefix": "https://ss3.4sqi.net/img/categories_v2/parks_outdoors/park_", "suffix": ".png"}, "primary": true}], "photos": {"count": 0, "groups": []}}, "referralId": "e-0-4d246967f39ca143235275b8-40"}, {"reasons": {"count": 0, "items": [{"summary": "This spot is popular", "type": "general", "reasonName": "globalInteractionReason"}]}, "venue": {"id": "503fc331e4b0e270bac8666b", "name": "Zaffke", "location": {"address": "Rathenower Str. 44", "lat": 52.533541340966075, "lng": 13.350150744736592, "labeledLatLngs": [{"label": "display", "lat": 52.533541340966075, "lng": 13.350150744736592}], "distance": 882, "postalCode": "10559", "cc": "DE", "city": "Berlin", "state": "Berlin", "country": "Deutschland", "formattedAddress": ["Rathenower Str. 44", "10559 Berlin", "Deutschland"]}, "categories": [{"id": "4bf58dd8d48988d116941735", "name": "Bar", "pluralName": "Bars", "shortName": "Bar", "icon": {"prefix": "https://ss3.4sqi.net/img/categories_v2/nightlife/pub_", "suffix": ".png"}, "primary": true}], "photos": {"count": 0, "groups": []}}, "referralId": "e-0-503fc331e4b0e270bac8666b-41"}, {"reasons": {"count": 0, "items": [{"summary": "This spot is popular", "type": "general", "reasonName": "globalInteractionReason"}]}, "venue": {"id": "5b68826f029a550039102c17", "name": "Alverdes", "location": {"address": "Stromstra\u00dfe 20", "lat": 52.525985, "lng": 13.343321, "labeledLatLngs": [{"label": "display", "lat": 52.525985, "lng": 13.343321}], "distance": 813, "postalCode": "10555", "cc": "DE", "city": "Berlin", "state": "Berlin", "country": "Deutschland", "formattedAddress": ["Stromstra\u00dfe 20", "10555 Berlin", "Deutschland"]}, "categories": [{"id": "4bf58dd8d48988d1c4941735", "name": "Restaurant", "pluralName": "Restaurants", "shortName": "Restaurant", "icon": {"prefix": "https://ss3.4sqi.net/img/categories_v2/food/default_", "suffix": ".png"}, "primary": true}], "photos": {"count": 0, "groups": []}}, "referralId": "e-0-5b68826f029a550039102c17-42"}, {"reasons": {"count": 0, "items": [{"summary": "This spot is popular", "type": "general", "reasonName": "globalInteractionReason"}]}, "venue": {"id": "4bc483a0f8219c74446db710", "name": "Motel One Berlin-Bellevue", "location": {"address": "Paulstr. 21", "lat": 52.519935646188955, "lng": 13.355995416641235, "labeledLatLngs": [{"label": "display", "lat": 52.519935646188955, "lng": 13.355995416641235}], "distance": 705, "postalCode": "10557", "cc": "DE", "city": "Berlin", "state": "Berlin", "country": "Deutschland", "formattedAddress": ["Paulstr. 21", "10557 Berlin", "Deutschland"]}, "categories": [{"id": "4bf58dd8d48988d1fa931735", "name": "Hotel", "pluralName": "Hotels", "shortName": "Hotel", "icon": {"prefix": "https://ss3.4sqi.net/img/categories_v2/travel/hotel_", "suffix": ".png"}, "primary": true}], "photos": {"count": 0, "groups": []}, "venuePage": {"id": "154666659"}}, "referralId": "e-0-4bc483a0f8219c74446db710-43"}, {"reasons": {"count": 0, "items": [{"summary": "This spot is popular", "type": "general", "reasonName": "globalInteractionReason"}]}, "venue": {"id": "51795b9de4b0cca38d411a98", "name": "dm-drogerie markt", "location": {"address": "Turmstra\u00dfe 29", "crossStreet": "Wilhelmshavener Str.", "lat": 52.526563, "lng": 13.341574, "labeledLatLngs": [{"label": "display", "lat": 52.526563, "lng": 13.341574}], "distance": 932, "postalCode": "10551", "cc": "DE", "city": "Berlin", "state": "Berlin", "country": "Deutschland", "formattedAddress": ["Turmstra\u00dfe 29 (Wilhelmshavener Str.)", "10551 Berlin", "Deutschland"]}, "categories": [{"id": "5745c2e4498e11e7bccabdbd", "name": "Drugstore", "pluralName": "Drugstores", "shortName": "Drugstore", "icon": {"prefix": "https://ss3.4sqi.net/img/categories_v2/shops/pharmacy_", "suffix": ".png"}, "primary": true}], "photos": {"count": 0, "groups": []}, "venuePage": {"id": "452039801"}}, "referralId": "e-0-51795b9de4b0cca38d411a98-44"}, {"reasons": {"count": 0, "items": [{"summary": "This spot is popular", "type": "general", "reasonName": "globalInteractionReason"}]}, "venue": {"id": "54181187498e962a4c82609c", "name": "Valladares", "location": {"address": "Stephanstr. 46", "lat": 52.53360636248186, "lng": 13.34714700986925, "labeledLatLngs": [{"label": "display", "lat": 52.53360636248186, "lng": 13.34714700986925}], "distance": 987, "postalCode": "10559", "cc": "DE", "city": "Berlin", "state": "Berlin", "country": "Deutschland", "formattedAddress": ["Stephanstr. 46", "10559 Berlin", "Deutschland"]}, "categories": [{"id": "4bf58dd8d48988d1d3941735", "name": "Vegetarian / Vegan Restaurant", "pluralName": "Vegetarian / Vegan Restaurants", "shortName": "Vegetarian / Vegan", "icon": {"prefix": "https://ss3.4sqi.net/img/categories_v2/food/vegetarian_", "suffix": ".png"}, "primary": true}], "photos": {"count": 0, "groups": []}}, "referralId": "e-0-54181187498e962a4c82609c-45"}, {"reasons": {"count": 0, "items": [{"summary": "This spot is popular", "type": "general", "reasonName": "globalInteractionReason"}]}, "venue": {"id": "5ce943ac27cbd10025098361", "name": "Wonder Waffel", "location": {"address": "Stromstr. 11-17", "lat": 52.526483, "lng": 13.343541, "labeledLatLngs": [{"label": "display", "lat": 52.526483, "lng": 13.343541}], "distance": 798, "cc": "DE", "country": "Deutschland", "formattedAddress": ["Stromstr. 11-17", "Deutschland"]}, "categories": [{"id": "4bf58dd8d48988d1c9941735", "name": "Ice Cream Shop", "pluralName": "Ice Cream Shops", "shortName": "Ice Cream", "icon": {"prefix": "https://ss3.4sqi.net/img/categories_v2/food/icecream_", "suffix": ".png"}, "primary": true}], "photos": {"count": 0, "groups": []}}, "referralId": "e-0-5ce943ac27cbd10025098361-46"}, {"reasons": {"count": 0, "items": [{"summary": "This spot is popular", "type": "general", "reasonName": "globalInteractionReason"}]}, "venue": {"id": "54a1b5f2498e03eea6180c8a", "name": "Trattoria da Luma", "location": {"address": "Birkenstrasse 55", "lat": 52.531531708133606, "lng": 13.344550872952926, "labeledLatLngs": [{"label": "display", "lat": 52.531531708133606, "lng": 13.344550872952926}], "distance": 936, "postalCode": "10559", "cc": "DE", "city": "Berlin", "state": "Berlin", "country": "Deutschland", "formattedAddress": ["Birkenstrasse 55", "10559 Berlin", "Deutschland"]}, "categories": [{"id": "55a5a1ebe4b013909087cb7f", "name": "Trattoria/Osteria", "pluralName": "Trattorias/Osterias", "shortName": "Trattoria/Osteria", "icon": {"prefix": "https://ss3.4sqi.net/img/categories_v2/food/italian_", "suffix": ".png"}, "primary": true}], "photos": {"count": 0, "groups": []}}, "referralId": "e-0-54a1b5f2498e03eea6180c8a-47"}, {"reasons": {"count": 0, "items": [{"summary": "This spot is popular", "type": "general", "reasonName": "globalInteractionReason"}]}, "venue": {"id": "4b54a8f4f964a52075c527e3", "name": "Hertha BSC Fanshop", "location": {"address": "Europaplatz 1", "lat": 52.525451217010485, "lng": 13.36915385083878, "labeledLatLngs": [{"label": "display", "lat": 52.525451217010485, "lng": 13.36915385083878}], "distance": 940, "postalCode": "10557", "cc": "DE", "city": "Berlin", "state": "Berlin", "country": "Deutschland", "formattedAddress": ["Europaplatz 1", "10557 Berlin", "Deutschland"]}, "categories": [{"id": "4bf58dd8d48988d1f2941735", "name": "Sporting Goods Shop", "pluralName": "Sporting Goods Shops", "shortName": "Sporting Goods", "icon": {"prefix": "https://ss3.4sqi.net/img/categories_v2/shops/sports_outdoors_", "suffix": ".png"}, "primary": true}], "photos": {"count": 0, "groups": []}}, "referralId": "e-0-4b54a8f4f964a52075c527e3-48"}, {"reasons": {"count": 0, "items": [{"summary": "This spot is popular", "type": "general", "reasonName": "globalInteractionReason"}]}, "venue": {"id": "4b583f49f964a520754f28e3", "name": "Stadtbad Tiergarten", "location": {"address": "Seydlitzstr. 7", "lat": 52.527150605558774, "lng": 13.360738461420459, "labeledLatLngs": [{"label": "display", "lat": 52.527150605558774, "lng": 13.360738461420459}], "distance": 379, "postalCode": "10557", "cc": "DE", "city": "Berlin", "state": "Berlin", "country": "Deutschland", "formattedAddress": ["Seydlitzstr. 7", "10557 Berlin", "Deutschland"]}, "categories": [{"id": "4bf58dd8d48988d15e941735", "name": "Pool", "pluralName": "Pools", "shortName": "Pool", "icon": {"prefix": "https://ss3.4sqi.net/img/categories_v2/parks_outdoors/pool_", "suffix": ".png"}, "primary": true}], "photos": {"count": 0, "groups": []}}, "referralId": "e-0-4b583f49f964a520754f28e3-49"}, {"reasons": {"count": 0, "items": [{"summary": "This spot is popular", "type": "general", "reasonName": "globalInteractionReason"}]}, "venue": {"id": "524fcd3811d2cb48e0b092d1", "name": "IntercityHotel Berlin Hauptbahnhof", "location": {"address": "Katharina-Paulus-Str. 5", "lat": 52.52355041095177, "lng": 13.367036174090213, "labeledLatLngs": [{"label": "display", "lat": 52.52355041095177, "lng": 13.367036174090213}], "distance": 848, "postalCode": "10557", "cc": "DE", "city": "Berlin", "state": "Berlin", "country": "Deutschland", "formattedAddress": ["Katharina-Paulus-Str. 5", "10557 Berlin", "Deutschland"]}, "categories": [{"id": "4bf58dd8d48988d1fa931735", "name": "Hotel", "pluralName": "Hotels", "shortName": "Hotel", "icon": {"prefix": "https://ss3.4sqi.net/img/categories_v2/travel/hotel_", "suffix": ".png"}, "primary": true}], "photos": {"count": 0, "groups": []}, "venuePage": {"id": "76787674"}}, "referralId": "e-0-524fcd3811d2cb48e0b092d1-50"}, {"reasons": {"count": 0, "items": [{"summary": "This spot is popular", "type": "general", "reasonName": "globalInteractionReason"}]}, "venue": {"id": "4bb0b3ccf964a52015563ce3", "name": "AMERON Hotel ABION Villa", "location": {"address": "Alt-Moabit 99", "lat": 52.5227296866735, "lng": 13.346757888793944, "labeledLatLngs": [{"label": "display", "lat": 52.5227296866735, "lng": 13.346757888793944}], "distance": 701, "postalCode": "10559", "cc": "DE", "city": "Berlin", "state": "Berlin", "country": "Deutschland", "formattedAddress": ["Alt-Moabit 99", "10559 Berlin", "Deutschland"]}, "categories": [{"id": "4bf58dd8d48988d1fa931735", "name": "Hotel", "pluralName": "Hotels", "shortName": "Hotel", "icon": {"prefix": "https://ss3.4sqi.net/img/categories_v2/travel/hotel_", "suffix": ".png"}, "primary": true}], "photos": {"count": 0, "groups": []}}, "referralId": "e-0-4bb0b3ccf964a52015563ce3-51"}, {"reasons": {"count": 0, "items": [{"summary": "This spot is popular", "type": "general", "reasonName": "globalInteractionReason"}]}, "venue": {"id": "4f6f441be4b0a4e211465215", "name": "Kapitel 21", "location": {"address": "Lehrter Str. 55", "lat": 52.534227218224956, "lng": 13.3589587015282, "labeledLatLngs": [{"label": "display", "lat": 52.534227218224956, "lng": 13.3589587015282}], "distance": 919, "postalCode": "10557", "cc": "DE", "city": "Berlin", "state": "Berlin", "country": "Deutschland", "formattedAddress": ["Lehrter Str. 55", "10557 Berlin", "Deutschland"]}, "categories": [{"id": "4bf58dd8d48988d116941735", "name": "Bar", "pluralName": "Bars", "shortName": "Bar", "icon": {"prefix": "https://ss3.4sqi.net/img/categories_v2/nightlife/pub_", "suffix": ".png"}, "primary": true}], "photos": {"count": 0, "groups": []}}, "referralId": "e-0-4f6f441be4b0a4e211465215-52"}, {"reasons": {"count": 0, "items": [{"summary": "This spot is popular", "type": "general", "reasonName": "globalInteractionReason"}]}, "venue": {"id": "4e4fb6176284416669917ff2", "name": "Kanzlerpark", "location": {"address": "Ingeborg-Drewitz-Allee", "lat": 52.52018107026926, "lng": 13.362979888916016, "labeledLatLngs": [{"label": "display", "lat": 52.52018107026926, "lng": 13.362979888916016}], "distance": 852, "postalCode": "10557", "cc": "DE", "city": "Berlin", "state": "Berlin", "country": "Deutschland", "formattedAddress": ["Ingeborg-Drewitz-Allee", "10557 Berlin", "Deutschland"]}, "categories": [{"id": "4bf58dd8d48988d163941735", "name": "Park", "pluralName": "Parks", "shortName": "Park", "icon": {"prefix": "https://ss3.4sqi.net/img/categories_v2/parks_outdoors/park_", "suffix": ".png"}, "primary": true}], "photos": {"count": 0, "groups": []}}, "referralId": "e-0-4e4fb6176284416669917ff2-53"}, {"reasons": {"count": 0, "items": [{"summary": "This spot is popular", "type": "general", "reasonName": "globalInteractionReason"}]}, "venue": {"id": "56765ab3498ef8a58e215083", "name": "Mercure Hotel MOA Berlin", "location": {"address": "Stephanstrasse 41", "crossStreet": "Birkenstr.", "lat": 52.53208518021409, "lng": 13.344259482313191, "labeledLatLngs": [{"label": "display", "lat": 52.53208518021409, "lng": 13.344259482313191}], "distance": 990, "postalCode": "10559", "cc": "DE", "city": "Berlin", "state": "Berlin", "country": "Deutschland", "formattedAddress": ["Stephanstrasse 41 (Birkenstr.)", "10559 Berlin", "Deutschland"]}, "categories": [{"id": "4bf58dd8d48988d1fa931735", "name": "Hotel", "pluralName": "Hotels", "shortName": "Hotel", "icon": {"prefix": "https://ss3.4sqi.net/img/categories_v2/travel/hotel_", "suffix": ".png"}, "primary": true}], "photos": {"count": 0, "groups": []}}, "referralId": "e-0-56765ab3498ef8a58e215083-54"}, {"reasons": {"count": 0, "items": [{"summary": "This spot is popular", "type": "general", "reasonName": "globalInteractionReason"}]}, "venue": {"id": "4afbc40cf964a5200b1f22e3", "name": "Berliner Stadtmission", "location": {"address": "Lehrter Str. 68", "lat": 52.52656415726251, "lng": 13.363153401866853, "labeledLatLngs": [{"label": "display", "lat": 52.52656415726251, "lng": 13.363153401866853}], "distance": 530, "postalCode": "10557", "cc": "DE", "city": "Berlin", "state": "Berlin", "country": "Deutschland", "formattedAddress": ["Lehrter Str. 68", "10557 Berlin", "Deutschland"]}, "categories": [{"id": "50328a8e91d4c4b30a586d6c", "name": "Non-Profit", "pluralName": "Non-Profits", "shortName": "Non-Profit", "icon": {"prefix": "https://ss3.4sqi.net/img/categories_v2/building/default_", "suffix": ".png"}, "primary": true}], "photos": {"count": 0, "groups": []}, "venuePage": {"id": "329688760"}}, "referralId": "e-0-4afbc40cf964a5200b1f22e3-55"}, {"reasons": {"count": 0, "items": [{"summary": "This spot is popular", "type": "general", "reasonName": "globalInteractionReason"}]}, "venue": {"id": "4a1c8506f964a520457b1fe3", "name": "Berlin Hauptbahnhof", "location": {"address": "Europaplatz 1", "crossStreet": "Washingtonplatz", "lat": 52.52485121086412, "lng": 13.369781970977781, "labeledLatLngs": [{"label": "display", "lat": 52.52485121086412, "lng": 13.369781970977781}], "distance": 991, "postalCode": "10557", "cc": "DE", "city": "Berlin", "state": "Berlin", "country": "Deutschland", "formattedAddress": ["Europaplatz 1 (Washingtonplatz)", "10557 Berlin", "Deutschland"]}, "categories": [{"id": "4bf58dd8d48988d129951735", "name": "Train Station", "pluralName": "Train Stations", "shortName": "Train Station", "icon": {"prefix": "https://ss3.4sqi.net/img/categories_v2/travel/trainstation_", "suffix": ".png"}, "primary": true}], "photos": {"count": 0, "groups": []}}, "referralId": "e-0-4a1c8506f964a520457b1fe3-56"}, {"reasons": {"count": 0, "items": [{"summary": "This spot is popular", "type": "general", "reasonName": "globalInteractionReason"}]}, "venue": {"id": "4adcda78f964a5204a4621e3", "name": "Kulturfabrik Moabit", "location": {"address": "Lehrter Str. 35", "lat": 52.53424343604285, "lng": 13.359332084655762, "labeledLatLngs": [{"label": "display", "lat": 52.53424343604285, "lng": 13.359332084655762}], "distance": 928, "postalCode": "10557", "cc": "DE", "city": "Berlin", "state": "Berlin", "country": "Deutschland", "formattedAddress": ["Lehrter Str. 35", "10557 Berlin", "Deutschland"]}, "categories": [{"id": "4bf58dd8d48988d1f1931735", "name": "General Entertainment", "pluralName": "General Entertainment", "shortName": "Entertainment", "icon": {"prefix": "https://ss3.4sqi.net/img/categories_v2/arts_entertainment/default_", "suffix": ".png"}, "primary": true}], "photos": {"count": 0, "groups": []}}, "referralId": "e-0-4adcda78f964a5204a4621e3-57"}, {"reasons": {"count": 0, "items": [{"summary": "This spot is popular", "type": "general", "reasonName": "globalInteractionReason"}]}, "venue": {"id": "559d9d84498eddeef0d4c782", "name": "S\u00f6nmez Baklava Manufaktur", "location": {"address": "Turmstr. 31", "lat": 52.52646599096769, "lng": 13.340957566636522, "labeledLatLngs": [{"label": "display", "lat": 52.52646599096769, "lng": 13.340957566636522}], "distance": 973, "postalCode": "10551", "cc": "DE", "neighborhood": "Turmstra\u00dfe", "city": "Berlin", "state": "Berlin", "country": "Deutschland", "formattedAddress": ["Turmstr. 31", "10551 Berlin", "Deutschland"]}, "categories": [{"id": "5744ccdfe4b0c0459246b4e2", "name": "Pastry Shop", "pluralName": "Pastry Shops", "shortName": "Pastry", "icon": {"prefix": "https://ss3.4sqi.net/img/categories_v2/food/dessert_", "suffix": ".png"}, "primary": true}], "photos": {"count": 0, "groups": []}}, "referralId": "e-0-559d9d84498eddeef0d4c782-58"}, {"reasons": {"count": 0, "items": [{"summary": "This spot is popular", "type": "general", "reasonName": "globalInteractionReason"}]}, "venue": {"id": "4c3c044ab36ac928a8990386", "name": "McFIT", "location": {"address": "Alt-Moabit 96d", "crossStreet": "Kleiner Tiergarten", "lat": 52.52488768099381, "lng": 13.345623093254062, "labeledLatLngs": [{"label": "display", "lat": 52.52488768099381, "lng": 13.345623093254062}], "distance": 675, "postalCode": "10559", "cc": "DE", "city": "Berlin", "state": "Berlin", "country": "Deutschland", "formattedAddress": ["Alt-Moabit 96d (Kleiner Tiergarten)", "10559 Berlin", "Deutschland"]}, "categories": [{"id": "4bf58dd8d48988d175941735", "name": "Gym / Fitness Center", "pluralName": "Gyms or Fitness Centers", "shortName": "Gym / Fitness", "icon": {"prefix": "https://ss3.4sqi.net/img/categories_v2/building/gym_", "suffix": ".png"}, "primary": true}], "photos": {"count": 0, "groups": []}}, "referralId": "e-0-4c3c044ab36ac928a8990386-59"}, {"reasons": {"count": 0, "items": [{"summary": "This spot is popular", "type": "general", "reasonName": "globalInteractionReason"}]}, "venue": {"id": "4da30aea540ea1cd307288de", "name": "Netto Marken-Discount", "location": {"address": "Lehrter Str. 57", "lat": 52.53228274, "lng": 13.36005898, "labeledLatLngs": [{"label": "display", "lat": 52.53228274, "lng": 13.36005898}], "distance": 742, "postalCode": "10557", "cc": "DE", "neighborhood": "Poststadion", "city": "Berlin", "state": "Berlin", "country": "Deutschland", "formattedAddress": ["Lehrter Str. 57", "10557 Berlin", "Deutschland"]}, "categories": [{"id": "52f2ab2ebcbc57f1066b8b46", "name": "Supermarket", "pluralName": "Supermarkets", "shortName": "Supermarket", "icon": {"prefix": "https://ss3.4sqi.net/img/categories_v2/shops/food_grocery_", "suffix": ".png"}, "primary": true}], "photos": {"count": 0, "groups": []}, "venuePage": {"id": "534780001"}}, "referralId": "e-0-4da30aea540ea1cd307288de-60"}, {"reasons": {"count": 0, "items": [{"summary": "This spot is popular", "type": "general", "reasonName": "globalInteractionReason"}]}, "venue": {"id": "58e524aa89151d53e9bb77ca", "name": "FIT STAR Fitnessstudio Berlin-Moabit", "location": {"address": "Turmstra\u00dfe 29", "lat": 52.5264973, "lng": 13.3420837, "labeledLatLngs": [{"label": "display", "lat": 52.5264973, "lng": 13.3420837}], "distance": 897, "postalCode": "10551", "cc": "DE", "city": "Berlin", "state": "Berlin", "country": "Deutschland", "formattedAddress": ["Turmstra\u00dfe 29", "10551 Berlin", "Deutschland"]}, "categories": [{"id": "4bf58dd8d48988d175941735", "name": "Gym / Fitness Center", "pluralName": "Gyms or Fitness Centers", "shortName": "Gym / Fitness", "icon": {"prefix": "https://ss3.4sqi.net/img/categories_v2/building/gym_", "suffix": ".png"}, "primary": true}], "photos": {"count": 0, "groups": []}}, "referralId": "e-0-58e524aa89151d53e9bb77ca-61"}, {"reasons": {"count": 0, "items": [{"summary": "This spot is popular", "type": "general", "reasonName": "globalInteractionReason"}]}, "venue": {"id": "4b97d1dcf964a520be1735e3", "name": "Osmanya", "location": {"address": "Birkenstr. 17", "lat": 52.530963383137504, "lng": 13.34683636051725, "labeledLatLngs": [{"label": "display", "lat": 52.530963383137504, "lng": 13.34683636051725}], "distance": 777, "postalCode": "10559", "cc": "DE", "city": "Berlin", "state": "Berlin", "country": "Deutschland", "formattedAddress": ["Birkenstr. 17", "10559 Berlin", "Deutschland"]}, "categories": [{"id": "4f04af1f2fb6e1c99f3db0bb", "name": "Turkish Restaurant", "pluralName": "Turkish Restaurants", "shortName": "Turkish", "icon": {"prefix": "https://ss3.4sqi.net/img/categories_v2/food/turkish_", "suffix": ".png"}, "primary": true}], "photos": {"count": 0, "groups": []}}, "referralId": "e-0-4b97d1dcf964a520be1735e3-62"}, {"reasons": {"count": 0, "items": [{"summary": "This spot is popular", "type": "general", "reasonName": "globalInteractionReason"}]}, "venue": {"id": "4bb08a49f964a520bb4a3ce3", "name": "zw\u00f6lf.uhr.mittags", "location": {"address": "Kirchstr. 17", "lat": 52.522755798363264, "lng": 13.348978757858275, "labeledLatLngs": [{"label": "display", "lat": 52.522755798363264, "lng": 13.348978757858275}], "distance": 581, "postalCode": "10557", "cc": "DE", "city": "Berlin", "state": "Berlin", "country": "Deutschland", "formattedAddress": ["Kirchstr. 17", "10557 Berlin", "Deutschland"]}, "categories": [{"id": "52e81612bcbc57f1066b79f1", "name": "Bistro", "pluralName": "Bistros", "shortName": "Bistro", "icon": {"prefix": "https://ss3.4sqi.net/img/categories_v2/food/default_", "suffix": ".png"}, "primary": true}], "photos": {"count": 0, "groups": []}}, "referralId": "e-0-4bb08a49f964a520bb4a3ce3-63"}, {"reasons": {"count": 0, "items": [{"summary": "This spot is popular", "type": "general", "reasonName": "globalInteractionReason"}]}, "venue": {"id": "55a1021b498e50718204fe1f", "name": "cafe paci", "location": {"address": "Kirchstr. 19", "lat": 52.52312176763155, "lng": 13.348946663083227, "labeledLatLngs": [{"label": "display", "lat": 52.52312176763155, "lng": 13.348946663083227}], "distance": 556, "cc": "DE", "neighborhood": "Mitte", "city": "Berlin", "state": "Berlin", "country": "Deutschland", "formattedAddress": ["Kirchstr. 19", "Berlin", "Deutschland"]}, "categories": [{"id": "4bf58dd8d48988d1e0931735", "name": "Coffee Shop", "pluralName": "Coffee Shops", "shortName": "Coffee Shop", "icon": {"prefix": "https://ss3.4sqi.net/img/categories_v2/food/coffeeshop_", "suffix": ".png"}, "primary": true}], "photos": {"count": 0, "groups": []}}, "referralId": "e-0-55a1021b498e50718204fe1f-64"}, {"reasons": {"count": 0, "items": [{"summary": "This spot is popular", "type": "general", "reasonName": "globalInteractionReason"}]}, "venue": {"id": "56b89edd498e84344b9ea4d4", "name": "Movinga", "location": {"address": "Perleberger Str. 42", "lat": 52.52892022, "lng": 13.34413968, "labeledLatLngs": [{"label": "display", "lat": 52.52892022, "lng": 13.34413968}], "distance": 813, "postalCode": "10559", "cc": "DE", "city": "Berlin", "state": "Berlin", "country": "Deutschland", "formattedAddress": ["Perleberger Str. 42", "10559 Berlin", "Deutschland"]}, "categories": [{"id": "52f2ab2ebcbc57f1066b8b36", "name": "IT Services", "pluralName": "IT Services", "shortName": "IT Services", "icon": {"prefix": "https://ss3.4sqi.net/img/categories_v2/shops/technology_", "suffix": ".png"}, "primary": true}], "photos": {"count": 0, "groups": []}}, "referralId": "e-0-56b89edd498e84344b9ea4d4-65"}, {"reasons": {"count": 0, "items": [{"summary": "This spot is popular", "type": "general", "reasonName": "globalInteractionReason"}]}, "venue": {"id": "57d160f5498ee4ab3562e442", "name": "LPG biomarkt", "location": {"address": "Alt Moabit 98", "lat": 52.523586983293995, "lng": 13.346455899661084, "labeledLatLngs": [{"label": "display", "lat": 52.523586983293995, "lng": 13.346455899661084}], "distance": 670, "postalCode": "10559", "cc": "DE", "city": "Berlin", "state": "Berlin", "country": "Deutschland", "formattedAddress": ["Alt Moabit 98", "10559 Berlin", "Deutschland"]}, "categories": [{"id": "52f2ab2ebcbc57f1066b8b45", "name": "Organic Grocery", "pluralName": "Organic Groceries", "shortName": "Organic Grocery", "icon": {"prefix": "https://ss3.4sqi.net/img/categories_v2/shops/food_grocery_", "suffix": ".png"}, "primary": true}], "photos": {"count": 0, "groups": []}}, "referralId": "e-0-57d160f5498ee4ab3562e442-66"}, {"reasons": {"count": 0, "items": [{"summary": "This spot is popular", "type": "general", "reasonName": "globalInteractionReason"}]}, "venue": {"id": "5b9afe40364d97002c25d4ae", "name": "dm-drogerie markt", "location": {"address": "Stromstra\u00dfe 14", "crossStreet": "Turmstr.", "lat": 52.526658, "lng": 13.341953, "labeledLatLngs": [{"label": "display", "lat": 52.526658, "lng": 13.341953}], "distance": 907, "postalCode": "10551", "cc": "DE", "neighborhood": "Turmstra\u00dfe", "city": "Berlin", "state": "Berlin", "country": "Deutschland", "formattedAddress": ["Stromstra\u00dfe 14 (Turmstr.)", "10551 Berlin", "Deutschland"]}, "categories": [{"id": "5745c2e4498e11e7bccabdbd", "name": "Drugstore", "pluralName": "Drugstores", "shortName": "Drugstore", "icon": {"prefix": "https://ss3.4sqi.net/img/categories_v2/shops/pharmacy_", "suffix": ".png"}, "primary": true}], "photos": {"count": 0, "groups": []}}, "referralId": "e-0-5b9afe40364d97002c25d4ae-67"}, {"reasons": {"count": 0, "items": [{"summary": "This spot is popular", "type": "general", "reasonName": "globalInteractionReason"}]}, "venue": {"id": "4bd884345cf276b062749d00", "name": "CARL & SOPHIE Spree Restaurant", "location": {"address": "Alt-Moabit 99", "lat": 52.522975, "lng": 13.34587, "labeledLatLngs": [{"label": "display", "lat": 52.522975, "lng": 13.34587}], "distance": 737, "postalCode": "10559", "cc": "DE", "city": "Berlin", "state": "Berlin", "country": "Deutschland", "formattedAddress": ["Alt-Moabit 99", "10559 Berlin", "Deutschland"]}, "categories": [{"id": "4bf58dd8d48988d1c4941735", "name": "Restaurant", "pluralName": "Restaurants", "shortName": "Restaurant", "icon": {"prefix": "https://ss3.4sqi.net/img/categories_v2/food/default_", "suffix": ".png"}, "primary": true}], "photos": {"count": 0, "groups": []}, "venuePage": {"id": "563665629"}}, "referralId": "e-0-4bd884345cf276b062749d00-68"}, {"reasons": {"count": 0, "items": [{"summary": "This spot is popular", "type": "general", "reasonName": "globalInteractionReason"}]}, "venue": {"id": "4c909a197f3d76b09a3ad5d2", "name": "Ristorante Don Giovanni", "location": {"address": "Alt-Moabit 129", "crossStreet": "Werftstr.", "lat": 52.523414557698686, "lng": 13.359653626757575, "labeledLatLngs": [{"label": "display", "lat": 52.523414557698686, "lng": 13.359653626757575}], "distance": 431, "postalCode": "10559", "cc": "DE", "neighborhood": "Mitte", "city": "Berlin", "state": "Berlin", "country": "Deutschland", "formattedAddress": ["Alt-Moabit 129 (Werftstr.)", "10559 Berlin", "Deutschland"]}, "categories": [{"id": "4bf58dd8d48988d110941735", "name": "Italian Restaurant", "pluralName": "Italian Restaurants", "shortName": "Italian", "icon": {"prefix": "https://ss3.4sqi.net/img/categories_v2/food/italian_", "suffix": ".png"}, "primary": true}], "photos": {"count": 0, "groups": []}}, "referralId": "e-0-4c909a197f3d76b09a3ad5d2-69"}, {"reasons": {"count": 0, "items": [{"summary": "This spot is popular", "type": "general", "reasonName": "globalInteractionReason"}]}, "venue": {"id": "55b3d7e5498edddae3911b57", "name": "Trattoria Fidelia", "location": {"address": "L\u00fcneburger Str. 390", "crossStreet": "Paulstr.", "lat": 52.51955951606555, "lng": 13.355715313467421, "labeledLatLngs": [{"label": "display", "lat": 52.51955951606555, "lng": 13.355715313467421}], "distance": 746, "postalCode": "10557", "cc": "DE", "city": "Berlin", "state": "Berlin", "country": "Deutschland", "formattedAddress": ["L\u00fcneburger Str. 390 (Paulstr.)", "10557 Berlin", "Deutschland"]}, "categories": [{"id": "4bf58dd8d48988d110941735", "name": "Italian Restaurant", "pluralName": "Italian Restaurants", "shortName": "Italian", "icon": {"prefix": "https://ss3.4sqi.net/img/categories_v2/food/italian_", "suffix": ".png"}, "primary": true}], "photos": {"count": 0, "groups": []}}, "referralId": "e-0-55b3d7e5498edddae3911b57-70"}, {"reasons": {"count": 0, "items": [{"summary": "This spot is popular", "type": "general", "reasonName": "globalInteractionReason"}]}, "venue": {"id": "4daf30900cb6ead7fdca1815", "name": "Geschichtspark Zellengef\u00e4ngnis Moabit", "location": {"address": "Invalidenstr.", "crossStreet": "Lehrter Str.", "lat": 52.5267922221595, "lng": 13.365876776824466, "labeledLatLngs": [{"label": "display", "lat": 52.5267922221595, "lng": 13.365876776824466}], "distance": 716, "postalCode": "10557", "cc": "DE", "city": "Berlin", "state": "Berlin", "country": "Deutschland", "formattedAddress": ["Invalidenstr. (Lehrter Str.)", "10557 Berlin", "Deutschland"]}, "categories": [{"id": "4deefb944765f83613cdba6e", "name": "Historic Site", "pluralName": "Historic Sites", "shortName": "Historic Site", "icon": {"prefix": "https://ss3.4sqi.net/img/categories_v2/arts_entertainment/historicsite_", "suffix": ".png"}, "primary": true}], "photos": {"count": 0, "groups": []}}, "referralId": "e-0-4daf30900cb6ead7fdca1815-71"}, {"reasons": {"count": 0, "items": [{"summary": "This spot is popular", "type": "general", "reasonName": "globalInteractionReason"}]}, "venue": {"id": "57e78cb7498e7ac95ce68197", "name": "Ampelmann Shop", "location": {"address": "Europaplatz 1", "lat": 52.525321196205375, "lng": 13.369288444519041, "labeledLatLngs": [{"label": "display", "lat": 52.525321196205375, "lng": 13.369288444519041}], "distance": 951, "postalCode": "10557", "cc": "DE", "city": "Berlin", "state": "Berlin", "country": "Deutschland", "formattedAddress": ["Europaplatz 1", "10557 Berlin", "Deutschland"]}, "categories": [{"id": "52f2ab2ebcbc57f1066b8b1b", "name": "Souvenir Shop", "pluralName": "Souvenir Shops", "shortName": "Souvenir Shop", "icon": {"prefix": "https://ss3.4sqi.net/img/categories_v2/shops/default_", "suffix": ".png"}, "primary": true}], "photos": {"count": 0, "groups": []}}, "referralId": "e-0-57e78cb7498e7ac95ce68197-72"}, {"reasons": {"count": 0, "items": [{"summary": "This spot is popular", "type": "general", "reasonName": "globalInteractionReason"}]}, "venue": {"id": "4d3880eb7ebf721e6ebf70fb", "name": "ALDI NORD", "location": {"address": "Invalidenstr. 59", "lat": 52.52440850146126, "lng": 13.36388068859716, "labeledLatLngs": [{"label": "display", "lat": 52.52440850146126, "lng": 13.36388068859716}], "distance": 614, "postalCode": "10557", "cc": "DE", "city": "Berlin", "state": "Berlin", "country": "Deutschland", "formattedAddress": ["Invalidenstr. 59", "10557 Berlin", "Deutschland"]}, "categories": [{"id": "52f2ab2ebcbc57f1066b8b46", "name": "Supermarket", "pluralName": "Supermarkets", "shortName": "Supermarket", "icon": {"prefix": "https://ss3.4sqi.net/img/categories_v2/shops/food_grocery_", "suffix": ".png"}, "primary": true}], "photos": {"count": 0, "groups": []}}, "referralId": "e-0-4d3880eb7ebf721e6ebf70fb-73"}, {"reasons": {"count": 0, "items": [{"summary": "This spot is popular", "type": "general", "reasonName": "globalInteractionReason"}]}, "venue": {"id": "55bfac6a498ecb92c48c22cf", "name": "Mixtape - Bagel Burgers", "location": {"address": "Kirchstra\u00dfe 2", "crossStreet": "Alt-Moabit", "lat": 52.524280440308054, "lng": 13.349439953248078, "labeledLatLngs": [{"label": "display", "lat": 52.524280440308054, "lng": 13.349439953248078}], "distance": 455, "postalCode": "10557", "cc": "DE", "city": "Berlin", "state": "Berlin", "country": "Deutschland", "formattedAddress": ["Kirchstra\u00dfe 2 (Alt-Moabit)", "10557 Berlin", "Deutschland"]}, "categories": [{"id": "4bf58dd8d48988d16c941735", "name": "Burger Joint", "pluralName": "Burger Joints", "shortName": "Burgers", "icon": {"prefix": "https://ss3.4sqi.net/img/categories_v2/food/burger_", "suffix": ".png"}, "primary": true}], "photos": {"count": 0, "groups": []}, "venuePage": {"id": "137331238"}}, "referralId": "e-0-55bfac6a498ecb92c48c22cf-74"}, {"reasons": {"count": 0, "items": [{"summary": "This spot is popular", "type": "general", "reasonName": "globalInteractionReason"}]}, "venue": {"id": "5ba1236e286fda002c944dd5", "name": "Curry 36", "location": {"address": "Washingtonplatz 1", "lat": 52.524668437428915, "lng": 13.36961030960083, "labeledLatLngs": [{"label": "display", "lat": 52.524668437428915, "lng": 13.36961030960083}], "distance": 983, "postalCode": "10557", "cc": "DE", "city": "Berlin", "state": "Berlin", "country": "Deutschland", "formattedAddress": ["Washingtonplatz 1", "10557 Berlin", "Deutschland"]}, "categories": [{"id": "56aa371ce4b08b9a8d57358b", "name": "Currywurst Joint", "pluralName": "Currywurst Joints", "shortName": "Currywurst", "icon": {"prefix": "https://ss3.4sqi.net/img/categories_v2/food/bbqalt_", "suffix": ".png"}, "primary": true}], "photos": {"count": 0, "groups": []}}, "referralId": "e-0-5ba1236e286fda002c944dd5-75"}, {"reasons": {"count": 0, "items": [{"summary": "This spot is popular", "type": "general", "reasonName": "globalInteractionReason"}]}, "venue": {"id": "521717db11d2468c596576bb", "name": "Buchstabenmuseum", "location": {"address": "Stadtbahnbogen 424", "crossStreet": "Bartningallee", "lat": 52.520003, "lng": 13.344753, "labeledLatLngs": [{"label": "display", "lat": 52.520003, "lng": 13.344753}], "distance": 999, "postalCode": "10557", "cc": "DE", "city": "Berlin", "state": "Berlin", "country": "Deutschland", "formattedAddress": ["Stadtbahnbogen 424 (Bartningallee)", "10557 Berlin", "Deutschland"]}, "categories": [{"id": "4bf58dd8d48988d18f941735", "name": "Art Museum", "pluralName": "Art Museums", "shortName": "Art Museum", "icon": {"prefix": "https://ss3.4sqi.net/img/categories_v2/arts_entertainment/museum_art_", "suffix": ".png"}, "primary": true}], "photos": {"count": 0, "groups": []}}, "referralId": "e-0-521717db11d2468c596576bb-76"}, {"reasons": {"count": 0, "items": [{"summary": "This spot is popular", "type": "general", "reasonName": "globalInteractionReason"}]}, "venue": {"id": "4e57c8ffd16491e0ae4e04ef", "name": "Otti Grill", "location": {"address": "Alt-Moabit 21/22", "lat": 52.524337855135244, "lng": 13.350813627585522, "labeledLatLngs": [{"label": "display", "lat": 52.524337855135244, "lng": 13.350813627585522}], "distance": 373, "postalCode": "10559", "cc": "DE", "city": "Berlin", "state": "Berlin", "country": "Deutschland", "formattedAddress": ["Alt-Moabit 21/22", "10559 Berlin", "Deutschland"]}, "categories": [{"id": "5283c7b4e4b094cb91ec88d8", "name": "Doner Restaurant", "pluralName": "Doner Restaurants", "shortName": "Doner", "icon": {"prefix": "https://ss3.4sqi.net/img/categories_v2/food/turkish_", "suffix": ".png"}, "primary": true}], "photos": {"count": 0, "groups": []}}, "referralId": "e-0-4e57c8ffd16491e0ae4e04ef-77"}, {"reasons": {"count": 0, "items": [{"summary": "This spot is popular", "type": "general", "reasonName": "globalInteractionReason"}]}, "venue": {"id": "4e1336118877ac23b6706db5", "name": "D\u00f6ner Turm", "location": {"address": "Turmstr. 31", "lat": 52.526672, "lng": 13.341356, "labeledLatLngs": [{"label": "display", "lat": 52.526672, "lng": 13.341356}], "distance": 947, "postalCode": "10551", "cc": "DE", "neighborhood": "Turmstra\u00dfe", "city": "Berlin", "state": "Berlin", "country": "Deutschland", "formattedAddress": ["Turmstr. 31", "10551 Berlin", "Deutschland"]}, "categories": [{"id": "5283c7b4e4b094cb91ec88d8", "name": "Doner Restaurant", "pluralName": "Doner Restaurants", "shortName": "Doner", "icon": {"prefix": "https://ss3.4sqi.net/img/categories_v2/food/turkish_", "suffix": ".png"}, "primary": true}], "photos": {"count": 0, "groups": []}}, "referralId": "e-0-4e1336118877ac23b6706db5-78"}, {"reasons": {"count": 0, "items": [{"summary": "This spot is popular", "type": "general", "reasonName": "globalInteractionReason"}]}, "venue": {"id": "5aeafb0864c8e1002cec9188", "name": "Decathlon", "location": {"address": "Europaplatz 1", "lat": 52.524996, "lng": 13.369524, "labeledLatLngs": [{"label": "display", "lat": 52.524996, "lng": 13.369524}], "distance": 971, "postalCode": "10557", "cc": "DE", "city": "Berlin", "state": "Berlin", "country": "Deutschland", "formattedAddress": ["Europaplatz 1", "10557 Berlin", "Deutschland"]}, "categories": [{"id": "4bf58dd8d48988d1f2941735", "name": "Sporting Goods Shop", "pluralName": "Sporting Goods Shops", "shortName": "Sporting Goods", "icon": {"prefix": "https://ss3.4sqi.net/img/categories_v2/shops/sports_outdoors_", "suffix": ".png"}, "primary": true}], "photos": {"count": 0, "groups": []}}, "referralId": "e-0-5aeafb0864c8e1002cec9188-79"}, {"reasons": {"count": 0, "items": [{"summary": "This spot is popular", "type": "general", "reasonName": "globalInteractionReason"}]}, "venue": {"id": "53b31e26498ebe81ef14baa0", "name": "Casa Matti", "location": {"address": "Helgol\u00e4nder Ufer 7", "crossStreet": "Kirchstrasse", "lat": 52.522048049039014, "lng": 13.348738867824297, "labeledLatLngs": [{"label": "display", "lat": 52.522048049039014, "lng": 13.348738867824297}], "distance": 647, "postalCode": "10557", "cc": "DE", "neighborhood": "Mitte", "city": "Berlin", "state": "Berlin", "country": "Deutschland", "formattedAddress": ["Helgol\u00e4nder Ufer 7 (Kirchstrasse)", "10557 Berlin", "Deutschland"]}, "categories": [{"id": "4bf58dd8d48988d110941735", "name": "Italian Restaurant", "pluralName": "Italian Restaurants", "shortName": "Italian", "icon": {"prefix": "https://ss3.4sqi.net/img/categories_v2/food/italian_", "suffix": ".png"}, "primary": true}], "photos": {"count": 0, "groups": []}}, "referralId": "e-0-53b31e26498ebe81ef14baa0-80"}, {"reasons": {"count": 0, "items": [{"summary": "This spot is popular", "type": "general", "reasonName": "globalInteractionReason"}]}, "venue": {"id": "4b214901f964a520883924e3", "name": "Angkor Wat", "location": {"address": "Paulstr. 22", "lat": 52.52037677752846, "lng": 13.355765000801808, "labeledLatLngs": [{"label": "display", "lat": 52.52037677752846, "lng": 13.355765000801808}], "distance": 656, "postalCode": "10557", "cc": "DE", "neighborhood": "Mitte", "city": "Berlin", "state": "Berlin", "country": "Deutschland", "formattedAddress": ["Paulstr. 22", "10557 Berlin", "Deutschland"]}, "categories": [{"id": "4bf58dd8d48988d142941735", "name": "Asian Restaurant", "pluralName": "Asian Restaurants", "shortName": "Asian", "icon": {"prefix": "https://ss3.4sqi.net/img/categories_v2/food/asian_", "suffix": ".png"}, "primary": true}], "photos": {"count": 0, "groups": []}}, "referralId": "e-0-4b214901f964a520883924e3-81"}, {"reasons": {"count": 0, "items": [{"summary": "This spot is popular", "type": "general", "reasonName": "globalInteractionReason"}]}, "venue": {"id": "4cd9bfacccf060fcb765ec83", "name": "A&O Berlin Hauptbahnhof", "location": {"address": "Lehrter Str. 12", "lat": 52.52910970491638, "lng": 13.363469719747277, "labeledLatLngs": [{"label": "display", "lat": 52.52910970491638, "lng": 13.363469719747277}], "distance": 635, "postalCode": "10557", "cc": "DE", "city": "Berlin", "state": "Berlin", "country": "Deutschland", "formattedAddress": ["Lehrter Str. 12", "10557 Berlin", "Deutschland"]}, "categories": [{"id": "4bf58dd8d48988d1ee931735", "name": "Hostel", "pluralName": "Hostels", "shortName": "Hostel", "icon": {"prefix": "https://ss3.4sqi.net/img/categories_v2/travel/hostel_", "suffix": ".png"}, "primary": true}], "photos": {"count": 0, "groups": []}}, "referralId": "e-0-4cd9bfacccf060fcb765ec83-82"}, {"reasons": {"count": 0, "items": [{"summary": "This spot is popular", "type": "general", "reasonName": "globalInteractionReason"}]}, "venue": {"id": "4f80a262e4b0c2f765a58788", "name": "A&O Hotel Bar", "location": {"address": "Lehrter Str. 12", "lat": 52.529362729081114, "lng": 13.364617477801048, "labeledLatLngs": [{"label": "display", "lat": 52.529362729081114, "lng": 13.364617477801048}], "distance": 717, "cc": "DE", "city": "Berlin", "state": "Berlin", "country": "Deutschland", "formattedAddress": ["Lehrter Str. 12", "Berlin", "Deutschland"]}, "categories": [{"id": "4bf58dd8d48988d1d5941735", "name": "Hotel Bar", "pluralName": "Hotel Bars", "shortName": "Hotel Bar", "icon": {"prefix": "https://ss3.4sqi.net/img/categories_v2/travel/hotel_bar_", "suffix": ".png"}, "primary": true}], "photos": {"count": 0, "groups": []}}, "referralId": "e-0-4f80a262e4b0c2f765a58788-83"}, {"reasons": {"count": 0, "items": [{"summary": "This spot is popular", "type": "general", "reasonName": "globalInteractionReason"}]}, "venue": {"id": "4f6df0a6e4b01d94fd19b648", "name": "Absolut Curry", "location": {"address": "Bartningallee 18", "lat": 52.5201484273184, "lng": 13.347306867534536, "labeledLatLngs": [{"label": "display", "lat": 52.5201484273184, "lng": 13.347306867534536}], "distance": 871, "postalCode": "10557", "cc": "DE", "neighborhood": "Tiergarten", "city": "Berlin", "state": "Berlin", "country": "Deutschland", "formattedAddress": ["Bartningallee 18", "10557 Berlin", "Deutschland"]}, "categories": [{"id": "56aa371ce4b08b9a8d57358b", "name": "Currywurst Joint", "pluralName": "Currywurst Joints", "shortName": "Currywurst", "icon": {"prefix": "https://ss3.4sqi.net/img/categories_v2/food/bbqalt_", "suffix": ".png"}, "primary": true}], "photos": {"count": 0, "groups": []}}, "referralId": "e-0-4f6df0a6e4b01d94fd19b648-84"}, {"reasons": {"count": 0, "items": [{"summary": "This spot is popular", "type": "general", "reasonName": "globalInteractionReason"}]}, "venue": {"id": "508fb63be4b0d49481ce6baa", "name": "Vapiano", "location": {"address": "Washingtonplatz 2", "lat": 52.524531030450646, "lng": 13.369383823373937, "labeledLatLngs": [{"label": "display", "lat": 52.524531030450646, "lng": 13.369383823373937}], "distance": 971, "postalCode": "10557", "cc": "DE", "city": "Berlin", "state": "Berlin", "country": "Deutschland", "formattedAddress": ["Washingtonplatz 2", "10557 Berlin", "Deutschland"]}, "categories": [{"id": "4bf58dd8d48988d110941735", "name": "Italian Restaurant", "pluralName": "Italian Restaurants", "shortName": "Italian", "icon": {"prefix": "https://ss3.4sqi.net/img/categories_v2/food/italian_", "suffix": ".png"}, "primary": true}], "photos": {"count": 0, "groups": []}}, "referralId": "e-0-508fb63be4b0d49481ce6baa-85"}, {"reasons": {"count": 0, "items": [{"summary": "This spot is popular", "type": "general", "reasonName": "globalInteractionReason"}]}, "venue": {"id": "4c08b26ca1b32d7f077596f0", "name": "Ameron Hotel Abion Spreebogen Berlin", "location": {"address": "Alt-Moabit 99", "lat": 52.523105149572636, "lng": 13.345906880373946, "labeledLatLngs": [{"label": "display", "lat": 52.523105149572636, "lng": 13.345906880373946}], "distance": 728, "postalCode": "10559", "cc": "DE", "city": "Berlin", "state": "Berlin", "country": "Deutschland", "formattedAddress": ["Alt-Moabit 99", "10559 Berlin", "Deutschland"]}, "categories": [{"id": "4bf58dd8d48988d1fa931735", "name": "Hotel", "pluralName": "Hotels", "shortName": "Hotel", "icon": {"prefix": "https://ss3.4sqi.net/img/categories_v2/travel/hotel_", "suffix": ".png"}, "primary": true}], "photos": {"count": 0, "groups": []}}, "referralId": "e-0-4c08b26ca1b32d7f077596f0-86"}, {"reasons": {"count": 0, "items": [{"summary": "This spot is popular", "type": "general", "reasonName": "globalInteractionReason"}]}, "venue": {"id": "4b9aacfff964a520f9cb35e3", "name": "Gosch Sylt", "location": {"address": "Washingtonplatz", "lat": 52.52498212901583, "lng": 13.369450001689144, "labeledLatLngs": [{"label": "display", "lat": 52.52498212901583, "lng": 13.369450001689144}], "distance": 966, "postalCode": "10557", "cc": "DE", "city": "Berlin", "state": "Berlin", "country": "Deutschland", "formattedAddress": ["Washingtonplatz", "10557 Berlin", "Deutschland"]}, "categories": [{"id": "4bf58dd8d48988d1ce941735", "name": "Seafood Restaurant", "pluralName": "Seafood Restaurants", "shortName": "Seafood", "icon": {"prefix": "https://ss3.4sqi.net/img/categories_v2/food/seafood_", "suffix": ".png"}, "primary": true}], "photos": {"count": 0, "groups": []}}, "referralId": "e-0-4b9aacfff964a520f9cb35e3-87"}, {"reasons": {"count": 0, "items": [{"summary": "This spot is popular", "type": "general", "reasonName": "globalInteractionReason"}]}, "venue": {"id": "514cecfce4b08debdcbb7e1f", "name": "Zur Quelle", "location": {"lat": 52.52531500358521, "lng": 13.343078854232363, "labeledLatLngs": [{"label": "display", "lat": 52.52531500358521, "lng": 13.343078854232363}], "distance": 836, "cc": "DE", "city": "Berlin", "state": "Berlin", "country": "Deutschland", "formattedAddress": ["Berlin", "Deutschland"]}, "categories": [{"id": "4bf58dd8d48988d11b941735", "name": "Pub", "pluralName": "Pubs", "shortName": "Pub", "icon": {"prefix": "https://ss3.4sqi.net/img/categories_v2/nightlife/pub_", "suffix": ".png"}, "primary": true}], "photos": {"count": 0, "groups": []}}, "referralId": "e-0-514cecfce4b08debdcbb7e1f-88"}, {"reasons": {"count": 0, "items": [{"summary": "This spot is popular", "type": "general", "reasonName": "globalInteractionReason"}]}, "venue": {"id": "4bf3d0696a31d13aa9fa942e", "name": "OM Restaurant", "location": {"address": "Kirchstra\u00dfe 16", "lat": 52.52256067608402, "lng": 13.348778072604672, "labeledLatLngs": [{"label": "display", "lat": 52.52256067608402, "lng": 13.348778072604672}], "distance": 605, "postalCode": "10557", "cc": "DE", "city": "Berlin", "state": "Berlin", "country": "Deutschland", "formattedAddress": ["Kirchstra\u00dfe 16", "10557 Berlin", "Deutschland"]}, "categories": [{"id": "4bf58dd8d48988d10f941735", "name": "Indian Restaurant", "pluralName": "Indian Restaurants", "shortName": "Indian", "icon": {"prefix": "https://ss3.4sqi.net/img/categories_v2/food/indian_", "suffix": ".png"}, "primary": true}], "photos": {"count": 0, "groups": []}}, "referralId": "e-0-4bf3d0696a31d13aa9fa942e-89"}, {"reasons": {"count": 0, "items": [{"summary": "This spot is popular", "type": "general", "reasonName": "globalInteractionReason"}]}, "venue": {"id": "4b5049e1f964a520d31f27e3", "name": "Starbucks", "location": {"address": "Washingtonplatz", "lat": 52.52449871855808, "lng": 13.369771242141724, "labeledLatLngs": [{"label": "display", "lat": 52.52449871855808, "lng": 13.369771242141724}], "distance": 997, "postalCode": "10557", "cc": "DE", "city": "Berlin", "state": "Berlin", "country": "Deutschland", "formattedAddress": ["Washingtonplatz", "10557 Berlin", "Deutschland"]}, "categories": [{"id": "4bf58dd8d48988d1e0931735", "name": "Coffee Shop", "pluralName": "Coffee Shops", "shortName": "Coffee Shop", "icon": {"prefix": "https://ss3.4sqi.net/img/categories_v2/food/coffeeshop_", "suffix": ".png"}, "primary": true}], "photos": {"count": 0, "groups": []}}, "referralId": "e-0-4b5049e1f964a520d31f27e3-90"}, {"reasons": {"count": 0, "items": [{"summary": "This spot is popular", "type": "general", "reasonName": "globalInteractionReason"}]}, "venue": {"id": "574055a5cd10a3bfc7bc8fd4", "name": "Einstein Kaffee", "location": {"address": "Europaplatz 1", "lat": 52.525686482305446, "lng": 13.36897503829965, "labeledLatLngs": [{"label": "display", "lat": 52.525686482305446, "lng": 13.36897503829965}], "distance": 926, "postalCode": "10557", "cc": "DE", "neighborhood": "Mitte", "city": "Berlin", "state": "Berlin", "country": "Deutschland", "formattedAddress": ["Europaplatz 1", "10557 Berlin", "Deutschland"]}, "categories": [{"id": "4bf58dd8d48988d1e0931735", "name": "Coffee Shop", "pluralName": "Coffee Shops", "shortName": "Coffee Shop", "icon": {"prefix": "https://ss3.4sqi.net/img/categories_v2/food/coffeeshop_", "suffix": ".png"}, "primary": true}], "photos": {"count": 0, "groups": []}}, "referralId": "e-0-574055a5cd10a3bfc7bc8fd4-91"}, {"reasons": {"count": 0, "items": [{"summary": "This spot is popular", "type": "general", "reasonName": "globalInteractionReason"}]}, "venue": {"id": "5bd8438a46e1b6002c9723e8", "name": "H&M", "location": {"address": "Stromstr. 14", "crossStreet": "Turmstr.", "lat": 52.52666, "lng": 13.344765, "labeledLatLngs": [{"label": "display", "lat": 52.52666, "lng": 13.344765}], "distance": 716, "postalCode": "10551", "cc": "DE", "city": "Berlin", "state": "Berlin", "country": "Deutschland", "formattedAddress": ["Stromstr. 14 (Turmstr.)", "10551 Berlin", "Deutschland"]}, "categories": [{"id": "4bf58dd8d48988d103951735", "name": "Clothing Store", "pluralName": "Clothing Stores", "shortName": "Apparel", "icon": {"prefix": "https://ss3.4sqi.net/img/categories_v2/shops/apparel_", "suffix": ".png"}, "primary": true}], "photos": {"count": 0, "groups": []}}, "referralId": "e-0-5bd8438a46e1b6002c9723e8-92"}, {"reasons": {"count": 0, "items": [{"summary": "This spot is popular", "type": "general", "reasonName": "globalInteractionReason"}]}, "venue": {"id": "4d7a66c17451236aaf32e1fe", "name": "McConell's Obsttresen", "location": {"address": "Europaplatz 1", "lat": 52.52504542122495, "lng": 13.36944154087493, "labeledLatLngs": [{"label": "display", "lat": 52.52504542122495, "lng": 13.36944154087493}], "distance": 965, "postalCode": "10557", "cc": "DE", "city": "Berlin", "state": "Berlin", "country": "Deutschland", "formattedAddress": ["Europaplatz 1", "10557 Berlin", "Deutschland"]}, "categories": [{"id": "4bf58dd8d48988d112941735", "name": "Juice Bar", "pluralName": "Juice Bars", "shortName": "Juice Bar", "icon": {"prefix": "https://ss3.4sqi.net/img/categories_v2/food/juicebar_", "suffix": ".png"}, "primary": true}], "photos": {"count": 0, "groups": []}}, "referralId": "e-0-4d7a66c17451236aaf32e1fe-93"}, {"reasons": {"count": 0, "items": [{"summary": "This spot is popular", "type": "general", "reasonName": "globalInteractionReason"}]}, "venue": {"id": "5178cedbe4b07abcffadc5ac", "name": "C&A", "location": {"address": "Turmstr. 28", "lat": 52.52648278228487, "lng": 13.34144455871979, "labeledLatLngs": [{"label": "display", "lat": 52.52648278228487, "lng": 13.34144455871979}], "distance": 940, "postalCode": "10551", "cc": "DE", "city": "Berlin", "state": "Berlin", "country": "Deutschland", "formattedAddress": ["Turmstr. 28", "10551 Berlin", "Deutschland"]}, "categories": [{"id": "4bf58dd8d48988d103951735", "name": "Clothing Store", "pluralName": "Clothing Stores", "shortName": "Apparel", "icon": {"prefix": "https://ss3.4sqi.net/img/categories_v2/shops/apparel_", "suffix": ".png"}, "primary": true}], "photos": {"count": 0, "groups": []}}, "referralId": "e-0-5178cedbe4b07abcffadc5ac-94"}, {"reasons": {"count": 0, "items": [{"summary": "This spot is popular", "type": "general", "reasonName": "globalInteractionReason"}]}, "venue": {"id": "4ca47303a73cb60c35fa2078", "name": "Relay", "location": {"address": "Europaplatz 1", "crossStreet": "EG", "lat": 52.52513352531256, "lng": 13.369337827060532, "labeledLatLngs": [{"label": "display", "lat": 52.52513352531256, "lng": 13.369337827060532}], "distance": 956, "postalCode": "10557", "cc": "DE", "city": "Berlin", "state": "Berlin", "country": "Deutschland", "formattedAddress": ["Europaplatz 1 (EG)", "10557 Berlin", "Deutschland"]}, "categories": [{"id": "4f04ad622fb6e1c99f3db0b9", "name": "Newsstand", "pluralName": "Newsstands", "shortName": "Newsstand", "icon": {"prefix": "https://ss3.4sqi.net/img/categories_v2/shops/newsstand_", "suffix": ".png"}, "primary": true}], "photos": {"count": 0, "groups": []}}, "referralId": "e-0-4ca47303a73cb60c35fa2078-95"}, {"reasons": {"count": 0, "items": [{"summary": "This spot is popular", "type": "general", "reasonName": "globalInteractionReason"}]}, "venue": {"id": "5183e852498e578a4b901ebc", "name": "Viet Snack\u2018s", "location": {"address": "Alt-Moabit 128", "lat": 52.52438735565754, "lng": 13.35014023305691, "labeledLatLngs": [{"label": "display", "lat": 52.52438735565754, "lng": 13.35014023305691}], "distance": 408, "cc": "DE", "city": "Berlin", "state": "Berlin", "country": "Deutschland", "formattedAddress": ["Alt-Moabit 128", "Berlin", "Deutschland"]}, "categories": [{"id": "4bf58dd8d48988d14a941735", "name": "Vietnamese Restaurant", "pluralName": "Vietnamese Restaurants", "shortName": "Vietnamese", "icon": {"prefix": "https://ss3.4sqi.net/img/categories_v2/food/vietnamese_", "suffix": ".png"}, "primary": true}], "photos": {"count": 0, "groups": []}}, "referralId": "e-0-5183e852498e578a4b901ebc-96"}, {"reasons": {"count": 0, "items": [{"summary": "This spot is popular", "type": "general", "reasonName": "globalInteractionReason"}]}, "venue": {"id": "57b8a7a0498e684790344d8a", "name": "Hans im Gl\u00fcck - Burgergrill", "location": {"address": "Europaplatz 1", "lat": 52.525287, "lng": 13.369969, "labeledLatLngs": [{"label": "display", "lat": 52.525287, "lng": 13.369969}], "distance": 997, "postalCode": "10557", "cc": "DE", "city": "Berlin", "state": "Berlin", "country": "Deutschland", "formattedAddress": ["Europaplatz 1", "10557 Berlin", "Deutschland"]}, "categories": [{"id": "4bf58dd8d48988d16c941735", "name": "Burger Joint", "pluralName": "Burger Joints", "shortName": "Burgers", "icon": {"prefix": "https://ss3.4sqi.net/img/categories_v2/food/burger_", "suffix": ".png"}, "primary": true}], "photos": {"count": 0, "groups": []}}, "referralId": "e-0-57b8a7a0498e684790344d8a-97"}, {"reasons": {"count": 0, "items": [{"summary": "This spot is popular", "type": "general", "reasonName": "globalInteractionReason"}]}, "venue": {"id": "4dda6caeae60680f154d600a", "name": "Kleiner Tiergarten", "location": {"address": "Turmstr.", "crossStreet": "Alt-Moabit", "lat": 52.52564684229104, "lng": 13.343458390377009, "labeledLatLngs": [{"label": "display", "lat": 52.52564684229104, "lng": 13.343458390377009}], "distance": 806, "postalCode": "10551", "cc": "DE", "city": "Berlin", "state": "Berlin", "country": "Deutschland", "formattedAddress": ["Turmstr. (Alt-Moabit)", "10551 Berlin", "Deutschland"]}, "categories": [{"id": "4bf58dd8d48988d163941735", "name": "Park", "pluralName": "Parks", "shortName": "Park", "icon": {"prefix": "https://ss3.4sqi.net/img/categories_v2/parks_outdoors/park_", "suffix": ".png"}, "primary": true}], "photos": {"count": 0, "groups": []}}, "referralId": "e-0-4dda6caeae60680f154d600a-98"}, {"reasons": {"count": 0, "items": [{"summary": "This spot is popular", "type": "general", "reasonName": "globalInteractionReason"}]}, "venue": {"id": "4dda7aabc65bee535afa1719", "name": "EDEKA", "location": {"address": "Stendaler Str. 1", "lat": 52.53267759752269, "lng": 13.35032625265985, "labeledLatLngs": [{"label": "display", "lat": 52.53267759752269, "lng": 13.35032625265985}], "distance": 790, "postalCode": "10559", "cc": "DE", "city": "Berlin", "state": "Berlin", "country": "Deutschland", "formattedAddress": ["Stendaler Str. 1", "10559 Berlin", "Deutschland"]}, "categories": [{"id": "52f2ab2ebcbc57f1066b8b46", "name": "Supermarket", "pluralName": "Supermarkets", "shortName": "Supermarket", "icon": {"prefix": "https://ss3.4sqi.net/img/categories_v2/shops/food_grocery_", "suffix": ".png"}, "primary": true}], "photos": {"count": 0, "groups": []}}, "referralId": "e-0-4dda7aabc65bee535afa1719-99"}]