[{"reasons": {"count": 0, "items": [{"summary": "This spot is popular", "type": "general", "reasonName": "globalInteractionReason"}]}, "venue": {"id": "4b601d57f964a52047d629e3", "name": "Stadtbad M\u00e4rkisches Viertel", "location": {"address": "Wilhelmsruher Damm 142 D", "lat": 52.59856795099607, "lng": 13.353178726635974, "labeledLatLngs": [{"label": "display", "lat": 52.59856795099607, "lng": 13.353178726635974}], "distance": 191, "postalCode": "13439", "cc": "DE", "city": "Berlin", "state": "Berlin", "country": "Deutschland", "formattedAddress": ["Wilhelmsruher Damm 142 D", "13439 Berlin", "Deutschland"]}, "categories": [{"id": "4bf58dd8d48988d15e941735", "name": "Pool", "pluralName": "Pools", "shortName": "Pool", "icon": {"prefix": "https://ss3.4sqi.net/img/categories_v2/parks_outdoors/pool_", "suffix": ".png"}, "primary": true}], "photos": {"count": 0, "groups": []}}, "referralId": "e-0-4b601d57f964a52047d629e3-0"}, {"reasons": {"count": 0, "items": [{"summary": "This spot is popular", "type": "general", "reasonName": "globalInteractionReason"}]}, "venue": {"id": "4adcda71f964a520124521e3", "name": "Hotel Rheinsberg am See", "location": {"address": "Finsterwalder Str. 64", "lat": 52.6024115168563, "lng": 13.348393517735508, "labeledLatLngs": [{"label": "display", "lat": 52.6024115168563, "lng": 13.348393517735508}], "distance": 620, "postalCode": "13435", "cc": "DE", "city": "Berlin", "state": "Berlin", "country": "Deutschland", "formattedAddress": ["Finsterwalder Str. 64", "13435 Berlin", "Deutschland"]}, "categories": [{"id": "4bf58dd8d48988d1fa931735", "name": "Hotel", "pluralName": "Hotels", "shortName": "Hotel", "icon": {"prefix": "https://ss3.4sqi.net/img/categories_v2/travel/hotel_", "suffix": ".png"}, "primary": true}], "photos": {"count": 0, "groups": []}}, "referralId": "e-0-4adcda71f964a520124521e3-1"}, {"reasons": {"count": 0, "items": [{"summary": "This spot is popular", "type": "general", "reasonName": "globalInteractionReason"}]}, "venue": {"id": "4d4c07ecfe85a1cd06b098bf", "name": "Saturn", "location": {"address": "Senftenberger Ring 15-17", "lat": 52.59931, "lng": 13.35432, "labeledLatLngs": [{"label": "display", "lat": 52.59931, "lng": 13.35432}], "distance": 104, "postalCode": "13439", "cc": "DE", "city": "Berlin", "state": "Berlin", "country": "Deutschland", "formattedAddress": ["Senftenberger Ring 15-17", "13439 Berlin", "Deutschland"]}, "categories": [{"id": "4bf58dd8d48988d122951735", "name": "Electronics Store", "pluralName": "Electronics Stores", "shortName": "Electronics", "icon": {"prefix": "https://ss3.4sqi.net/img/categories_v2/shops/technology_", "suffix": ".png"}, "primary": true}], "photos": {"count": 0, "groups": []}}, "referralId": "e-0-4d4c07ecfe85a1cd06b098bf-2"}, {"reasons": {"count": 0, "items": [{"summary": "This spot is popular", "type": "general", "reasonName": "globalInteractionReason"}]}, "venue": {"id": "4bb06f2bf964a5206d453ce3", "name": "Fitness First", "location": {"address": "Wilhelmsruher Damm 128", "lat": 52.59857640687269, "lng": 13.35483206740173, "labeledLatLngs": [{"label": "display", "lat": 52.59857640687269, "lng": 13.35483206740173}], "distance": 94, "postalCode": "13439", "cc": "DE", "city": "Berlin", "state": "Berlin", "country": "Deutschland", "formattedAddress": ["Wilhelmsruher Damm 128", "13439 Berlin", "Deutschland"]}, "categories": [{"id": "4bf58dd8d48988d175941735", "name": "Gym / Fitness Center", "pluralName": "Gyms or Fitness Centers", "shortName": "Gym / Fitness", "icon": {"prefix": "https://ss3.4sqi.net/img/categories_v2/building/gym_", "suffix": ".png"}, "primary": true}], "photos": {"count": 0, "groups": []}}, "referralId": "e-0-4bb06f2bf964a5206d453ce3-3"}, {"reasons": {"count": 0, "items": [{"summary": "This spot is popular", "type": "general", "reasonName": "globalInteractionReason"}]}, "venue": {"id": "4bab9667f964a520a0b63ae3", "name": "Castell", "location": {"address": "Teschendorfer Weg 6", "lat": 52.593759947518166, "lng": 13.357211294953665, "labeledLatLngs": [{"label": "display", "lat": 52.593759947518166, "lng": 13.357211294953665}], "distance": 608, "postalCode": "13439", "cc": "DE", "city": "Berlin", "state": "Berlin", "country": "Deutschland", "formattedAddress": ["Teschendorfer Weg 6", "13439 Berlin", "Deutschland"]}, "categories": [{"id": "4bf58dd8d48988d1c4941735", "name": "Restaurant", "pluralName": "Restaurants", "shortName": "Restaurant", "icon": {"prefix": "https://ss3.4sqi.net/img/categories_v2/food/default_", "suffix": ".png"}, "primary": true}], "photos": {"count": 0, "groups": []}}, "referralId": "e-0-4bab9667f964a520a0b63ae3-4"}, {"reasons": {"count": 0, "items": [{"summary": "This spot is popular", "type": "general", "reasonName": "globalInteractionReason"}]}, "venue": {"id": "4e21e8e022717a5245d00918", "name": "Ristorante Capitano", "location": {"address": "Eichhorster Weg 9", "lat": 52.59732293201705, "lng": 13.346083317619776, "labeledLatLngs": [{"label": "display", "lat": 52.59732293201705, "lng": 13.346083317619776}], "distance": 690, "postalCode": "13435", "cc": "DE", "city": "Berlin", "state": "Berlin", "country": "Deutschland", "formattedAddress": ["Eichhorster Weg 9", "13435 Berlin", "Deutschland"]}, "categories": [{"id": "4bf58dd8d48988d110941735", "name": "Italian Restaurant", "pluralName": "Italian Restaurants", "shortName": "Italian", "icon": {"prefix": "https://ss3.4sqi.net/img/categories_v2/food/italian_", "suffix": ".png"}, "primary": true}], "photos": {"count": 0, "groups": []}}, "referralId": "e-0-4e21e8e022717a5245d00918-5"}, {"reasons": {"count": 0, "items": [{"summary": "This spot is popular", "type": "general", "reasonName": "globalInteractionReason"}]}, "venue": {"id": "4bc0836d920eb7133dff182c", "name": "Indoor BeachCenter", "location": {"address": "K\u00f6nigshorster Str. 11-13", "lat": 52.59945365334757, "lng": 13.348680524299407, "labeledLatLngs": [{"label": "display", "lat": 52.59945365334757, "lng": 13.348680524299407}], "distance": 485, "postalCode": "13439", "cc": "DE", "city": "Berlin", "state": "Berlin", "country": "Deutschland", "formattedAddress": ["K\u00f6nigshorster Str. 11-13", "13439 Berlin", "Deutschland"]}, "categories": [{"id": "4eb1bf013b7b6f98df247e07", "name": "Volleyball Court", "pluralName": "Volleyball Courts", "shortName": "Volleyball Court", "icon": {"prefix": "https://ss3.4sqi.net/img/categories_v2/parks_outdoors/volleyballcourt_", "suffix": ".png"}, "primary": true}], "photos": {"count": 0, "groups": []}}, "referralId": "e-0-4bc0836d920eb7133dff182c-6"}, {"reasons": {"count": 0, "items": [{"summary": "This spot is popular", "type": "general", "reasonName": "globalInteractionReason"}]}, "venue": {"id": "4bb2496fa32876b04c6500fe", "name": "Deutsche Bank Filiale", "location": {"address": "Wilhelmsruher Damm 130-132", "lat": 52.59693873606619, "lng": 13.355329973628045, "labeledLatLngs": [{"label": "display", "lat": 52.59693873606619, "lng": 13.355329973628045}], "distance": 249, "postalCode": "13439", "cc": "DE", "city": "Berlin", "state": "Berlin", "country": "Deutschland", "formattedAddress": ["Wilhelmsruher Damm 130-132", "13439 Berlin", "Deutschland"]}, "categories": [{"id": "4bf58dd8d48988d10a951735", "name": "Bank", "pluralName": "Banks", "shortName": "Bank", "icon": {"prefix": "https://ss3.4sqi.net/img/categories_v2/shops/financial_", "suffix": ".png"}, "primary": true}], "photos": {"count": 0, "groups": []}}, "referralId": "e-0-4bb2496fa32876b04c6500fe-7"}, {"reasons": {"count": 0, "items": [{"summary": "This spot is popular", "type": "general", "reasonName": "globalInteractionReason"}]}, "venue": {"id": "4ba9b1ddf964a520aa343ae3", "name": "Gartencenter Holland", "location": {"address": "Wilhelmsruher Damm 61\u201363", "lat": 52.59703206817477, "lng": 13.366790053072108, "labeledLatLngs": [{"label": "display", "lat": 52.59703206817477, "lng": 13.366790053072108}], "distance": 777, "postalCode": "13439", "cc": "DE", "city": "Berlin", "state": "Berlin", "country": "Deutschland", "formattedAddress": ["Wilhelmsruher Damm 61\u201363", "13439 Berlin", "Deutschland"]}, "categories": [{"id": "4eb1c0253b7b52c0e1adc2e9", "name": "Garden Center", "pluralName": "Garden Centers", "shortName": "Garden Center", "icon": {"prefix": "https://ss3.4sqi.net/img/categories_v2/parks_outdoors/gardencenter_", "suffix": ".png"}, "primary": true}], "photos": {"count": 0, "groups": []}}, "referralId": "e-0-4ba9b1ddf964a520aa343ae3-8"}, {"reasons": {"count": 0, "items": [{"summary": "This spot is popular", "type": "general", "reasonName": "globalInteractionReason"}]}, "venue": {"id": "4c2f67ef66e40f4731cfc18b", "name": "Little Italy", "location": {"address": "Wilhelmsruher Damm 148", "lat": 52.596760221436774, "lng": 13.351510123230128, "labeledLatLngs": [{"label": "display", "lat": 52.596760221436774, "lng": 13.351510123230128}], "distance": 396, "postalCode": "13439", "cc": "DE", "city": "Berlin", "state": "Berlin", "country": "Deutschland", "formattedAddress": ["Wilhelmsruher Damm 148", "13439 Berlin", "Deutschland"]}, "categories": [{"id": "4bf58dd8d48988d110941735", "name": "Italian Restaurant", "pluralName": "Italian Restaurants", "shortName": "Italian", "icon": {"prefix": "https://ss3.4sqi.net/img/categories_v2/food/italian_", "suffix": ".png"}, "primary": true}], "photos": {"count": 0, "groups": []}}, "referralId": "e-0-4c2f67ef66e40f4731cfc18b-9"}, {"reasons": {"count": 0, "items": [{"summary": "This spot is popular", "type": "general", "reasonName": "globalInteractionReason"}]}, "venue": {"id": "56cc3308cd1027007e016435", "name": "Crunch Fit", "location": {"address": "Wilhelmsruher Damm 128", "lat": 52.596826542917434, "lng": 13.355248529838718, "labeledLatLngs": [{"label": "display", "lat": 52.596826542917434, "lng": 13.355248529838718}], "distance": 262, "postalCode": "13439", "cc": "DE", "city": "Berlin", "state": "Berlin", "country": "Deutschland", "formattedAddress": ["Wilhelmsruher Damm 128", "13439 Berlin", "Deutschland"]}, "categories": [{"id": "4bf58dd8d48988d176941735", "name": "Gym", "pluralName": "Gyms", "shortName": "Gym", "icon": {"prefix": "https://ss3.4sqi.net/img/categories_v2/building/gym_", "suffix": ".png"}, "primary": true}], "photos": {"count": 0, "groups": []}}, "referralId": "e-0-56cc3308cd1027007e016435-10"}, {"reasons": {"count": 0, "items": [{"summary": "This spot is popular", "type": "general", "reasonName": "globalInteractionReason"}]}, "venue": {"id": "4d4d67f680cb6dcbff9e0f01", "name": "American Western Saloon", "location": {"address": "Wilhelmsruher Damm 142c", "lat": 52.59761678079617, "lng": 13.352590962060049, "labeledLatLngs": [{"label": "display", "lat": 52.59761678079617, "lng": 13.352590962060049}], "distance": 279, "postalCode": "13439", "cc": "DE", "city": "Berlin", "state": "Berlin", "country": "Deutschland", "formattedAddress": ["Wilhelmsruher Damm 142c", "13439 Berlin", "Deutschland"]}, "categories": [{"id": "4bf58dd8d48988d14e941735", "name": "American Restaurant", "pluralName": "American Restaurants", "shortName": "American", "icon": {"prefix": "https://ss3.4sqi.net/img/categories_v2/food/default_", "suffix": ".png"}, "primary": true}], "photos": {"count": 0, "groups": []}}, "referralId": "e-0-4d4d67f680cb6dcbff9e0f01-11"}, {"reasons": {"count": 0, "items": [{"summary": "This spot is popular", "type": "general", "reasonName": "globalInteractionReason"}]}, "venue": {"id": "4cd2d093d5d7a1cd5b5d7a66", "name": "Theaterkasse Im M\u00e4rkischen Zentrum", "location": {"address": "Senftenberger ring 1-3", "lat": 52.59800067840375, "lng": 13.355248571556103, "labeledLatLngs": [{"label": "display", "lat": 52.59800067840375, "lng": 13.355248571556103}], "distance": 135, "postalCode": "13439", "cc": "DE", "city": "Berlin", "state": "Berlin", "country": "Deutschland", "formattedAddress": ["Senftenberger ring 1-3", "13439 Berlin", "Deutschland"]}, "categories": [{"id": "4bf58dd8d48988d128951735", "name": "Gift Shop", "pluralName": "Gift Shops", "shortName": "Gift Shop", "icon": {"prefix": "https://ss3.4sqi.net/img/categories_v2/shops/giftshop_", "suffix": ".png"}, "primary": true}], "photos": {"count": 0, "groups": []}, "venuePage": {"id": "43734583"}}, "referralId": "e-0-4cd2d093d5d7a1cd5b5d7a66-12"}, {"reasons": {"count": 0, "items": [{"summary": "This spot is popular", "type": "general", "reasonName": "globalInteractionReason"}]}, "venue": {"id": "4b8e7691f964a520e92333e3", "name": "M\u00e4rkische Zeile Berlin", "location": {"address": "Senftenberger Ring 17", "lat": 52.59909867036786, "lng": 13.354791104793549, "labeledLatLngs": [{"label": "display", "lat": 52.59909867036786, "lng": 13.354791104793549}], "distance": 71, "postalCode": "13439", "cc": "DE", "city": "Berlin", "state": "Berlin", "country": "Deutschland", "formattedAddress": ["Senftenberger Ring 17", "13439 Berlin", "Deutschland"]}, "categories": [{"id": "4bf58dd8d48988d1fd941735", "name": "Shopping Mall", "pluralName": "Shopping Malls", "shortName": "Mall", "icon": {"prefix": "https://ss3.4sqi.net/img/categories_v2/shops/mall_", "suffix": ".png"}, "primary": true}], "photos": {"count": 0, "groups": []}}, "referralId": "e-0-4b8e7691f964a520e92333e3-13"}, {"reasons": {"count": 0, "items": [{"summary": "This spot is popular", "type": "general", "reasonName": "globalInteractionReason"}]}, "venue": {"id": "56787cf6498e5c3e8405919a", "name": "Jump Berlin", "location": {"address": "K\u00f6nigshorster Str. 11-13", "lat": 52.59952876186923, "lng": 13.348721265792847, "labeledLatLngs": [{"label": "display", "lat": 52.59952876186923, "lng": 13.348721265792847}], "distance": 483, "postalCode": "13439", "cc": "DE", "city": "Berlin", "state": "Berlin", "country": "Deutschland", "formattedAddress": ["K\u00f6nigshorster Str. 11-13", "13439 Berlin", "Deutschland"]}, "categories": [{"id": "4f4528bc4b90abdf24c9de85", "name": "Athletics & Sports", "pluralName": "Athletics & Sports", "shortName": "Athletics & Sports", "icon": {"prefix": "https://ss3.4sqi.net/img/categories_v2/shops/sports_outdoors_", "suffix": ".png"}, "primary": true}], "photos": {"count": 0, "groups": []}}, "referralId": "e-0-56787cf6498e5c3e8405919a-14"}, {"reasons": {"count": 0, "items": [{"summary": "This spot is popular", "type": "general", "reasonName": "globalInteractionReason"}]}, "venue": {"id": "4bb71a6f941ad13a314a20e3", "name": "Lidl", "location": {"address": "Quickborner Stra\u00dfe 66-70", "lat": 52.60400537267696, "lng": 13.368038535118103, "labeledLatLngs": [{"label": "display", "lat": 52.60400537267696, "lng": 13.368038535118103}], "distance": 985, "postalCode": "13439", "cc": "DE", "city": "Berlin", "state": "Berlin", "country": "Deutschland", "formattedAddress": ["Quickborner Stra\u00dfe 66-70", "13439 Berlin-Reinickendorf", "Deutschland"]}, "categories": [{"id": "52f2ab2ebcbc57f1066b8b46", "name": "Supermarket", "pluralName": "Supermarkets", "shortName": "Supermarket", "icon": {"prefix": "https://ss3.4sqi.net/img/categories_v2/shops/food_grocery_", "suffix": ".png"}, "primary": true}], "photos": {"count": 0, "groups": []}, "venuePage": {"id": "575267414"}}, "referralId": "e-0-4bb71a6f941ad13a314a20e3-15"}, {"reasons": {"count": 0, "items": [{"summary": "This spot is popular", "type": "general", "reasonName": "globalInteractionReason"}]}, "venue": {"id": "4d986d07e07ea35d424ff102", "name": "Flamingo Ballpark", "location": {"address": "K\u00f6nigshorster Str.", "lat": 52.59984472187908, "lng": 13.349864890682321, "labeledLatLngs": [{"label": "display", "lat": 52.59984472187908, "lng": 13.349864890682321}], "distance": 411, "postalCode": "13435", "cc": "DE", "city": "Berlin", "state": "Berlin", "country": "Deutschland", "formattedAddress": ["K\u00f6nigshorster Str.", "13435 Berlin", "Deutschland"]}, "categories": [{"id": "4bf58dd8d48988d1e8941735", "name": "Baseball Field", "pluralName": "Baseball Fields", "shortName": "Baseball Field", "icon": {"prefix": "https://ss3.4sqi.net/img/categories_v2/parks_outdoors/baseballfield_", "suffix": ".png"}, "primary": true}], "photos": {"count": 0, "groups": []}}, "referralId": "e-0-4d986d07e07ea35d424ff102-16"}, {"reasons": {"count": 0, "items": [{"summary": "This spot is popular", "type": "general", "reasonName": "globalInteractionReason"}]}, "venue": {"id": "4bd73c7d304fce72c53f33ab", "name": "Hotel Garni Wilhelmsruher Damm Berlin", "location": {"address": "Wilhelmsruher Damm 166", "lat": 52.59702821381003, "lng": 13.346698707473788, "labeledLatLngs": [{"label": "display", "lat": 52.59702821381003, "lng": 13.346698707473788}], "distance": 662, "cc": "DE", "city": "Berlin", "state": "Berlin", "country": "Deutschland", "formattedAddress": ["Wilhelmsruher Damm 166", "Berlin", "Deutschland"]}, "categories": [{"id": "4bf58dd8d48988d1fa931735", "name": "Hotel", "pluralName": "Hotels", "shortName": "Hotel", "icon": {"prefix": "https://ss3.4sqi.net/img/categories_v2/travel/hotel_", "suffix": ".png"}, "primary": true}], "photos": {"count": 0, "groups": []}}, "referralId": "e-0-4bd73c7d304fce72c53f33ab-17"}, {"reasons": {"count": 0, "items": [{"summary": "This spot is popular", "type": "general", "reasonName": "globalInteractionReason"}]}, "venue": {"id": "4fede96fe4b0e7487e65a21e", "name": "Stadion Finsterwalder Stra\u00dfe", "location": {"address": "Finsterwalder Stra\u00dfe 58", "lat": 52.600978043003074, "lng": 13.345899250982313, "labeledLatLngs": [{"label": "display", "lat": 52.600978043003074, "lng": 13.345899250982313}], "distance": 702, "cc": "DE", "city": "Berlin", "state": "Berlin", "country": "Deutschland", "formattedAddress": ["Finsterwalder Stra\u00dfe 58", "Berlin", "Deutschland"]}, "categories": [{"id": "4cce455aebf7b749d5e191f5", "name": "Soccer Field", "pluralName": "Soccer Fields", "shortName": "Soccer Field", "icon": {"prefix": "https://ss3.4sqi.net/img/categories_v2/arts_entertainment/stadium_soccer_", "suffix": ".png"}, "primary": true}], "photos": {"count": 0, "groups": []}}, "referralId": "e-0-4fede96fe4b0e7487e65a21e-18"}, {"reasons": {"count": 0, "items": [{"summary": "This spot is popular", "type": "general", "reasonName": "globalInteractionReason"}]}, "venue": {"id": "4fdc8656e4b0767cc6d10b30", "name": "Seggeluchbecken", "location": {"lat": 52.60446480420801, "lng": 13.348119406572508, "labeledLatLngs": [{"label": "display", "lat": 52.60446480420801, "lng": 13.348119406572508}], "distance": 788, "cc": "DE", "city": "Berlin", "state": "Berlin", "country": "Deutschland", "formattedAddress": ["Berlin", "Deutschland"]}, "categories": [{"id": "4bf58dd8d48988d163941735", "name": "Park", "pluralName": "Parks", "shortName": "Park", "icon": {"prefix": "https://ss3.4sqi.net/img/categories_v2/parks_outdoors/park_", "suffix": ".png"}, "primary": true}], "photos": {"count": 0, "groups": []}}, "referralId": "e-0-4fdc8656e4b0767cc6d10b30-19"}, {"reasons": {"count": 0, "items": [{"summary": "This spot is popular", "type": "general", "reasonName": "globalInteractionReason"}]}, "venue": {"id": "501d0bede4b010b81ce05a5a", "name": "H Wilhelmsruher Damm", "location": {"address": "Wilhelmsruher Damm", "lat": 52.597307515300386, "lng": 13.367441325171967, "labeledLatLngs": [{"label": "display", "lat": 52.597307515300386, "lng": 13.367441325171967}], "distance": 810, "postalCode": "13439", "cc": "DE", "city": "Berlin", "state": "Berlin", "country": "Deutschland", "formattedAddress": ["Wilhelmsruher Damm", "13439 Berlin", "Deutschland"]}, "categories": [{"id": "52f2ab2ebcbc57f1066b8b4f", "name": "Bus Stop", "pluralName": "Bus Stops", "shortName": "Bus Stop", "icon": {"prefix": "https://ss3.4sqi.net/img/categories_v2/travel/busstation_", "suffix": ".png"}, "primary": true}], "photos": {"count": 0, "groups": []}}, "referralId": "e-0-501d0bede4b010b81ce05a5a-20"}, {"reasons": {"count": 0, "items": [{"summary": "This spot is popular", "type": "general", "reasonName": "globalInteractionReason"}]}, "venue": {"id": "4e7e26558b819546057f130d", "name": "Restaurant Dalmacija", "location": {"address": "Schorfheidestra\u00dfe 23", "lat": 52.593880698031626, "lng": 13.347499559705762, "labeledLatLngs": [{"label": "display", "lat": 52.593880698031626, "lng": 13.347499559705762}], "distance": 814, "cc": "DE", "city": "Berlin", "state": "Berlin", "country": "Deutschland", "formattedAddress": ["Schorfheidestra\u00dfe 23", "Berlin", "Deutschland"]}, "categories": [{"id": "4bf58dd8d48988d1c0941735", "name": "Mediterranean Restaurant", "pluralName": "Mediterranean Restaurants", "shortName": "Mediterranean", "icon": {"prefix": "https://ss3.4sqi.net/img/categories_v2/food/mediterranean_", "suffix": ".png"}, "primary": true}], "photos": {"count": 0, "groups": []}}, "referralId": "e-0-4e7e26558b819546057f130d-21"}, {"reasons": {"count": 0, "items": [{"summary": "This spot is popular", "type": "general", "reasonName": "globalInteractionReason"}]}, "venue": {"id": "4cf8d98c01568cfaec7822e7", "name": "A.T.U Berlin - Pankow - West", "location": {"address": "Wilhelmsruher Damm 23/25", "lat": 52.597048, "lng": 13.368587, "labeledLatLngs": [{"label": "display", "lat": 52.597048, "lng": 13.368587}], "distance": 893, "postalCode": "13158", "cc": "DE", "city": "Berlin", "state": "Berlin", "country": "Deutschland", "formattedAddress": ["Wilhelmsruher Damm 23/25", "13158 Berlin", "Deutschland"]}, "categories": [{"id": "4bf58dd8d48988d124951735", "name": "Automotive Shop", "pluralName": "Automotive Shops", "shortName": "Automotive", "icon": {"prefix": "https://ss3.4sqi.net/img/categories_v2/shops/automotive_", "suffix": ".png"}, "primary": true}], "photos": {"count": 0, "groups": []}}, "referralId": "e-0-4cf8d98c01568cfaec7822e7-22"}, {"reasons": {"count": 0, "items": [{"summary": "This spot is popular", "type": "general", "reasonName": "globalInteractionReason"}]}, "venue": {"id": "5e57cc50ae95a2000896cd0c", "name": "Sch\u00fcrmann Elektrotechnik", "location": {"address": "Dannenwalder Weg 90", "lat": 52.59142607, "lng": 13.34974417, "labeledLatLngs": [{"label": "display", "lat": 52.59142607, "lng": 13.34974417}], "distance": 954, "postalCode": "13439", "cc": "DE", "city": "Berlin", "state": "Berlin", "country": "Deutschland", "formattedAddress": ["Dannenwalder Weg 90", "13439 Berlin", "Deutschland"]}, "categories": [{"id": "545419b1498ea6ccd0202f58", "name": "Home Service", "pluralName": "Home Services & Repairs", "shortName": "Home Services", "icon": {"prefix": "https://ss3.4sqi.net/img/categories_v2/shops/hardware_", "suffix": ".png"}, "primary": true}], "photos": {"count": 0, "groups": []}}, "referralId": "e-0-5e57cc50ae95a2000896cd0c-23"}, {"reasons": {"count": 0, "items": [{"summary": "This spot is popular", "type": "general", "reasonName": "globalInteractionReason"}]}, "venue": {"id": "4e57c1f4d4c0fccb89adcd25", "name": "All In Bowling", "location": {"address": "Zerpenschleuser Ring 37", "lat": 52.6048393554713, "lng": 13.366724237340025, "labeledLatLngs": [{"label": "display", "lat": 52.6048393554713, "lng": 13.366724237340025}], "distance": 969, "postalCode": "13439", "cc": "DE", "city": "Berlin", "state": "Berlin", "country": "Deutschland", "formattedAddress": ["Zerpenschleuser Ring 37", "13439 Berlin", "Deutschland"]}, "categories": [{"id": "4bf58dd8d48988d1e4931735", "name": "Bowling Alley", "pluralName": "Bowling Alleys", "shortName": "Bowling Alley", "icon": {"prefix": "https://ss3.4sqi.net/img/categories_v2/arts_entertainment/bowling_", "suffix": ".png"}, "primary": true}], "photos": {"count": 0, "groups": []}}, "referralId": "e-0-4e57c1f4d4c0fccb89adcd25-24"}, {"reasons": {"count": 0, "items": [{"summary": "This spot is popular", "type": "general", "reasonName": "globalInteractionReason"}]}, "venue": {"id": "4b4b9a08f964a5209da126e3", "name": "Squash Tennis Center Nord", "location": {"address": "Treuenbrietzener Stra\u00dfe 36", "lat": 52.60222428123214, "lng": 13.36737496329903, "labeledLatLngs": [{"label": "display", "lat": 52.60222428123214, "lng": 13.36737496329903}], "distance": 850, "postalCode": "13439", "cc": "DE", "city": "Berlin", "state": "Berlin", "country": "Deutschland", "formattedAddress": ["Treuenbrietzener Stra\u00dfe 36", "13439 Berlin", "Deutschland"]}, "categories": [{"id": "4f4528bc4b90abdf24c9de85", "name": "Athletics & Sports", "pluralName": "Athletics & Sports", "shortName": "Athletics & Sports", "icon": {"prefix": "https://ss3.4sqi.net/img/categories_v2/shops/sports_outdoors_", "suffix": ".png"}, "primary": true}], "photos": {"count": 0, "groups": []}}, "referralId": "e-0-4b4b9a08f964a5209da126e3-25"}]