[{"reasons": {"count": 0, "items": [{"summary": "This spot is popular", "type": "general", "reasonName": "globalInteractionReason"}]}, "venue": {"id": "4d77fd09a7e6b1f7170c2edf", "name": "Kaufland", "location": {"address": "Eichhorster Weg 96", "lat": 52.60338675158374, "lng": 13.334950181222244, "labeledLatLngs": [{"label": "display", "lat": 52.60338675158374, "lng": 13.334950181222244}], "distance": 116, "postalCode": "13435", "cc": "DE", "city": "Berlin", "state": "Berlin", "country": "Deutschland", "formattedAddress": ["Eichhorster Weg 96", "13435 Berlin", "Deutschland"]}, "categories": [{"id": "52f2ab2ebcbc57f1066b8b42", "name": "Big Box Store", "pluralName": "Big Box Stores", "shortName": "Big Box Store", "icon": {"prefix": "https://ss3.4sqi.net/img/categories_v2/shops/default_", "suffix": ".png"}, "primary": true}], "photos": {"count": 0, "groups": []}, "venuePage": {"id": "455815101"}}, "referralId": "e-0-4d77fd09a7e6b1f7170c2edf-0"}, {"reasons": {"count": 0, "items": [{"summary": "This spot is popular", "type": "general", "reasonName": "globalInteractionReason"}]}, "venue": {"id": "4baa3160f964a5200c523ae3", "name": "Aanjal", "location": {"address": "Oranienburger Str. 92", "lat": 52.596624, "lng": 13.333004, "labeledLatLngs": [{"label": "display", "lat": 52.596624, "lng": 13.333004}], "distance": 880, "postalCode": "13437", "cc": "DE", "city": "Berlin", "state": "Berlin", "country": "Deutschland", "formattedAddress": ["Oranienburger Str. 92", "13437 Berlin", "Deutschland"]}, "categories": [{"id": "4bf58dd8d48988d10f941735", "name": "Indian Restaurant", "pluralName": "Indian Restaurants", "shortName": "Indian", "icon": {"prefix": "https://ss3.4sqi.net/img/categories_v2/food/indian_", "suffix": ".png"}, "primary": true}], "photos": {"count": 0, "groups": []}}, "referralId": "e-0-4baa3160f964a5200c523ae3-1"}, {"reasons": {"count": 0, "items": [{"summary": "This spot is popular", "type": "general", "reasonName": "globalInteractionReason"}]}, "venue": {"id": "54b69750498ea70cbd37c5b2", "name": "FitX", "location": {"address": "Oraniendamm 6", "lat": 52.6078393, "lng": 13.325294, "labeledLatLngs": [{"label": "display", "lat": 52.6078393, "lng": 13.325294}], "distance": 761, "postalCode": "13469", "cc": "DE", "city": "Berlin", "state": "Berlin", "country": "Deutschland", "formattedAddress": ["Oraniendamm 6", "13469 Berlin", "Deutschland"]}, "categories": [{"id": "4bf58dd8d48988d175941735", "name": "Gym / Fitness Center", "pluralName": "Gyms or Fitness Centers", "shortName": "Gym / Fitness", "icon": {"prefix": "https://ss3.4sqi.net/img/categories_v2/building/gym_", "suffix": ".png"}, "primary": true}], "photos": {"count": 0, "groups": []}}, "referralId": "e-0-54b69750498ea70cbd37c5b2-2"}, {"reasons": {"count": 0, "items": [{"summary": "This spot is popular", "type": "general", "reasonName": "globalInteractionReason"}]}, "venue": {"id": "4c531012728920a187407c80", "name": "Dionysos Griechisches Restaurant", "location": {"lat": 52.609899251510704, "lng": 13.3305853491882, "labeledLatLngs": [{"label": "display", "lat": 52.609899251510704, "lng": 13.3305853491882}], "distance": 679, "cc": "DE", "city": "Berlin", "state": "Berlin", "country": "Deutschland", "formattedAddress": ["Berlin", "Deutschland"]}, "categories": [{"id": "4bf58dd8d48988d10e941735", "name": "Greek Restaurant", "pluralName": "Greek Restaurants", "shortName": "Greek", "icon": {"prefix": "https://ss3.4sqi.net/img/categories_v2/food/greek_", "suffix": ".png"}, "primary": true}], "photos": {"count": 0, "groups": []}}, "referralId": "e-0-4c531012728920a187407c80-3"}, {"reasons": {"count": 0, "items": [{"summary": "This spot is popular", "type": "general", "reasonName": "globalInteractionReason"}]}, "venue": {"id": "4adcda71f964a520124521e3", "name": "Hotel Rheinsberg am See", "location": {"address": "Finsterwalder Str. 64", "lat": 52.6024115168563, "lng": 13.348393517735508, "labeledLatLngs": [{"label": "display", "lat": 52.6024115168563, "lng": 13.348393517735508}], "distance": 928, "postalCode": "13435", "cc": "DE", "city": "Berlin", "state": "Berlin", "country": "Deutschland", "formattedAddress": ["Finsterwalder Str. 64", "13435 Berlin", "Deutschland"]}, "categories": [{"id": "4bf58dd8d48988d1fa931735", "name": "Hotel", "pluralName": "Hotels", "shortName": "Hotel", "icon": {"prefix": "https://ss3.4sqi.net/img/categories_v2/travel/hotel_", "suffix": ".png"}, "primary": true}], "photos": {"count": 0, "groups": []}}, "referralId": "e-0-4adcda71f964a520124521e3-4"}, {"reasons": {"count": 0, "items": [{"summary": "This spot is popular", "type": "general", "reasonName": "globalInteractionReason"}]}, "venue": {"id": "4b813c90f964a5209c9b30e3", "name": "McFIT", "location": {"address": "Oraniendamm 64", "lat": 52.6073688, "lng": 13.3236019, "labeledLatLngs": [{"label": "display", "lat": 52.6073688, "lng": 13.3236019}], "distance": 841, "postalCode": "13469", "cc": "DE", "city": "Berlin", "state": "Berlin", "country": "Deutschland", "formattedAddress": ["Oraniendamm 64", "13469 Berlin", "Deutschland"]}, "categories": [{"id": "4bf58dd8d48988d175941735", "name": "Gym / Fitness Center", "pluralName": "Gyms or Fitness Centers", "shortName": "Gym / Fitness", "icon": {"prefix": "https://ss3.4sqi.net/img/categories_v2/building/gym_", "suffix": ".png"}, "primary": true}], "photos": {"count": 0, "groups": []}}, "referralId": "e-0-4b813c90f964a5209c9b30e3-5"}, {"reasons": {"count": 0, "items": [{"summary": "This spot is popular", "type": "general", "reasonName": "globalInteractionReason"}]}, "venue": {"id": "503fbd0b7e2752ec471b5575", "name": "Rossmann", "location": {"address": "Oraniendamm 6-10", "lat": 52.60760196866191, "lng": 13.32637310028076, "labeledLatLngs": [{"label": "display", "lat": 52.60760196866191, "lng": 13.32637310028076}], "distance": 685, "postalCode": "13469", "cc": "DE", "city": "Berlin", "state": "Berlin", "country": "Deutschland", "formattedAddress": ["Oraniendamm 6-10", "13469 Berlin", "Deutschland"]}, "categories": [{"id": "5745c2e4498e11e7bccabdbd", "name": "Drugstore", "pluralName": "Drugstores", "shortName": "Drugstore", "icon": {"prefix": "https://ss3.4sqi.net/img/categories_v2/shops/pharmacy_", "suffix": ".png"}, "primary": true}], "photos": {"count": 0, "groups": []}}, "referralId": "e-0-503fbd0b7e2752ec471b5575-6"}, {"reasons": {"count": 0, "items": [{"summary": "This spot is popular", "type": "general", "reasonName": "globalInteractionReason"}]}, "venue": {"id": "4e32aa751f6e2137f933d6b2", "name": "Ristorante Romano", "location": {"address": "Zabel-Kr\u00fcger-Damm 14", "lat": 52.60887628575854, "lng": 13.327025634262224, "labeledLatLngs": [{"label": "display", "lat": 52.60887628575854, "lng": 13.327025634262224}], "distance": 734, "postalCode": "13469", "cc": "DE", "city": "Berlin", "state": "Berlin", "country": "Deutschland", "formattedAddress": ["Zabel-Kr\u00fcger-Damm 14", "13469 Berlin", "Deutschland"]}, "categories": [{"id": "4bf58dd8d48988d110941735", "name": "Italian Restaurant", "pluralName": "Italian Restaurants", "shortName": "Italian", "icon": {"prefix": "https://ss3.4sqi.net/img/categories_v2/food/italian_", "suffix": ".png"}, "primary": true}], "photos": {"count": 0, "groups": []}}, "referralId": "e-0-4e32aa751f6e2137f933d6b2-7"}, {"reasons": {"count": 0, "items": [{"summary": "This spot is popular", "type": "general", "reasonName": "globalInteractionReason"}]}, "venue": {"id": "4b893c02f964a520e72432e3", "name": "OBI", "location": {"address": "Waidmannsluster Damm 190", "lat": 52.60648457961556, "lng": 13.322237133979797, "labeledLatLngs": [{"label": "display", "lat": 52.60648457961556, "lng": 13.322237133979797}], "distance": 896, "postalCode": "13469", "cc": "DE", "city": "Reinickendorf", "state": "Berlin", "country": "Deutschland", "formattedAddress": ["Waidmannsluster Damm 190", "13469 Berlin-Reinickendorf", "Deutschland"]}, "categories": [{"id": "4bf58dd8d48988d112951735", "name": "Hardware Store", "pluralName": "Hardware Stores", "shortName": "Hardware", "icon": {"prefix": "https://ss3.4sqi.net/img/categories_v2/shops/hardware_", "suffix": ".png"}, "primary": true}], "photos": {"count": 0, "groups": []}}, "referralId": "e-0-4b893c02f964a520e72432e3-8"}, {"reasons": {"count": 0, "items": [{"summary": "This spot is popular", "type": "general", "reasonName": "globalInteractionReason"}]}, "venue": {"id": "4d7a5e66cbaf54812b1bdc24", "name": "Burger King", "location": {"address": "Oraniendamm 6 - 10", "lat": 52.60683967135332, "lng": 13.324248790740967, "labeledLatLngs": [{"label": "display", "lat": 52.60683967135332, "lng": 13.324248790740967}], "distance": 778, "postalCode": "13469", "cc": "DE", "city": "Berlin", "state": "Berlin", "country": "Deutschland", "formattedAddress": ["Oraniendamm 6 - 10", "13469 Berlin", "Deutschland"]}, "categories": [{"id": "4bf58dd8d48988d16e941735", "name": "Fast Food Restaurant", "pluralName": "Fast Food Restaurants", "shortName": "Fast Food", "icon": {"prefix": "https://ss3.4sqi.net/img/categories_v2/food/fastfood_", "suffix": ".png"}, "primary": true}], "photos": {"count": 0, "groups": []}}, "referralId": "e-0-4d7a5e66cbaf54812b1bdc24-9"}, {"reasons": {"count": 0, "items": [{"summary": "This spot is popular", "type": "general", "reasonName": "globalInteractionReason"}]}, "venue": {"id": "4cd17272ad4cef3b27e89a4b", "name": "1.FC L\u00fcbars", "location": {"address": "Schluchseestr. 68", "lat": 52.607939266681974, "lng": 13.337507254269317, "labeledLatLngs": [{"label": "display", "lat": 52.607939266681974, "lng": 13.337507254269317}], "distance": 423, "postalCode": "13469", "cc": "DE", "city": "Berlin", "state": "Berlin", "country": "Deutschland", "formattedAddress": ["Schluchseestr. 68", "13469 Berlin", "Deutschland"]}, "categories": [{"id": "4cce455aebf7b749d5e191f5", "name": "Soccer Field", "pluralName": "Soccer Fields", "shortName": "Soccer Field", "icon": {"prefix": "https://ss3.4sqi.net/img/categories_v2/arts_entertainment/stadium_soccer_", "suffix": ".png"}, "primary": true}], "photos": {"count": 0, "groups": []}}, "referralId": "e-0-4cd17272ad4cef3b27e89a4b-10"}, {"reasons": {"count": 0, "items": [{"summary": "This spot is popular", "type": "general", "reasonName": "globalInteractionReason"}]}, "venue": {"id": "5079427ce4b00277f2f95cff", "name": "Getr\u00e4nke Hoffmann", "location": {"address": "Oranienburger Str. 114", "lat": 52.6014597, "lng": 13.3311332, "labeledLatLngs": [{"label": "display", "lat": 52.6014597, "lng": 13.3311332}], "distance": 424, "postalCode": "13437", "cc": "DE", "city": "Berlin", "state": "Berlin", "country": "Deutschland", "formattedAddress": ["Oranienburger Str. 114", "13437 Berlin", "Deutschland"]}, "categories": [{"id": "4bf58dd8d48988d186941735", "name": "Liquor Store", "pluralName": "Liquor Stores", "shortName": "Liquor Store", "icon": {"prefix": "https://ss3.4sqi.net/img/categories_v2/shops/food_liquor_", "suffix": ".png"}, "primary": true}], "photos": {"count": 0, "groups": []}}, "referralId": "e-0-5079427ce4b00277f2f95cff-11"}, {"reasons": {"count": 0, "items": [{"summary": "This spot is popular", "type": "general", "reasonName": "globalInteractionReason"}]}, "venue": {"id": "507d893be4b042be57e4150a", "name": "Sportplatz Schluchseestra\u00dfe", "location": {"lat": 52.607964727076705, "lng": 13.337739615339064, "labeledLatLngs": [{"label": "display", "lat": 52.607964727076705, "lng": 13.337739615339064}], "distance": 432, "cc": "DE", "city": "Berlin", "state": "Berlin", "country": "Deutschland", "formattedAddress": ["Berlin", "Deutschland"]}, "categories": [{"id": "4cce455aebf7b749d5e191f5", "name": "Soccer Field", "pluralName": "Soccer Fields", "shortName": "Soccer Field", "icon": {"prefix": "https://ss3.4sqi.net/img/categories_v2/arts_entertainment/stadium_soccer_", "suffix": ".png"}, "primary": true}], "photos": {"count": 0, "groups": []}}, "referralId": "e-0-507d893be4b042be57e4150a-12"}, {"reasons": {"count": 0, "items": [{"summary": "This spot is popular", "type": "general", "reasonName": "globalInteractionReason"}]}, "venue": {"id": "4e0441eaa8090c0936a060da", "name": "Bahlsen Fabrikverkauf", "location": {"address": "Oranienburger Str. 173", "lat": 52.599919750478996, "lng": 13.331501483917236, "labeledLatLngs": [{"label": "display", "lat": 52.599919750478996, "lng": 13.331501483917236}], "distance": 557, "postalCode": "13437", "cc": "DE", "city": "Berlin", "state": "Berlin", "country": "Deutschland", "formattedAddress": ["Oranienburger Str. 173", "13437 Berlin", "Deutschland"]}, "categories": [{"id": "4bf58dd8d48988d117951735", "name": "Candy Store", "pluralName": "Candy Stores", "shortName": "Candy Store", "icon": {"prefix": "https://ss3.4sqi.net/img/categories_v2/shops/candystore_", "suffix": ".png"}, "primary": true}], "photos": {"count": 0, "groups": []}}, "referralId": "e-0-4e0441eaa8090c0936a060da-13"}, {"reasons": {"count": 0, "items": [{"summary": "This spot is popular", "type": "general", "reasonName": "globalInteractionReason"}]}, "venue": {"id": "4bf50e376a31d13a7666962e", "name": "EDEKA Bestvater", "location": {"address": "Zabel-Kr\u00fcger-Damm 25", "lat": 52.60949168915109, "lng": 13.329430466294937, "labeledLatLngs": [{"label": "display", "lat": 52.60949168915109, "lng": 13.329430466294937}], "distance": 679, "postalCode": "13469", "cc": "DE", "city": "Berlin", "state": "Berlin", "country": "Deutschland", "formattedAddress": ["Zabel-Kr\u00fcger-Damm 25", "13469 Berlin", "Deutschland"]}, "categories": [{"id": "52f2ab2ebcbc57f1066b8b46", "name": "Supermarket", "pluralName": "Supermarkets", "shortName": "Supermarket", "icon": {"prefix": "https://ss3.4sqi.net/img/categories_v2/shops/food_grocery_", "suffix": ".png"}, "primary": true}], "photos": {"count": 0, "groups": []}}, "referralId": "e-0-4bf50e376a31d13a7666962e-14"}, {"reasons": {"count": 0, "items": [{"summary": "This spot is popular", "type": "general", "reasonName": "globalInteractionReason"}]}, "venue": {"id": "507c212b498ec6be8f17c2fe", "name": "EDEKA Aras", "location": {"address": "Oraniendamm 6-10", "lat": 52.6074596, "lng": 13.325573, "labeledLatLngs": [{"label": "display", "lat": 52.6074596, "lng": 13.325573}], "distance": 724, "postalCode": "13469", "cc": "DE", "city": "Berlin", "state": "Berlin", "country": "Deutschland", "formattedAddress": ["Oraniendamm 6-10", "13469 Berlin", "Deutschland"]}, "categories": [{"id": "52f2ab2ebcbc57f1066b8b46", "name": "Supermarket", "pluralName": "Supermarkets", "shortName": "Supermarket", "icon": {"prefix": "https://ss3.4sqi.net/img/categories_v2/shops/food_grocery_", "suffix": ".png"}, "primary": true}], "photos": {"count": 0, "groups": []}, "venuePage": {"id": "557208317"}}, "referralId": "e-0-507c212b498ec6be8f17c2fe-15"}, {"reasons": {"count": 0, "items": [{"summary": "This spot is popular", "type": "general", "reasonName": "globalInteractionReason"}]}, "venue": {"id": "4fed9460e4b00a5fd3a4745e", "name": "MediMax", "location": {"address": "Oraniendamm 10-6", "lat": 52.60714349119846, "lng": 13.325320649887422, "labeledLatLngs": [{"label": "display", "lat": 52.60714349119846, "lng": 13.325320649887422}], "distance": 724, "postalCode": "13469", "cc": "DE", "city": "Berlin", "state": "Berlin", "country": "Deutschland", "formattedAddress": ["Oraniendamm 10-6", "13469 Berlin", "Deutschland"]}, "categories": [{"id": "4bf58dd8d48988d122951735", "name": "Electronics Store", "pluralName": "Electronics Stores", "shortName": "Electronics", "icon": {"prefix": "https://ss3.4sqi.net/img/categories_v2/shops/technology_", "suffix": ".png"}, "primary": true}], "photos": {"count": 0, "groups": []}}, "referralId": "e-0-4fed9460e4b00a5fd3a4745e-16"}, {"reasons": {"count": 0, "items": [{"summary": "This spot is popular", "type": "general", "reasonName": "globalInteractionReason"}]}, "venue": {"id": "51693de6e4b0653e8caf8268", "name": "G\u00f6schenpark Berlin", "location": {"lat": 52.59956570869754, "lng": 13.327661377517733, "labeledLatLngs": [{"label": "display", "lat": 52.59956570869754, "lng": 13.327661377517733}], "distance": 737, "cc": "DE", "city": "Berlin", "state": "Berlin", "country": "Deutschland", "formattedAddress": ["Berlin", "Deutschland"]}, "categories": [{"id": "4f452cd44b9081a197eba860", "name": "Hockey Field", "pluralName": "Hockey Fields", "shortName": "Hockey Field", "icon": {"prefix": "https://ss3.4sqi.net/img/categories_v2/arts_entertainment/stadium_hockey_", "suffix": ".png"}, "primary": true}], "photos": {"count": 0, "groups": []}}, "referralId": "e-0-51693de6e4b0653e8caf8268-17"}, {"reasons": {"count": 0, "items": [{"summary": "This spot is popular", "type": "general", "reasonName": "globalInteractionReason"}]}, "venue": {"id": "4efdd83b9911b33a0efe3a6b", "name": "DAS FUTTERHAUS - Berlin-Waidmannslust", "location": {"address": "Oraniendamm 6-10", "lat": 52.607647575772525, "lng": 13.324742317199707, "labeledLatLngs": [{"label": "display", "lat": 52.607647575772525, "lng": 13.324742317199707}], "distance": 784, "postalCode": "13469", "cc": "DE", "city": "Berlin", "state": "Berlin", "country": "Deutschland", "formattedAddress": ["Oraniendamm 6-10", "13469 Berlin", "Deutschland"]}, "categories": [{"id": "4bf58dd8d48988d100951735", "name": "Pet Store", "pluralName": "Pet Stores", "shortName": "Pet Store", "icon": {"prefix": "https://ss3.4sqi.net/img/categories_v2/shops/pet_store_", "suffix": ".png"}, "primary": true}], "photos": {"count": 0, "groups": []}, "venuePage": {"id": "475206784"}}, "referralId": "e-0-4efdd83b9911b33a0efe3a6b-18"}, {"reasons": {"count": 0, "items": [{"summary": "This spot is popular", "type": "general", "reasonName": "globalInteractionReason"}]}, "venue": {"id": "4fede96fe4b0e7487e65a21e", "name": "Stadion Finsterwalder Stra\u00dfe", "location": {"address": "Finsterwalder Stra\u00dfe 58", "lat": 52.600978043003074, "lng": 13.345899250982313, "labeledLatLngs": [{"label": "display", "lat": 52.600978043003074, "lng": 13.345899250982313}], "distance": 827, "cc": "DE", "city": "Berlin", "state": "Berlin", "country": "Deutschland", "formattedAddress": ["Finsterwalder Stra\u00dfe 58", "Berlin", "Deutschland"]}, "categories": [{"id": "4cce455aebf7b749d5e191f5", "name": "Soccer Field", "pluralName": "Soccer Fields", "shortName": "Soccer Field", "icon": {"prefix": "https://ss3.4sqi.net/img/categories_v2/arts_entertainment/stadium_soccer_", "suffix": ".png"}, "primary": true}], "photos": {"count": 0, "groups": []}}, "referralId": "e-0-4fede96fe4b0e7487e65a21e-19"}, {"reasons": {"count": 0, "items": [{"summary": "This spot is popular", "type": "general", "reasonName": "globalInteractionReason"}]}, "venue": {"id": "504b705fe4b03e711f2e3b3c", "name": "Tchibo Prozente", "location": {"address": "Oraniendamm 6-10", "lat": 52.60760126075628, "lng": 13.323242401832069, "labeledLatLngs": [{"label": "display", "lat": 52.60760126075628, "lng": 13.323242401832069}], "distance": 873, "postalCode": "13459", "cc": "DE", "city": "Berlin", "state": "Berlin", "country": "Deutschland", "formattedAddress": ["Oraniendamm 6-10", "13459 Berlin", "Deutschland"]}, "categories": [{"id": "52e816a6bcbc57f1066b7a54", "name": "Warehouse Store", "pluralName": "Warehouse Stores", "shortName": "Warehouse Store", "icon": {"prefix": "https://ss3.4sqi.net/img/categories_v2/shops/default_", "suffix": ".png"}, "primary": true}], "photos": {"count": 0, "groups": []}}, "referralId": "e-0-504b705fe4b03e711f2e3b3c-20"}, {"reasons": {"count": 0, "items": [{"summary": "This spot is popular", "type": "general", "reasonName": "globalInteractionReason"}]}, "venue": {"id": "517d5b6ee4b0d88f1e7c1526", "name": "U Store (U-Bahnhof Wittenau)", "location": {"lat": 52.59656224165508, "lng": 13.334820215776784, "labeledLatLngs": [{"label": "display", "lat": 52.59656224165508, "lng": 13.334820215776784}], "distance": 876, "cc": "DE", "city": "Berlin", "state": "Berlin", "country": "Deutschland", "formattedAddress": ["Berlin", "Deutschland"]}, "categories": [{"id": "4d954b0ea243a5684a65b473", "name": "Convenience Store", "pluralName": "Convenience Stores", "shortName": "Convenience Store", "icon": {"prefix": "https://ss3.4sqi.net/img/categories_v2/shops/conveniencestore_", "suffix": ".png"}, "primary": true}], "photos": {"count": 0, "groups": []}}, "referralId": "e-0-517d5b6ee4b0d88f1e7c1526-21"}, {"reasons": {"count": 0, "items": [{"summary": "This spot is popular", "type": "general", "reasonName": "globalInteractionReason"}]}, "venue": {"id": "4fdc8656e4b0767cc6d10b30", "name": "Seggeluchbecken", "location": {"lat": 52.60446480420801, "lng": 13.348119406572508, "labeledLatLngs": [{"label": "display", "lat": 52.60446480420801, "lng": 13.348119406572508}], "distance": 882, "cc": "DE", "city": "Berlin", "state": "Berlin", "country": "Deutschland", "formattedAddress": ["Berlin", "Deutschland"]}, "categories": [{"id": "4bf58dd8d48988d163941735", "name": "Park", "pluralName": "Parks", "shortName": "Park", "icon": {"prefix": "https://ss3.4sqi.net/img/categories_v2/parks_outdoors/park_", "suffix": ".png"}, "primary": true}], "photos": {"count": 0, "groups": []}}, "referralId": "e-0-4fdc8656e4b0767cc6d10b30-22"}, {"reasons": {"count": 0, "items": [{"summary": "This spot is popular", "type": "general", "reasonName": "globalInteractionReason"}]}, "venue": {"id": "4b72dc8ef964a520178c2de3", "name": "S Waidmannslust", "location": {"address": "Waidmannsluster Damm", "lat": 52.606687279740726, "lng": 13.320851329764386, "labeledLatLngs": [{"label": "display", "lat": 52.606687279740726, "lng": 13.320851329764386}], "distance": 993, "postalCode": "13469", "cc": "DE", "city": "Berlin", "state": "Berlin", "country": "Deutschland", "formattedAddress": ["Waidmannsluster Damm", "13469 Berlin", "Deutschland"]}, "categories": [{"id": "4bf58dd8d48988d1fc931735", "name": "Light Rail Station", "pluralName": "Light Rail Stations", "shortName": "Light Rail", "icon": {"prefix": "https://ss3.4sqi.net/img/categories_v2/travel/lightrail_", "suffix": ".png"}, "primary": true}], "photos": {"count": 0, "groups": []}}, "referralId": "e-0-4b72dc8ef964a520178c2de3-23"}]