[{"reasons": {"count": 0, "items": [{"summary": "This spot is popular", "type": "general", "reasonName": "globalInteractionReason"}]}, "venue": {"id": "57ac5d29498e46d58c64dc1b", "name": "dm-drogerie markt", "location": {"address": "Prerower Platz 1", "lat": 52.564153, "lng": 13.505678, "labeledLatLngs": [{"label": "display", "lat": 52.564153, "lng": 13.505678}], "distance": 301, "postalCode": "13051", "cc": "DE", "city": "Berlin", "state": "Berlin", "country": "Deutschland", "formattedAddress": ["Prerower Platz 1", "13051 Berlin", "Deutschland"]}, "categories": [{"id": "5745c2e4498e11e7bccabdbd", "name": "Drugstore", "pluralName": "Drugstores", "shortName": "Drugstore", "icon": {"prefix": "https://ss3.4sqi.net/img/categories_v2/shops/pharmacy_", "suffix": ".png"}, "primary": true}], "photos": {"count": 0, "groups": []}, "venuePage": {"id": "453320764"}}, "referralId": "e-0-57ac5d29498e46d58c64dc1b-0"}, {"reasons": {"count": 0, "items": [{"summary": "This spot is popular", "type": "general", "reasonName": "globalInteractionReason"}]}, "venue": {"id": "4f3f75dfe4b00e2d508be548", "name": "Lidl", "location": {"address": "Malchower Weg 134", "lat": 52.56160107332167, "lng": 13.501569986869981, "labeledLatLngs": [{"label": "display", "lat": 52.56160107332167, "lng": 13.501569986869981}], "distance": 497, "postalCode": "13053", "cc": "DE", "city": "Berlin", "state": "Berlin", "country": "Deutschland", "formattedAddress": ["Malchower Weg 134", "13053 Berlin-Lichtenberg", "Deutschland"]}, "categories": [{"id": "52f2ab2ebcbc57f1066b8b46", "name": "Supermarket", "pluralName": "Supermarkets", "shortName": "Supermarket", "icon": {"prefix": "https://ss3.4sqi.net/img/categories_v2/shops/food_grocery_", "suffix": ".png"}, "primary": true}], "photos": {"count": 0, "groups": []}, "venuePage": {"id": "577518439"}}, "referralId": "e-0-4f3f75dfe4b00e2d508be548-1"}, {"reasons": {"count": 0, "items": [{"summary": "This spot is popular", "type": "general", "reasonName": "globalInteractionReason"}]}, "venue": {"id": "4d0937b3790fa0932d75c773", "name": "Kangaroo's Land", "location": {"address": "Hansastr. 236", "lat": 52.56066047796485, "lng": 13.50054433920171, "labeledLatLngs": [{"label": "display", "lat": 52.56066047796485, "lng": 13.50054433920171}], "distance": 612, "postalCode": "13051", "cc": "DE", "city": "Berlin", "state": "Berlin", "country": "Deutschland", "formattedAddress": ["Hansastr. 236", "13051 Berlin", "Deutschland"]}, "categories": [{"id": "4bf58dd8d48988d11d941735", "name": "Sports Bar", "pluralName": "Sports Bars", "shortName": "Sports Bar", "icon": {"prefix": "https://ss3.4sqi.net/img/categories_v2/nightlife/sportsbar_", "suffix": ".png"}, "primary": true}], "photos": {"count": 0, "groups": []}}, "referralId": "e-0-4d0937b3790fa0932d75c773-2"}, {"reasons": {"count": 0, "items": [{"summary": "This spot is popular", "type": "general", "reasonName": "globalInteractionReason"}]}, "venue": {"id": "4d963d8a0caaa143a7a672b3", "name": "REWE", "location": {"address": "Prerower Platz 1", "lat": 52.564152, "lng": 13.505678, "labeledLatLngs": [{"label": "display", "lat": 52.564152, "lng": 13.505678}], "distance": 301, "postalCode": "13051", "cc": "DE", "city": "Berlin", "state": "Berlin", "country": "Deutschland", "formattedAddress": ["Prerower Platz 1", "13051 Berlin", "Deutschland"]}, "categories": [{"id": "52f2ab2ebcbc57f1066b8b46", "name": "Supermarket", "pluralName": "Supermarkets", "shortName": "Supermarket", "icon": {"prefix": "https://ss3.4sqi.net/img/categories_v2/shops/food_grocery_", "suffix": ".png"}, "primary": true}], "photos": {"count": 0, "groups": []}}, "referralId": "e-0-4d963d8a0caaa143a7a672b3-3"}, {"reasons": {"count": 0, "items": [{"summary": "This spot is popular", "type": "general", "reasonName": "globalInteractionReason"}]}, "venue": {"id": "4adcda8cf964a520084a21e3", "name": "CineMotion", "location": {"address": "Wartenberger Str. 174", "lat": 52.566200455547055, "lng": 13.50893497467041, "labeledLatLngs": [{"label": "display", "lat": 52.566200455547055, "lng": 13.50893497467041}], "distance": 437, "postalCode": "13051", "cc": "DE", "city": "Berlin", "state": "Berlin", "country": "Deutschland", "formattedAddress": ["Wartenberger Str. 174", "13051 Berlin", "Deutschland"]}, "categories": [{"id": "4bf58dd8d48988d17f941735", "name": "Movie Theater", "pluralName": "Movie Theaters", "shortName": "Movie Theater", "icon": {"prefix": "https://ss3.4sqi.net/img/categories_v2/arts_entertainment/movietheater_", "suffix": ".png"}, "primary": true}], "photos": {"count": 0, "groups": []}}, "referralId": "e-0-4adcda8cf964a520084a21e3-4"}, {"reasons": {"count": 0, "items": [{"summary": "This spot is popular", "type": "general", "reasonName": "globalInteractionReason"}]}, "venue": {"id": "4dce4f24c65bdac7135d99f5", "name": "MediaMarkt", "location": {"address": "Prerower Platz 1", "lat": 52.56451462506858, "lng": 13.506333231925964, "labeledLatLngs": [{"label": "display", "lat": 52.56451462506858, "lng": 13.506333231925964}], "distance": 310, "postalCode": "13051", "cc": "DE", "city": "Berlin", "state": "Berlin", "country": "Deutschland", "formattedAddress": ["Prerower Platz 1", "13051 Berlin", "Deutschland"]}, "categories": [{"id": "4bf58dd8d48988d122951735", "name": "Electronics Store", "pluralName": "Electronics Stores", "shortName": "Electronics", "icon": {"prefix": "https://ss3.4sqi.net/img/categories_v2/shops/technology_", "suffix": ".png"}, "primary": true}], "photos": {"count": 0, "groups": []}, "venuePage": {"id": "451534134"}}, "referralId": "e-0-4dce4f24c65bdac7135d99f5-5"}, {"reasons": {"count": 0, "items": [{"summary": "This spot is popular", "type": "general", "reasonName": "globalInteractionReason"}]}, "venue": {"id": "4adcda8ff964a520054b21e3", "name": "Linden-Center", "location": {"address": "Prerower Platz 1", "lat": 52.56451972015678, "lng": 13.506209850311278, "labeledLatLngs": [{"label": "display", "lat": 52.56451972015678, "lng": 13.506209850311278}], "distance": 303, "postalCode": "13051", "cc": "DE", "city": "Berlin", "state": "Berlin", "country": "Deutschland", "formattedAddress": ["Prerower Platz 1", "13051 Berlin", "Deutschland"]}, "categories": [{"id": "4bf58dd8d48988d1fd941735", "name": "Shopping Mall", "pluralName": "Shopping Malls", "shortName": "Mall", "icon": {"prefix": "https://ss3.4sqi.net/img/categories_v2/shops/mall_", "suffix": ".png"}, "primary": true}], "photos": {"count": 0, "groups": []}, "venuePage": {"id": "449527686"}}, "referralId": "e-0-4adcda8ff964a520054b21e3-6"}, {"reasons": {"count": 0, "items": [{"summary": "This spot is popular", "type": "general", "reasonName": "globalInteractionReason"}]}, "venue": {"id": "56192949498e89360e54fccd", "name": "Hansa Center", "location": {"address": "Hansastr. 236", "lat": 52.561050824088206, "lng": 13.500077453338372, "labeledLatLngs": [{"label": "display", "lat": 52.561050824088206, "lng": 13.500077453338372}], "distance": 577, "postalCode": "13051", "cc": "DE", "neighborhood": "Lichtenberg", "city": "Berlin", "state": "Berlin", "country": "Deutschland", "formattedAddress": ["Hansastr. 236", "13051 Berlin", "Deutschland"]}, "categories": [{"id": "4bf58dd8d48988d1fd941735", "name": "Shopping Mall", "pluralName": "Shopping Malls", "shortName": "Mall", "icon": {"prefix": "https://ss3.4sqi.net/img/categories_v2/shops/mall_", "suffix": ".png"}, "primary": true}], "photos": {"count": 0, "groups": []}}, "referralId": "e-0-56192949498e89360e54fccd-7"}, {"reasons": {"count": 0, "items": [{"summary": "This spot is popular", "type": "general", "reasonName": "globalInteractionReason"}]}, "venue": {"id": "5ac647ce89b06a023315ed38", "name": "REWE", "location": {"address": "Ribnitzer Stra\u00dfe 26", "lat": 52.569611533157094, "lng": 13.494804639408358, "labeledLatLngs": [{"label": "display", "lat": 52.569611533157094, "lng": 13.494804639408358}], "distance": 654, "postalCode": "13051", "cc": "DE", "city": "Berlin", "state": "Berlin", "country": "Deutschland", "formattedAddress": ["Ribnitzer Stra\u00dfe 26", "13051 Berlin", "Deutschland"]}, "categories": [{"id": "4bf58dd8d48988d186941735", "name": "Liquor Store", "pluralName": "Liquor Stores", "shortName": "Liquor Store", "icon": {"prefix": "https://ss3.4sqi.net/img/categories_v2/shops/food_liquor_", "suffix": ".png"}, "primary": true}], "photos": {"count": 0, "groups": []}, "venuePage": {"id": "569783807"}}, "referralId": "e-0-5ac647ce89b06a023315ed38-8"}, {"reasons": {"count": 0, "items": [{"summary": "This spot is popular", "type": "general", "reasonName": "globalInteractionReason"}]}, "venue": {"id": "4eb4077029c212fb6bc69391", "name": "EDEKA Kitschun", "location": {"address": "Falkenberger Chaussee 95", "lat": 52.56851195, "lng": 13.51670491, "labeledLatLngs": [{"label": "display", "lat": 52.56851195, "lng": 13.51670491}], "distance": 1001, "postalCode": "13059", "cc": "DE", "city": "Berlin", "state": "Berlin", "country": "Deutschland", "formattedAddress": ["Falkenberger Chaussee 95", "13059 Berlin", "Deutschland"]}, "categories": [{"id": "52f2ab2ebcbc57f1066b8b46", "name": "Supermarket", "pluralName": "Supermarkets", "shortName": "Supermarket", "icon": {"prefix": "https://ss3.4sqi.net/img/categories_v2/shops/food_grocery_", "suffix": ".png"}, "primary": true}], "photos": {"count": 0, "groups": []}}, "referralId": "e-0-4eb4077029c212fb6bc69391-9"}, {"reasons": {"count": 0, "items": [{"summary": "This spot is popular", "type": "general", "reasonName": "globalInteractionReason"}]}, "venue": {"id": "521cff1cbce6eb4cc11a8c5c", "name": "H Ahrenshooper Stra\u00dfe", "location": {"address": "Zingster Str.", "crossStreet": "Ahrenshooper Str.", "lat": 52.56634718820995, "lng": 13.501746654510498, "labeledLatLngs": [{"label": "display", "lat": 52.56634718820995, "lng": 13.501746654510498}], "distance": 60, "postalCode": "13051", "cc": "DE", "city": "Berlin", "state": "Berlin", "country": "Deutschland", "formattedAddress": ["Zingster Str. (Ahrenshooper Str.)", "13051 Berlin", "Deutschland"]}, "categories": [{"id": "52f2ab2ebcbc57f1066b8b51", "name": "Tram Station", "pluralName": "Tram Stations", "shortName": "Tram", "icon": {"prefix": "https://ss3.4sqi.net/img/categories_v2/travel/trainstation_", "suffix": ".png"}, "primary": true}], "photos": {"count": 0, "groups": []}}, "referralId": "e-0-521cff1cbce6eb4cc11a8c5c-10"}, {"reasons": {"count": 0, "items": [{"summary": "This spot is popular", "type": "general", "reasonName": "globalInteractionReason"}]}, "venue": {"id": "4f44eff9e4b01cb12c768606", "name": "Burger King", "location": {"address": "Prerower Platz 1", "lat": 52.56419505995494, "lng": 13.505244255065918, "labeledLatLngs": [{"label": "display", "lat": 52.56419505995494, "lng": 13.505244255065918}], "distance": 277, "postalCode": "13051", "cc": "DE", "city": "Berlin", "state": "Berlin", "country": "Deutschland", "formattedAddress": ["Prerower Platz 1", "13051 Berlin", "Deutschland"]}, "categories": [{"id": "4bf58dd8d48988d16e941735", "name": "Fast Food Restaurant", "pluralName": "Fast Food Restaurants", "shortName": "Fast Food", "icon": {"prefix": "https://ss3.4sqi.net/img/categories_v2/food/fastfood_", "suffix": ".png"}, "primary": true}], "photos": {"count": 0, "groups": []}}, "referralId": "e-0-4f44eff9e4b01cb12c768606-11"}, {"reasons": {"count": 0, "items": [{"summary": "This spot is popular", "type": "general", "reasonName": "globalInteractionReason"}]}, "venue": {"id": "4b9b5a9ff964a520260236e3", "name": "Ryf", "location": {"address": "Prerower Platz 1", "lat": 52.56431245149174, "lng": 13.505351543426514, "labeledLatLngs": [{"label": "display", "lat": 52.56431245149174, "lng": 13.505351543426514}], "distance": 272, "postalCode": "13055", "cc": "DE", "city": "Berlin", "state": "Berlin", "country": "Deutschland", "formattedAddress": ["Prerower Platz 1", "13055 Berlin", "Deutschland"]}, "categories": [{"id": "4bf58dd8d48988d10c951735", "name": "Cosmetics Shop", "pluralName": "Cosmetics Shops", "shortName": "Cosmetics", "icon": {"prefix": "https://ss3.4sqi.net/img/categories_v2/shops/beauty_cosmetic_", "suffix": ".png"}, "primary": true}], "photos": {"count": 0, "groups": []}}, "referralId": "e-0-4b9b5a9ff964a520260236e3-12"}, {"reasons": {"count": 0, "items": [{"summary": "This spot is popular", "type": "general", "reasonName": "globalInteractionReason"}]}, "venue": {"id": "4fa90a37e4b02c573a8ad719", "name": "NORDSEE", "location": {"address": "Prerower Platz 1", "lat": 52.56478441226398, "lng": 13.506087511463, "labeledLatLngs": [{"label": "display", "lat": 52.56478441226398, "lng": 13.506087511463}], "distance": 280, "postalCode": "13051", "cc": "DE", "city": "Berlin", "state": "Berlin", "country": "Deutschland", "formattedAddress": ["Prerower Platz 1", "13051 Berlin", "Deutschland"]}, "categories": [{"id": "4bf58dd8d48988d1ce941735", "name": "Seafood Restaurant", "pluralName": "Seafood Restaurants", "shortName": "Seafood", "icon": {"prefix": "https://ss3.4sqi.net/img/categories_v2/food/seafood_", "suffix": ".png"}, "primary": true}], "photos": {"count": 0, "groups": []}, "venuePage": {"id": "474209426"}}, "referralId": "e-0-4fa90a37e4b02c573a8ad719-13"}, {"reasons": {"count": 0, "items": [{"summary": "This spot is popular", "type": "general", "reasonName": "globalInteractionReason"}]}, "venue": {"id": "4c73b4943c26ef3bebe3e5d5", "name": "Thalia Berlin - Linden-Center", "location": {"address": "Prerower Platz 1", "lat": 52.5634, "lng": 13.5051, "labeledLatLngs": [{"label": "display", "lat": 52.5634, "lng": 13.5051}], "distance": 342, "postalCode": "13051", "cc": "DE", "city": "Berlin", "state": "Berlin", "country": "Deutschland", "formattedAddress": ["Prerower Platz 1", "13051 Berlin", "Deutschland"]}, "categories": [{"id": "4bf58dd8d48988d114951735", "name": "Bookstore", "pluralName": "Bookstores", "shortName": "Bookstore", "icon": {"prefix": "https://ss3.4sqi.net/img/categories_v2/shops/bookstore_", "suffix": ".png"}, "primary": true}], "photos": {"count": 0, "groups": []}, "venuePage": {"id": "472432587"}}, "referralId": "e-0-4c73b4943c26ef3bebe3e5d5-14"}, {"reasons": {"count": 0, "items": [{"summary": "This spot is popular", "type": "general", "reasonName": "globalInteractionReason"}]}, "venue": {"id": "4d32ece62c76a1432f0176c7", "name": "Mac's Bistro", "location": {"lat": 52.56153854539798, "lng": 13.499659922240605, "labeledLatLngs": [{"label": "display", "lat": 52.56153854539798, "lng": 13.499659922240605}], "distance": 535, "cc": "DE", "city": "Berlin", "state": "Berlin", "country": "Deutschland", "formattedAddress": ["Berlin", "Deutschland"]}, "categories": [{"id": "4bf58dd8d48988d16e941735", "name": "Fast Food Restaurant", "pluralName": "Fast Food Restaurants", "shortName": "Fast Food", "icon": {"prefix": "https://ss3.4sqi.net/img/categories_v2/food/fastfood_", "suffix": ".png"}, "primary": true}], "photos": {"count": 0, "groups": []}}, "referralId": "e-0-4d32ece62c76a1432f0176c7-15"}, {"reasons": {"count": 0, "items": [{"summary": "This spot is popular", "type": "general", "reasonName": "globalInteractionReason"}]}, "venue": {"id": "5204b1f4498e14ac2af88d6a", "name": "H Hansastra\u00dfe / Malchower Weg", "location": {"address": "Hansastr.", "crossStreet": "Malchower Weg", "lat": 52.56122103622528, "lng": 13.49942922592163, "labeledLatLngs": [{"label": "display", "lat": 52.56122103622528, "lng": 13.49942922592163}], "distance": 573, "postalCode": "13051", "cc": "DE", "city": "Berlin", "state": "Berlin", "country": "Deutschland", "formattedAddress": ["Hansastr. (Malchower Weg)", "13051 Berlin", "Deutschland"]}, "categories": [{"id": "52f2ab2ebcbc57f1066b8b51", "name": "Tram Station", "pluralName": "Tram Stations", "shortName": "Tram", "icon": {"prefix": "https://ss3.4sqi.net/img/categories_v2/travel/trainstation_", "suffix": ".png"}, "primary": true}], "photos": {"count": 0, "groups": []}}, "referralId": "e-0-5204b1f4498e14ac2af88d6a-16"}, {"reasons": {"count": 0, "items": [{"summary": "This spot is popular", "type": "general", "reasonName": "globalInteractionReason"}]}, "venue": {"id": "5871c1c63cccc655c5557d19", "name": "EDEKA Center Berlin", "location": {"address": "Hansastr. 236", "lat": 52.5608938, "lng": 13.4993655, "labeledLatLngs": [{"label": "display", "lat": 52.5608938, "lng": 13.4993655}], "distance": 609, "postalCode": "13051", "cc": "DE", "city": "Berlin", "state": "Berlin", "country": "Deutschland", "formattedAddress": ["Hansastr. 236", "13051 Berlin", "Deutschland"]}, "categories": [{"id": "52f2ab2ebcbc57f1066b8b46", "name": "Supermarket", "pluralName": "Supermarkets", "shortName": "Supermarket", "icon": {"prefix": "https://ss3.4sqi.net/img/categories_v2/shops/food_grocery_", "suffix": ".png"}, "primary": true}], "photos": {"count": 0, "groups": []}, "venuePage": {"id": "554206301"}}, "referralId": "e-0-5871c1c63cccc655c5557d19-17"}, {"reasons": {"count": 0, "items": [{"summary": "This spot is popular", "type": "general", "reasonName": "globalInteractionReason"}]}, "venue": {"id": "573dc70d498ea0b8c67a7460", "name": "Cozy Club", "location": {"address": "Ribnitzer Str. 24", "lat": 52.5701047977576, "lng": 13.496021310088041, "labeledLatLngs": [{"label": "display", "lat": 52.5701047977576, "lng": 13.496021310088041}], "distance": 629, "postalCode": "13051", "cc": "DE", "city": "Berlin", "state": "Berlin", "country": "Deutschland", "formattedAddress": ["Ribnitzer Str. 24", "13051 Berlin", "Deutschland"]}, "categories": [{"id": "4bf58dd8d48988d11f941735", "name": "Nightclub", "pluralName": "Nightclubs", "shortName": "Nightclub", "icon": {"prefix": "https://ss3.4sqi.net/img/categories_v2/nightlife/nightclub_", "suffix": ".png"}, "primary": true}], "photos": {"count": 0, "groups": []}, "venuePage": {"id": "190868385"}}, "referralId": "e-0-573dc70d498ea0b8c67a7460-18"}, {"reasons": {"count": 0, "items": [{"summary": "This spot is popular", "type": "general", "reasonName": "globalInteractionReason"}]}, "venue": {"id": "4effb77a6da1cd0358c90df1", "name": "H Zingster Stra\u00dfe / Ribnitzer Stra\u00dfe", "location": {"address": "Zingster Str.", "crossStreet": "Ribnitzer Str.", "lat": 52.57065061434232, "lng": 13.497057608632673, "labeledLatLngs": [{"label": "display", "lat": 52.57065061434232, "lng": 13.497057608632673}], "distance": 631, "postalCode": "13051", "cc": "DE", "city": "Berlin", "state": "Berlin", "country": "Deutschland", "formattedAddress": ["Zingster Str. (Ribnitzer Str.)", "13051 Berlin", "Deutschland"]}, "categories": [{"id": "52f2ab2ebcbc57f1066b8b51", "name": "Tram Station", "pluralName": "Tram Stations", "shortName": "Tram", "icon": {"prefix": "https://ss3.4sqi.net/img/categories_v2/travel/trainstation_", "suffix": ".png"}, "primary": true}], "photos": {"count": 0, "groups": []}}, "referralId": "e-0-4effb77a6da1cd0358c90df1-19"}, {"reasons": {"count": 0, "items": [{"summary": "This spot is popular", "type": "general", "reasonName": "globalInteractionReason"}]}, "venue": {"id": "4b4f6c85f964a520040627e3", "name": "4ever fitness", "location": {"address": "Hansastr. 236", "lat": 52.56060126205907, "lng": 13.498683738215885, "labeledLatLngs": [{"label": "display", "lat": 52.56060126205907, "lng": 13.498683738215885}], "distance": 656, "postalCode": "13051", "cc": "DE", "city": "Berlin", "state": "Berlin", "country": "Deutschland", "formattedAddress": ["Hansastr. 236", "13051 Berlin", "Deutschland"]}, "categories": [{"id": "4bf58dd8d48988d175941735", "name": "Gym / Fitness Center", "pluralName": "Gyms or Fitness Centers", "shortName": "Gym / Fitness", "icon": {"prefix": "https://ss3.4sqi.net/img/categories_v2/building/gym_", "suffix": ".png"}, "primary": true}], "photos": {"count": 0, "groups": []}}, "referralId": "e-0-4b4f6c85f964a520040627e3-20"}, {"reasons": {"count": 0, "items": [{"summary": "This spot is popular", "type": "general", "reasonName": "globalInteractionReason"}]}, "venue": {"id": "51432560e4b0abca5c74f455", "name": "M\u00fchlengrund", "location": {"address": "Rotkamp", "lat": 52.56134455904318, "lng": 13.509106051219733, "labeledLatLngs": [{"label": "display", "lat": 52.56134455904318, "lng": 13.509106051219733}], "distance": 688, "postalCode": "13053", "cc": "DE", "city": "Berlin", "state": "Berlin", "country": "Deutschland", "formattedAddress": ["Rotkamp", "13053 Berlin", "Deutschland"]}, "categories": [{"id": "4bf58dd8d48988d164941735", "name": "Plaza", "pluralName": "Plazas", "shortName": "Plaza", "icon": {"prefix": "https://ss3.4sqi.net/img/categories_v2/parks_outdoors/plaza_", "suffix": ".png"}, "primary": true}], "photos": {"count": 0, "groups": []}}, "referralId": "e-0-51432560e4b0abca5c74f455-21"}, {"reasons": {"count": 0, "items": [{"summary": "This spot is popular", "type": "general", "reasonName": "globalInteractionReason"}]}, "venue": {"id": "521d01f1bce6eb4cc11bcdb3", "name": "H S Hohensch\u00f6nhausen", "location": {"address": "Falkenberger Chaussee", "crossStreet": "Wartenberger Str.", "lat": 52.56620371627823, "lng": 13.512947559356688, "labeledLatLngs": [{"label": "display", "lat": 52.56620371627823, "lng": 13.512947559356688}], "distance": 708, "postalCode": "13059", "cc": "DE", "city": "Berlin", "state": "Berlin", "country": "Deutschland", "formattedAddress": ["Falkenberger Chaussee (Wartenberger Str.)", "13059 Berlin", "Deutschland"]}, "categories": [{"id": "52f2ab2ebcbc57f1066b8b51", "name": "Tram Station", "pluralName": "Tram Stations", "shortName": "Tram", "icon": {"prefix": "https://ss3.4sqi.net/img/categories_v2/travel/trainstation_", "suffix": ".png"}, "primary": true}], "photos": {"count": 0, "groups": []}}, "referralId": "e-0-521d01f1bce6eb4cc11bcdb3-22"}, {"reasons": {"count": 0, "items": [{"summary": "This spot is popular", "type": "general", "reasonName": "globalInteractionReason"}]}, "venue": {"id": "57167636498e28bc890eebc1", "name": "Netto Marken-Discount", "location": {"address": "Rotkamp 2", "lat": 52.56065096, "lng": 13.50887656, "labeledLatLngs": [{"label": "display", "lat": 52.56065096, "lng": 13.50887656}], "distance": 739, "postalCode": "13053", "cc": "DE", "neighborhood": "Lichtenberg", "city": "Berlin", "state": "Berlin", "country": "Deutschland", "formattedAddress": ["Rotkamp 2", "13053 Berlin", "Deutschland"]}, "categories": [{"id": "52f2ab2ebcbc57f1066b8b46", "name": "Supermarket", "pluralName": "Supermarkets", "shortName": "Supermarket", "icon": {"prefix": "https://ss3.4sqi.net/img/categories_v2/shops/food_grocery_", "suffix": ".png"}, "primary": true}], "photos": {"count": 0, "groups": []}}, "referralId": "e-0-57167636498e28bc890eebc1-23"}, {"reasons": {"count": 0, "items": [{"summary": "This spot is popular", "type": "general", "reasonName": "globalInteractionReason"}]}, "venue": {"id": "4e8b3dd5f5b97ad7c45cb12d", "name": "Beach Zone Wartenberg", "location": {"address": "Am Berl 21", "lat": 52.57376048994133, "lng": 13.500498709379428, "labeledLatLngs": [{"label": "display", "lat": 52.57376048994133, "lng": 13.500498709379428}], "distance": 870, "cc": "DE", "city": "Berlin", "state": "Berlin", "country": "Deutschland", "formattedAddress": ["Am Berl 21", "Berlin", "Deutschland"]}, "categories": [{"id": "4eb1bf013b7b6f98df247e07", "name": "Volleyball Court", "pluralName": "Volleyball Courts", "shortName": "Volleyball Court", "icon": {"prefix": "https://ss3.4sqi.net/img/categories_v2/parks_outdoors/volleyballcourt_", "suffix": ".png"}, "primary": true}], "photos": {"count": 0, "groups": []}}, "referralId": "e-0-4e8b3dd5f5b97ad7c45cb12d-24"}, {"reasons": {"count": 0, "items": [{"summary": "This spot is popular", "type": "general", "reasonName": "globalInteractionReason"}]}, "venue": {"id": "4b9768d0f964a520a30235e3", "name": "Autohaus an der Hansastra\u00dfe", "location": {"address": "Hansastr. 212", "lat": 52.558702906560235, "lng": 13.49403658032207, "labeledLatLngs": [{"label": "display", "lat": 52.558702906560235, "lng": 13.49403658032207}], "distance": 995, "postalCode": "13051", "cc": "DE", "city": "Berlin", "state": "Berlin", "country": "Deutschland", "formattedAddress": ["Hansastr. 212", "13051 Berlin", "Deutschland"]}, "categories": [{"id": "4eb1c1623b7b52c0e1adc2ec", "name": "Auto Dealership", "pluralName": "Auto Dealerships", "shortName": "Auto Dealer", "icon": {"prefix": "https://ss3.4sqi.net/img/categories_v2/shops/automotive_", "suffix": ".png"}, "primary": true}], "photos": {"count": 0, "groups": []}, "venuePage": {"id": "59126622"}}, "referralId": "e-0-4b9768d0f964a520a30235e3-25"}]