[{"reasons": {"count": 0, "items": [{"summary": "This spot is popular", "type": "general", "reasonName": "globalInteractionReason"}]}, "venue": {"id": "4eb4077029c212fb6bc69391", "name": "EDEKA Kitschun", "location": {"address": "Falkenberger Chaussee 95", "lat": 52.56851195, "lng": 13.51670491, "labeledLatLngs": [{"label": "display", "lat": 52.56851195, "lng": 13.51670491}], "distance": 310, "postalCode": "13059", "cc": "DE", "city": "Berlin", "state": "Berlin", "country": "Deutschland", "formattedAddress": ["Falkenberger Chaussee 95", "13059 Berlin", "Deutschland"]}, "categories": [{"id": "52f2ab2ebcbc57f1066b8b46", "name": "Supermarket", "pluralName": "Supermarkets", "shortName": "Supermarket", "icon": {"prefix": "https://ss3.4sqi.net/img/categories_v2/shops/food_grocery_", "suffix": ".png"}, "primary": true}], "photos": {"count": 0, "groups": []}}, "referralId": "e-0-4eb4077029c212fb6bc69391-0"}, {"reasons": {"count": 0, "items": [{"summary": "This spot is popular", "type": "general", "reasonName": "globalInteractionReason"}]}, "venue": {"id": "4f083ab4e4b039f5acb1cc63", "name": "Lidl", "location": {"address": "Grevesm\u00fchlener Str. 30-34", "lat": 52.56878852461787, "lng": 13.519377644991431, "labeledLatLngs": [{"label": "display", "lat": 52.56878852461787, "lng": 13.519377644991431}], "distance": 182, "postalCode": "13059", "cc": "DE", "city": "Berlin", "state": "Berlin", "country": "Deutschland", "formattedAddress": ["Grevesm\u00fchlener Str. 30-34", "13059 Berlin", "Deutschland"]}, "categories": [{"id": "52f2ab2ebcbc57f1066b8b46", "name": "Supermarket", "pluralName": "Supermarkets", "shortName": "Supermarket", "icon": {"prefix": "https://ss3.4sqi.net/img/categories_v2/shops/food_grocery_", "suffix": ".png"}, "primary": true}], "photos": {"count": 0, "groups": []}}, "referralId": "e-0-4f083ab4e4b039f5acb1cc63-1"}, {"reasons": {"count": 0, "items": [{"summary": "This spot is popular", "type": "general", "reasonName": "globalInteractionReason"}]}, "venue": {"id": "4ee7b58729c29fa3f6d4f025", "name": "REWE", "location": {"address": "Randowstra\u00dfe 3", "lat": 52.5670624, "lng": 13.528191, "labeledLatLngs": [{"label": "display", "lat": 52.5670624, "lng": 13.528191}], "distance": 491, "postalCode": "13057", "cc": "DE", "city": "Berlin", "state": "Berlin", "country": "Deutschland", "formattedAddress": ["Randowstra\u00dfe 3", "13057 Berlin", "Deutschland"]}, "categories": [{"id": "52f2ab2ebcbc57f1066b8b46", "name": "Supermarket", "pluralName": "Supermarkets", "shortName": "Supermarket", "icon": {"prefix": "https://ss3.4sqi.net/img/categories_v2/shops/food_grocery_", "suffix": ".png"}, "primary": true}], "photos": {"count": 0, "groups": []}, "venuePage": {"id": "561858704"}}, "referralId": "e-0-4ee7b58729c29fa3f6d4f025-2"}, {"reasons": {"count": 0, "items": [{"summary": "This spot is popular", "type": "general", "reasonName": "globalInteractionReason"}]}, "venue": {"id": "4adcda8cf964a520084a21e3", "name": "CineMotion", "location": {"address": "Wartenberger Str. 174", "lat": 52.566200455547055, "lng": 13.50893497467041, "labeledLatLngs": [{"label": "display", "lat": 52.566200455547055, "lng": 13.50893497467041}], "distance": 825, "postalCode": "13051", "cc": "DE", "city": "Berlin", "state": "Berlin", "country": "Deutschland", "formattedAddress": ["Wartenberger Str. 174", "13051 Berlin", "Deutschland"]}, "categories": [{"id": "4bf58dd8d48988d17f941735", "name": "Movie Theater", "pluralName": "Movie Theaters", "shortName": "Movie Theater", "icon": {"prefix": "https://ss3.4sqi.net/img/categories_v2/arts_entertainment/movietheater_", "suffix": ".png"}, "primary": true}], "photos": {"count": 0, "groups": []}}, "referralId": "e-0-4adcda8cf964a520084a21e3-3"}, {"reasons": {"count": 0, "items": [{"summary": "This spot is popular", "type": "general", "reasonName": "globalInteractionReason"}]}, "venue": {"id": "4f09a2eee4b07c8f8d513271", "name": "Bistro Can", "location": {"address": "Warnitzer Stra\u00dfe 12", "lat": 52.56658818613989, "lng": 13.519493218406728, "labeledLatLngs": [{"label": "display", "lat": 52.56658818613989, "lng": 13.519493218406728}], "distance": 138, "postalCode": "13057", "cc": "DE", "city": "Berlin", "state": "Berlin", "country": "Deutschland", "formattedAddress": ["Warnitzer Stra\u00dfe 12", "13057 Berlin", "Deutschland"]}, "categories": [{"id": "4bf58dd8d48988d16c941735", "name": "Burger Joint", "pluralName": "Burger Joints", "shortName": "Burgers", "icon": {"prefix": "https://ss3.4sqi.net/img/categories_v2/food/burger_", "suffix": ".png"}, "primary": true}], "photos": {"count": 0, "groups": []}}, "referralId": "e-0-4f09a2eee4b07c8f8d513271-4"}, {"reasons": {"count": 0, "items": [{"summary": "This spot is popular", "type": "general", "reasonName": "globalInteractionReason"}]}, "venue": {"id": "4ea7cf0346902b1f956c0864", "name": "H Vincent-van-Gogh-Stra\u00dfe", "location": {"address": "Vincent-van-Gogh-Str.", "crossStreet": "Welsestr.", "lat": 52.56537152037619, "lng": 13.524196678745353, "labeledLatLngs": [{"label": "display", "lat": 52.56537152037619, "lng": 13.524196678745353}], "distance": 319, "postalCode": "13057", "cc": "DE", "city": "Berlin", "state": "Berlin", "country": "Deutschland", "formattedAddress": ["Vincent-van-Gogh-Str. (Welsestr.)", "13057 Berlin", "Deutschland"]}, "categories": [{"id": "52f2ab2ebcbc57f1066b8b4f", "name": "Bus Stop", "pluralName": "Bus Stops", "shortName": "Bus Stop", "icon": {"prefix": "https://ss3.4sqi.net/img/categories_v2/travel/busstation_", "suffix": ".png"}, "primary": true}], "photos": {"count": 0, "groups": []}}, "referralId": "e-0-4ea7cf0346902b1f956c0864-5"}, {"reasons": {"count": 0, "items": [{"summary": "This spot is popular", "type": "general", "reasonName": "globalInteractionReason"}]}, "venue": {"id": "4dbd83a04df044e524fd0f87", "name": "H Welsestra\u00dfe", "location": {"address": "Falkenberger Chaussee", "crossStreet": "Welsestr.", "lat": 52.56919288960506, "lng": 13.526208400726318, "labeledLatLngs": [{"label": "display", "lat": 52.56919288960506, "lng": 13.526208400726318}], "distance": 404, "postalCode": "13059", "cc": "DE", "city": "Berlin", "state": "Berlin", "country": "Deutschland", "formattedAddress": ["Falkenberger Chaussee (Welsestr.)", "13059 Berlin", "Deutschland"]}, "categories": [{"id": "52f2ab2ebcbc57f1066b8b51", "name": "Tram Station", "pluralName": "Tram Stations", "shortName": "Tram", "icon": {"prefix": "https://ss3.4sqi.net/img/categories_v2/travel/trainstation_", "suffix": ".png"}, "primary": true}], "photos": {"count": 0, "groups": []}}, "referralId": "e-0-4dbd83a04df044e524fd0f87-6"}, {"reasons": {"count": 0, "items": [{"summary": "This spot is popular", "type": "general", "reasonName": "globalInteractionReason"}]}, "venue": {"id": "521d01f1bce6eb4cc11bcdb3", "name": "H S Hohensch\u00f6nhausen", "location": {"address": "Falkenberger Chaussee", "crossStreet": "Wartenberger Str.", "lat": 52.56620371627823, "lng": 13.512947559356688, "labeledLatLngs": [{"label": "display", "lat": 52.56620371627823, "lng": 13.512947559356688}], "distance": 559, "postalCode": "13059", "cc": "DE", "city": "Berlin", "state": "Berlin", "country": "Deutschland", "formattedAddress": ["Falkenberger Chaussee (Wartenberger Str.)", "13059 Berlin", "Deutschland"]}, "categories": [{"id": "52f2ab2ebcbc57f1066b8b51", "name": "Tram Station", "pluralName": "Tram Stations", "shortName": "Tram", "icon": {"prefix": "https://ss3.4sqi.net/img/categories_v2/travel/trainstation_", "suffix": ".png"}, "primary": true}], "photos": {"count": 0, "groups": []}}, "referralId": "e-0-521d01f1bce6eb4cc11bcdb3-7"}, {"reasons": {"count": 0, "items": [{"summary": "This spot is popular", "type": "general", "reasonName": "globalInteractionReason"}]}, "venue": {"id": "4c5c2ff1d25320a16a6bc27a", "name": "ALDI NORD", "location": {"address": "Dorfstr. 27", "lat": 52.57515578010158, "lng": 13.518848628221548, "labeledLatLngs": [{"label": "display", "lat": 52.57515578010158, "lng": 13.518848628221548}], "distance": 868, "postalCode": "13059", "cc": "DE", "city": "Berlin", "state": "Berlin", "country": "Deutschland", "formattedAddress": ["Dorfstr. 27", "13059 Berlin", "Deutschland"]}, "categories": [{"id": "52f2ab2ebcbc57f1066b8b46", "name": "Supermarket", "pluralName": "Supermarkets", "shortName": "Supermarket", "icon": {"prefix": "https://ss3.4sqi.net/img/categories_v2/shops/food_grocery_", "suffix": ".png"}, "primary": true}], "photos": {"count": 0, "groups": []}}, "referralId": "e-0-4c5c2ff1d25320a16a6bc27a-8"}]