[{"reasons": {"count": 0, "items": [{"summary": "This spot is popular", "type": "general", "reasonName": "globalInteractionReason"}]}, "venue": {"id": "5428350b498e4ff3ecfd9bf8", "name": "AVCI", "location": {"address": "Weitlingstr. 57", "lat": 52.506062406124414, "lng": 13.495985057538887, "labeledLatLngs": [{"label": "display", "lat": 52.506062406124414, "lng": 13.495985057538887}], "distance": 204, "cc": "DE", "city": "Berlin", "state": "Berlin", "country": "Deutschland", "formattedAddress": ["Weitlingstr. 57", "Berlin", "Deutschland"]}, "categories": [{"id": "5283c7b4e4b094cb91ec88d8", "name": "Doner Restaurant", "pluralName": "Doner Restaurants", "shortName": "Doner", "icon": {"prefix": "https://ss3.4sqi.net/img/categories_v2/food/turkish_", "suffix": ".png"}, "primary": true}], "photos": {"count": 0, "groups": []}}, "referralId": "e-0-5428350b498e4ff3ecfd9bf8-0"}, {"reasons": {"count": 0, "items": [{"summary": "This spot is popular", "type": "general", "reasonName": "globalInteractionReason"}]}, "venue": {"id": "4c1cbeeffcf8c9b6ec7eaa0b", "name": "REWE", "location": {"address": "Weitlingstr. 59-60", "lat": 52.50557231559455, "lng": 13.496288604909637, "labeledLatLngs": [{"label": "display", "lat": 52.50557231559455, "lng": 13.496288604909637}], "distance": 152, "postalCode": "10317", "cc": "DE", "city": "Berlin", "state": "Berlin", "country": "Deutschland", "formattedAddress": ["Weitlingstr. 59-60", "10317 Berlin", "Deutschland"]}, "categories": [{"id": "52f2ab2ebcbc57f1066b8b46", "name": "Supermarket", "pluralName": "Supermarkets", "shortName": "Supermarket", "icon": {"prefix": "https://ss3.4sqi.net/img/categories_v2/shops/food_grocery_", "suffix": ".png"}, "primary": true}], "photos": {"count": 0, "groups": []}, "venuePage": {"id": "558120511"}}, "referralId": "e-0-4c1cbeeffcf8c9b6ec7eaa0b-1"}, {"reasons": {"count": 0, "items": [{"summary": "This spot is popular", "type": "general", "reasonName": "globalInteractionReason"}]}, "venue": {"id": "4c2b09cfb34ad13a3524e9ce", "name": "Stadion Friedrichsfelde", "location": {"address": "Zachertstr. 30-50", "lat": 52.504903, "lng": 13.506476, "labeledLatLngs": [{"label": "display", "lat": 52.504903, "lng": 13.506476}], "distance": 718, "postalCode": "10315", "cc": "DE", "city": "Berlin", "state": "Berlin", "country": "Deutschland", "formattedAddress": ["Zachertstr. 30-50", "10315 Berlin", "Deutschland"]}, "categories": [{"id": "4bf58dd8d48988d184941735", "name": "Stadium", "pluralName": "Stadiums", "shortName": "Stadium", "icon": {"prefix": "https://ss3.4sqi.net/img/categories_v2/arts_entertainment/stadium_", "suffix": ".png"}, "primary": true}], "photos": {"count": 0, "groups": []}}, "referralId": "e-0-4c2b09cfb34ad13a3524e9ce-2"}, {"reasons": {"count": 0, "items": [{"summary": "This spot is popular", "type": "general", "reasonName": "globalInteractionReason"}]}, "venue": {"id": "4c5d18632815c928e205b467", "name": "Cafe Nadia + Kosta", "location": {"address": "T\u00fcrrschmidtstr. 31", "crossStreet": "Kaskelstr.", "lat": 52.5034549868093, "lng": 13.482209111636461, "labeledLatLngs": [{"label": "display", "lat": 52.5034549868093, "lng": 13.482209111636461}], "distance": 933, "postalCode": "10317", "cc": "DE", "city": "Berlin", "state": "Berlin", "country": "Deutschland", "formattedAddress": ["T\u00fcrrschmidtstr. 31 (Kaskelstr.)", "10317 Berlin", "Deutschland"]}, "categories": [{"id": "4bf58dd8d48988d16d941735", "name": "Caf\u00e9", "pluralName": "Caf\u00e9s", "shortName": "Caf\u00e9", "icon": {"prefix": "https://ss3.4sqi.net/img/categories_v2/food/cafe_", "suffix": ".png"}, "primary": true}], "photos": {"count": 0, "groups": []}}, "referralId": "e-0-4c5d18632815c928e205b467-3"}, {"reasons": {"count": 0, "items": [{"summary": "This spot is popular", "type": "general", "reasonName": "globalInteractionReason"}]}, "venue": {"id": "4b97e2def964a520b91c35e3", "name": "Jel\u00e4nger Jelieber", "location": {"address": "Kaskelstr. 49", "lat": 52.50367266771752, "lng": 13.481821256153479, "labeledLatLngs": [{"label": "display", "lat": 52.50367266771752, "lng": 13.481821256153479}], "distance": 958, "postalCode": "10317", "cc": "DE", "city": "Berlin", "state": "Berlin", "country": "Deutschland", "formattedAddress": ["Kaskelstr. 49", "10317 Berlin", "Deutschland"]}, "categories": [{"id": "4bf58dd8d48988d10d941735", "name": "German Restaurant", "pluralName": "German Restaurants", "shortName": "German", "icon": {"prefix": "https://ss3.4sqi.net/img/categories_v2/food/german_", "suffix": ".png"}, "primary": true}], "photos": {"count": 0, "groups": []}}, "referralId": "e-0-4b97e2def964a520b91c35e3-4"}, {"reasons": {"count": 0, "items": [{"summary": "This spot is popular", "type": "general", "reasonName": "globalInteractionReason"}]}, "venue": {"id": "51bc52f1498e39a396f73bcd", "name": "Bullet Shop", "location": {"address": "Frankfurter Allee 250", "crossStreet": "Siegfriedstr.", "lat": 52.51180927967621, "lng": 13.498141708115385, "labeledLatLngs": [{"label": "display", "lat": 52.51180927967621, "lng": 13.498141708115385}], "distance": 857, "postalCode": "10365", "cc": "DE", "city": "Berlin", "state": "Berlin", "country": "Deutschland", "formattedAddress": ["Frankfurter Allee 250 (Siegfriedstr.)", "10365 Berlin", "Deutschland"]}, "categories": [{"id": "4bf58dd8d48988d123951735", "name": "Smoke Shop", "pluralName": "Smoke Shops", "shortName": "Smoke Shop", "icon": {"prefix": "https://ss3.4sqi.net/img/categories_v2/shops/tobacco_", "suffix": ".png"}, "primary": true}], "photos": {"count": 0, "groups": []}}, "referralId": "e-0-51bc52f1498e39a396f73bcd-5"}, {"reasons": {"count": 0, "items": [{"summary": "This spot is popular", "type": "general", "reasonName": "globalInteractionReason"}]}, "venue": {"id": "4e96ffbce5e8c81815b6112a", "name": "HoLis", "location": {"address": "W\u00f6nnichstra\u00dfe 69-71", "lat": 52.50439306347737, "lng": 13.497289276195275, "labeledLatLngs": [{"label": "display", "lat": 52.50439306347737, "lng": 13.497289276195275}], "distance": 93, "cc": "DE", "city": "Berlin", "state": "Berlin", "country": "Deutschland", "formattedAddress": ["W\u00f6nnichstra\u00dfe 69-71", "Berlin", "Deutschland"]}, "categories": [{"id": "4bf58dd8d48988d1fa931735", "name": "Hotel", "pluralName": "Hotels", "shortName": "Hotel", "icon": {"prefix": "https://ss3.4sqi.net/img/categories_v2/travel/hotel_", "suffix": ".png"}, "primary": true}], "photos": {"count": 0, "groups": []}}, "referralId": "e-0-4e96ffbce5e8c81815b6112a-6"}, {"reasons": {"count": 0, "items": [{"summary": "This spot is popular", "type": "general", "reasonName": "globalInteractionReason"}]}, "venue": {"id": "5a573bfb5d891b27725654c4", "name": "Ormado Kaffeehaus", "location": {"address": "Einbecker Str. 18", "lat": 52.5103, "lng": 13.501088, "labeledLatLngs": [{"label": "display", "lat": 52.5103, "lng": 13.501088}], "distance": 761, "postalCode": "10317", "cc": "DE", "city": "Berlin", "state": "Berlin", "country": "Deutschland", "formattedAddress": ["Einbecker Str. 18", "10317 Berlin", "Deutschland"]}, "categories": [{"id": "4bf58dd8d48988d1e0931735", "name": "Coffee Shop", "pluralName": "Coffee Shops", "shortName": "Coffee Shop", "icon": {"prefix": "https://ss3.4sqi.net/img/categories_v2/food/coffeeshop_", "suffix": ".png"}, "primary": true}], "photos": {"count": 0, "groups": []}}, "referralId": "e-0-5a573bfb5d891b27725654c4-7"}, {"reasons": {"count": 0, "items": [{"summary": "This spot is popular", "type": "general", "reasonName": "globalInteractionReason"}]}, "venue": {"id": "4b1f5a67f964a520b82524e3", "name": "Caramel Caf\u00e9 B\u00e4ckerei", "location": {"address": "Leopoldstr. 38a", "lat": 52.503190979613976, "lng": 13.486527366266252, "labeledLatLngs": [{"label": "display", "lat": 52.503190979613976, "lng": 13.486527366266252}], "distance": 647, "postalCode": "10317", "cc": "DE", "city": "Berlin", "state": "Berlin", "country": "Deutschland", "formattedAddress": ["Leopoldstr. 38a", "10317 Berlin", "Deutschland"]}, "categories": [{"id": "4bf58dd8d48988d16d941735", "name": "Caf\u00e9", "pluralName": "Caf\u00e9s", "shortName": "Caf\u00e9", "icon": {"prefix": "https://ss3.4sqi.net/img/categories_v2/food/cafe_", "suffix": ".png"}, "primary": true}], "photos": {"count": 0, "groups": []}}, "referralId": "e-0-4b1f5a67f964a520b82524e3-8"}, {"reasons": {"count": 0, "items": [{"summary": "This spot is popular", "type": "general", "reasonName": "globalInteractionReason"}]}, "venue": {"id": "5597bf78498ea6e886bd8ec8", "name": "EDEKA", "location": {"address": "Weitlingstr. 22", "lat": 52.50932707481885, "lng": 13.497750714593456, "labeledLatLngs": [{"label": "display", "lat": 52.50932707481885, "lng": 13.497750714593456}], "distance": 581, "postalCode": "10317", "cc": "DE", "neighborhood": "Weitlingkiez West", "city": "Berlin", "state": "Berlin", "country": "Deutschland", "formattedAddress": ["Weitlingstr. 22", "10317 Berlin", "Deutschland"]}, "categories": [{"id": "52f2ab2ebcbc57f1066b8b46", "name": "Supermarket", "pluralName": "Supermarkets", "shortName": "Supermarket", "icon": {"prefix": "https://ss3.4sqi.net/img/categories_v2/shops/food_grocery_", "suffix": ".png"}, "primary": true}], "photos": {"count": 0, "groups": []}}, "referralId": "e-0-5597bf78498ea6e886bd8ec8-9"}, {"reasons": {"count": 0, "items": [{"summary": "This spot is popular", "type": "general", "reasonName": "globalInteractionReason"}]}, "venue": {"id": "4b33d67cf964a520492025e3", "name": "Il Bufalo", "location": {"address": "Rummelsburger Str. 84", "lat": 52.500933805748176, "lng": 13.497143703696318, "labeledLatLngs": [{"label": "display", "lat": 52.500933805748176, "lng": 13.497143703696318}], "distance": 375, "postalCode": "10315", "cc": "DE", "city": "Berlin", "state": "Berlin", "country": "Deutschland", "formattedAddress": ["Rummelsburger Str. 84", "10315 Berlin", "Deutschland"]}, "categories": [{"id": "4bf58dd8d48988d110941735", "name": "Italian Restaurant", "pluralName": "Italian Restaurants", "shortName": "Italian", "icon": {"prefix": "https://ss3.4sqi.net/img/categories_v2/food/italian_", "suffix": ".png"}, "primary": true}], "photos": {"count": 0, "groups": []}}, "referralId": "e-0-4b33d67cf964a520492025e3-10"}, {"reasons": {"count": 0, "items": [{"summary": "This spot is popular", "type": "general", "reasonName": "globalInteractionReason"}]}, "venue": {"id": "4dd7f15a8877f1150ff63943", "name": "AVCI Bistro", "location": {"address": "Weitlingstr. 24", "lat": 52.50884259706542, "lng": 13.497380018234253, "labeledLatLngs": [{"label": "display", "lat": 52.50884259706542, "lng": 13.497380018234253}], "distance": 523, "postalCode": "10317", "cc": "DE", "city": "Berlin", "state": "Berlin", "country": "Deutschland", "formattedAddress": ["Weitlingstr. 24", "10317 Berlin", "Deutschland"]}, "categories": [{"id": "4bf58dd8d48988d10b941735", "name": "Falafel Restaurant", "pluralName": "Falafel Restaurants", "shortName": "Falafel", "icon": {"prefix": "https://ss3.4sqi.net/img/categories_v2/food/falafel_", "suffix": ".png"}, "primary": true}], "photos": {"count": 0, "groups": []}}, "referralId": "e-0-4dd7f15a8877f1150ff63943-11"}, {"reasons": {"count": 0, "items": [{"summary": "This spot is popular", "type": "general", "reasonName": "globalInteractionReason"}]}, "venue": {"id": "4c685c5973851b8d3977ba39", "name": "Hotel Victoria", "location": {"address": "Kaskelstr. 50", "lat": 52.50370485409452, "lng": 13.481779129218962, "labeledLatLngs": [{"label": "display", "lat": 52.50370485409452, "lng": 13.481779129218962}], "distance": 960, "postalCode": "10317", "cc": "DE", "city": "Berlin", "state": "Berlin", "country": "Deutschland", "formattedAddress": ["Kaskelstr. 50", "10317 Berlin", "Deutschland"]}, "categories": [{"id": "4bf58dd8d48988d1fa931735", "name": "Hotel", "pluralName": "Hotels", "shortName": "Hotel", "icon": {"prefix": "https://ss3.4sqi.net/img/categories_v2/travel/hotel_", "suffix": ".png"}, "primary": true}], "photos": {"count": 0, "groups": []}, "venuePage": {"id": "55264006"}}, "referralId": "e-0-4c685c5973851b8d3977ba39-12"}, {"reasons": {"count": 0, "items": [{"summary": "This spot is popular", "type": "general", "reasonName": "globalInteractionReason"}]}, "venue": {"id": "4e6b1f76ae60950955c964da", "name": "K\u00eeez B\u00e4ckere\u00ee", "location": {"address": "Zachertstr. 14", "lat": 52.50659871700232, "lng": 13.503078466591223, "labeledLatLngs": [{"label": "display", "lat": 52.50659871700232, "lng": 13.503078466591223}], "distance": 551, "postalCode": "10315", "cc": "DE", "city": "Berlin", "state": "Berlin", "country": "Deutschland", "formattedAddress": ["Zachertstr. 14", "10315 Berlin", "Deutschland"]}, "categories": [{"id": "4bf58dd8d48988d16a941735", "name": "Bakery", "pluralName": "Bakeries", "shortName": "Bakery", "icon": {"prefix": "https://ss3.4sqi.net/img/categories_v2/food/bakery_", "suffix": ".png"}, "primary": true}], "photos": {"count": 0, "groups": []}}, "referralId": "e-0-4e6b1f76ae60950955c964da-13"}, {"reasons": {"count": 0, "items": [{"summary": "This spot is popular", "type": "general", "reasonName": "globalInteractionReason"}]}, "venue": {"id": "4c610b26048b9521ede74078", "name": "Rossmann", "location": {"address": "Weitlingstr. 22", "lat": 52.50942376214189, "lng": 13.497594594955444, "labeledLatLngs": [{"label": "display", "lat": 52.50942376214189, "lng": 13.497594594955444}], "distance": 589, "postalCode": "10317", "cc": "DE", "city": "Berlin", "state": "Berlin", "country": "Deutschland", "formattedAddress": ["Weitlingstr. 22", "10317 Berlin", "Deutschland"]}, "categories": [{"id": "5745c2e4498e11e7bccabdbd", "name": "Drugstore", "pluralName": "Drugstores", "shortName": "Drugstore", "icon": {"prefix": "https://ss3.4sqi.net/img/categories_v2/shops/pharmacy_", "suffix": ".png"}, "primary": true}], "photos": {"count": 0, "groups": []}}, "referralId": "e-0-4c610b26048b9521ede74078-14"}, {"reasons": {"count": 0, "items": [{"summary": "This spot is popular", "type": "general", "reasonName": "globalInteractionReason"}]}, "venue": {"id": "4d98ca952bd6f04d52ac7050", "name": "Caf\u00e9 Backfee", "location": {"address": "Weitlingstr. 33", "crossStreet": "Margaretenstr.", "lat": 52.508102371109466, "lng": 13.497157602459549, "labeledLatLngs": [{"label": "display", "lat": 52.508102371109466, "lng": 13.497157602459549}], "distance": 439, "postalCode": "10317", "cc": "DE", "city": "Berlin", "state": "Berlin", "country": "Deutschland", "formattedAddress": ["Weitlingstr. 33 (Margaretenstr.)", "10317 Berlin", "Deutschland"]}, "categories": [{"id": "4bf58dd8d48988d16a941735", "name": "Bakery", "pluralName": "Bakeries", "shortName": "Bakery", "icon": {"prefix": "https://ss3.4sqi.net/img/categories_v2/food/bakery_", "suffix": ".png"}, "primary": true}], "photos": {"count": 0, "groups": []}}, "referralId": "e-0-4d98ca952bd6f04d52ac7050-15"}, {"reasons": {"count": 0, "items": [{"summary": "This spot is popular", "type": "general", "reasonName": "globalInteractionReason"}]}, "venue": {"id": "4dac2708cda1652a2bb12e59", "name": "Pizzeria \u201cLedi\u201d", "location": {"address": "Weitlingstr. 28", "lat": 52.50850387020215, "lng": 13.497361592632318, "labeledLatLngs": [{"label": "display", "lat": 52.50850387020215, "lng": 13.497361592632318}], "distance": 486, "postalCode": "10317", "cc": "DE", "city": "Berlin", "state": "Berlin", "country": "Deutschland", "formattedAddress": ["Weitlingstr. 28", "10317 Berlin", "Deutschland"]}, "categories": [{"id": "4bf58dd8d48988d1ca941735", "name": "Pizza Place", "pluralName": "Pizza Places", "shortName": "Pizza", "icon": {"prefix": "https://ss3.4sqi.net/img/categories_v2/food/pizza_", "suffix": ".png"}, "primary": true}], "photos": {"count": 0, "groups": []}}, "referralId": "e-0-4dac2708cda1652a2bb12e59-16"}, {"reasons": {"count": 0, "items": [{"summary": "This spot is popular", "type": "general", "reasonName": "globalInteractionReason"}]}, "venue": {"id": "4b1a89f8f964a520dceb23e3", "name": "Kaufland", "location": {"address": "Sewanstr. 4, 6", "crossStreet": "Rummelsburger Str.", "lat": 52.49968634202692, "lng": 13.49704247578207, "labeledLatLngs": [{"label": "display", "lat": 52.49968634202692, "lng": 13.49704247578207}], "distance": 510, "postalCode": "10319", "cc": "DE", "city": "Berlin", "state": "Berlin", "country": "Deutschland", "formattedAddress": ["Sewanstr. 4, 6 (Rummelsburger Str.)", "10319 Berlin", "Deutschland"]}, "categories": [{"id": "52f2ab2ebcbc57f1066b8b42", "name": "Big Box Store", "pluralName": "Big Box Stores", "shortName": "Big Box Store", "icon": {"prefix": "https://ss3.4sqi.net/img/categories_v2/shops/default_", "suffix": ".png"}, "primary": true}], "photos": {"count": 0, "groups": []}, "venuePage": {"id": "454565087"}}, "referralId": "e-0-4b1a89f8f964a520dceb23e3-17"}, {"reasons": {"count": 0, "items": [{"summary": "This spot is popular", "type": "general", "reasonName": "globalInteractionReason"}]}, "venue": {"id": "4c52d45bf31a9c7411c685ea", "name": "REWE", "location": {"address": "Volkradstra\u00dfe 32", "lat": 52.49966833004774, "lng": 13.507872929162772, "labeledLatLngs": [{"label": "display", "lat": 52.49966833004774, "lng": 13.507872929162772}], "distance": 954, "postalCode": "10319", "cc": "DE", "city": "Berlin", "state": "Berlin", "country": "Deutschland", "formattedAddress": ["Volkradstra\u00dfe 32", "10319 Berlin", "Deutschland"]}, "categories": [{"id": "52f2ab2ebcbc57f1066b8b46", "name": "Supermarket", "pluralName": "Supermarkets", "shortName": "Supermarket", "icon": {"prefix": "https://ss3.4sqi.net/img/categories_v2/shops/food_grocery_", "suffix": ".png"}, "primary": true}], "photos": {"count": 0, "groups": []}, "venuePage": {"id": "557862933"}}, "referralId": "e-0-4c52d45bf31a9c7411c685ea-18"}, {"reasons": {"count": 0, "items": [{"summary": "This spot is popular", "type": "general", "reasonName": "globalInteractionReason"}]}, "venue": {"id": "4c23229d9085d13a3c6487cc", "name": "M\u00fcnsterlandplatz", "location": {"address": "M\u00fcnsterlandplatz", "lat": 52.50386646464709, "lng": 13.495652675628662, "labeledLatLngs": [{"label": "display", "lat": 52.50386646464709, "lng": 13.495652675628662}], "distance": 43, "postalCode": "10317", "cc": "DE", "city": "Berlin", "state": "Berlin", "country": "Deutschland", "formattedAddress": ["M\u00fcnsterlandplatz", "10317 Berlin", "Deutschland"]}, "categories": [{"id": "4bf58dd8d48988d163941735", "name": "Park", "pluralName": "Parks", "shortName": "Park", "icon": {"prefix": "https://ss3.4sqi.net/img/categories_v2/parks_outdoors/park_", "suffix": ".png"}, "primary": true}], "photos": {"count": 0, "groups": []}}, "referralId": "e-0-4c23229d9085d13a3c6487cc-19"}, {"reasons": {"count": 0, "items": [{"summary": "This spot is popular", "type": "general", "reasonName": "globalInteractionReason"}]}, "venue": {"id": "4d890c5dbc848cface2cba2b", "name": "Weitling-Apotheke", "location": {"address": "Weitlingstr. 58", "lat": 52.5061879, "lng": 13.4957373, "labeledLatLngs": [{"label": "display", "lat": 52.5061879, "lng": 13.4957373}], "distance": 219, "postalCode": "10317", "cc": "DE", "city": "Berlin", "state": "Berlin", "country": "Deutschland", "formattedAddress": ["Weitlingstr. 58", "10317 Berlin", "Deutschland"]}, "categories": [{"id": "4bf58dd8d48988d10f951735", "name": "Pharmacy", "pluralName": "Pharmacies", "shortName": "Pharmacy", "icon": {"prefix": "https://ss3.4sqi.net/img/categories_v2/shops/pharmacy_", "suffix": ".png"}, "primary": true}], "photos": {"count": 0, "groups": []}}, "referralId": "e-0-4d890c5dbc848cface2cba2b-20"}, {"reasons": {"count": 0, "items": [{"summary": "This spot is popular", "type": "general", "reasonName": "globalInteractionReason"}]}, "venue": {"id": "4b282cd6f964a520469024e3", "name": "Centies - 1,30\u20ac-Imbiss", "location": {"address": "S-Bahnhof Lichtenberg", "lat": 52.51070997431704, "lng": 13.499844080628792, "labeledLatLngs": [{"label": "display", "lat": 52.51070997431704, "lng": 13.499844080628792}], "distance": 769, "postalCode": "10317", "cc": "DE", "neighborhood": "Weitlingkiez West", "city": "Berlin", "state": "Berlin", "country": "Deutschland", "formattedAddress": ["S-Bahnhof Lichtenberg", "10317 Berlin", "Deutschland"]}, "categories": [{"id": "4bf58dd8d48988d10d941735", "name": "German Restaurant", "pluralName": "German Restaurants", "shortName": "German", "icon": {"prefix": "https://ss3.4sqi.net/img/categories_v2/food/german_", "suffix": ".png"}, "primary": true}], "photos": {"count": 0, "groups": []}}, "referralId": "e-0-4b282cd6f964a520469024e3-21"}, {"reasons": {"count": 0, "items": [{"summary": "This spot is popular", "type": "general", "reasonName": "globalInteractionReason"}]}, "venue": {"id": "55b791f1498e538abc260cf7", "name": "Eis Kaffee Im Weitlingkiez (Barletta-Eis)", "location": {"address": "Margaretenstr. 27", "lat": 52.507944069391726, "lng": 13.49742744711661, "labeledLatLngs": [{"label": "display", "lat": 52.507944069391726, "lng": 13.49742744711661}], "distance": 426, "postalCode": "10317", "cc": "DE", "city": "Berlin", "state": "Berlin", "country": "Deutschland", "formattedAddress": ["Margaretenstr. 27", "10317 Berlin", "Deutschland"]}, "categories": [{"id": "4bf58dd8d48988d1e0931735", "name": "Coffee Shop", "pluralName": "Coffee Shops", "shortName": "Coffee Shop", "icon": {"prefix": "https://ss3.4sqi.net/img/categories_v2/food/coffeeshop_", "suffix": ".png"}, "primary": true}], "photos": {"count": 0, "groups": []}}, "referralId": "e-0-55b791f1498e538abc260cf7-22"}, {"reasons": {"count": 0, "items": [{"summary": "This spot is popular", "type": "general", "reasonName": "globalInteractionReason"}]}, "venue": {"id": "4c1376598aedd13a05785137", "name": "Lidl", "location": {"address": "Einbecker Str. 57", "lat": 52.5094817, "lng": 13.5067321, "labeledLatLngs": [{"label": "display", "lat": 52.5094817, "lng": 13.5067321}], "distance": 937, "postalCode": "10315", "cc": "DE", "city": "Berlin", "state": "Berlin", "country": "Deutschland", "formattedAddress": ["Einbecker Str. 57", "10315 Berlin", "Deutschland"]}, "categories": [{"id": "52f2ab2ebcbc57f1066b8b46", "name": "Supermarket", "pluralName": "Supermarkets", "shortName": "Supermarket", "icon": {"prefix": "https://ss3.4sqi.net/img/categories_v2/shops/food_grocery_", "suffix": ".png"}, "primary": true}], "photos": {"count": 0, "groups": []}, "venuePage": {"id": "575274651"}}, "referralId": "e-0-4c1376598aedd13a05785137-23"}, {"reasons": {"count": 0, "items": [{"summary": "This spot is popular", "type": "general", "reasonName": "globalInteractionReason"}]}, "venue": {"id": "57a31d52498ec8031e9b999a", "name": "OBI", "location": {"address": "Buchberger Str. 5", "lat": 52.51030039267615, "lng": 13.492010235786438, "labeledLatLngs": [{"label": "display", "lat": 52.51030039267615, "lng": 13.492010235786438}], "distance": 726, "postalCode": "10365", "cc": "DE", "city": "Berlin", "state": "Berlin", "country": "Deutschland", "formattedAddress": ["Buchberger Str. 5", "10365 Berlin-Lichtenberg", "Deutschland"]}, "categories": [{"id": "4bf58dd8d48988d112951735", "name": "Hardware Store", "pluralName": "Hardware Stores", "shortName": "Hardware", "icon": {"prefix": "https://ss3.4sqi.net/img/categories_v2/shops/hardware_", "suffix": ".png"}, "primary": true}], "photos": {"count": 0, "groups": []}}, "referralId": "e-0-57a31d52498ec8031e9b999a-24"}, {"reasons": {"count": 0, "items": [{"summary": "This spot is popular", "type": "general", "reasonName": "globalInteractionReason"}]}, "venue": {"id": "4bd9b70d0115c9b683547880", "name": "Lidl", "location": {"address": "Frankfurter Allee 212", "lat": 52.51117441796975, "lng": 13.492068383357037, "labeledLatLngs": [{"label": "display", "lat": 52.51117441796975, "lng": 13.492068383357037}], "distance": 817, "postalCode": "10365", "cc": "DE", "city": "Berlin", "state": "Berlin", "country": "Deutschland", "formattedAddress": ["Frankfurter Allee 212", "10365 Berlin", "Deutschland"]}, "categories": [{"id": "52f2ab2ebcbc57f1066b8b46", "name": "Supermarket", "pluralName": "Supermarkets", "shortName": "Supermarket", "icon": {"prefix": "https://ss3.4sqi.net/img/categories_v2/shops/food_grocery_", "suffix": ".png"}, "primary": true}], "photos": {"count": 0, "groups": []}, "venuePage": {"id": "573268209"}}, "referralId": "e-0-4bd9b70d0115c9b683547880-25"}, {"reasons": {"count": 0, "items": [{"summary": "This spot is popular", "type": "general", "reasonName": "globalInteractionReason"}]}, "venue": {"id": "50c46e94e4b0f9a0d87bcb8e", "name": "B\u00e4ckerei Leopold", "location": {"address": "Leopoldstr. 22", "crossStreet": "Emanuelstr.", "lat": 52.502054977437155, "lng": 13.490931544492323, "labeledLatLngs": [{"label": "display", "lat": 52.502054977437155, "lng": 13.490931544492323}], "distance": 415, "postalCode": "10317", "cc": "DE", "city": "Berlin", "state": "Berlin", "country": "Deutschland", "formattedAddress": ["Leopoldstr. 22 (Emanuelstr.)", "10317 Berlin", "Deutschland"]}, "categories": [{"id": "4bf58dd8d48988d16a941735", "name": "Bakery", "pluralName": "Bakeries", "shortName": "Bakery", "icon": {"prefix": "https://ss3.4sqi.net/img/categories_v2/food/bakery_", "suffix": ".png"}, "primary": true}], "photos": {"count": 0, "groups": []}}, "referralId": "e-0-50c46e94e4b0f9a0d87bcb8e-26"}, {"reasons": {"count": 0, "items": [{"summary": "This spot is popular", "type": "general", "reasonName": "globalInteractionReason"}]}, "venue": {"id": "4d2ca173915fa093c721210a", "name": "Coco's Asia & Sushi Spezialit\u00e4ten", "location": {"address": "Weitlingstra\u00dfe 23", "lat": 52.508653, "lng": 13.497171, "labeledLatLngs": [{"label": "display", "lat": 52.508653, "lng": 13.497171}], "distance": 500, "postalCode": "10317", "cc": "DE", "city": "Berlin", "state": "Berlin", "country": "Deutschland", "formattedAddress": ["Weitlingstra\u00dfe 23", "10317 Berlin", "Deutschland"]}, "categories": [{"id": "4bf58dd8d48988d142941735", "name": "Asian Restaurant", "pluralName": "Asian Restaurants", "shortName": "Asian", "icon": {"prefix": "https://ss3.4sqi.net/img/categories_v2/food/asian_", "suffix": ".png"}, "primary": true}], "photos": {"count": 0, "groups": []}}, "referralId": "e-0-4d2ca173915fa093c721210a-27"}, {"reasons": {"count": 0, "items": [{"summary": "This spot is popular", "type": "general", "reasonName": "globalInteractionReason"}]}, "venue": {"id": "54dec4a9498edc3a983873af", "name": "LOTTO, TABAK, PRESSE, ADAM", "location": {"address": "Sewanstr. 2", "lat": 52.49979, "lng": 13.49536, "labeledLatLngs": [{"label": "display", "lat": 52.49979, "lng": 13.49536}], "distance": 494, "postalCode": "10319", "cc": "DE", "city": "Berlin", "state": "Berlin", "country": "Deutschland", "formattedAddress": ["Sewanstr. 2", "10319 Berlin", "Deutschland"]}, "categories": [{"id": "4bf58dd8d48988d1ff941735", "name": "Miscellaneous Shop", "pluralName": "Miscellaneous Shops", "shortName": "Shop", "icon": {"prefix": "https://ss3.4sqi.net/img/categories_v2/shops/default_", "suffix": ".png"}, "primary": true}], "photos": {"count": 0, "groups": []}}, "referralId": "e-0-54dec4a9498edc3a983873af-28"}, {"reasons": {"count": 0, "items": [{"summary": "This spot is popular", "type": "general", "reasonName": "globalInteractionReason"}]}, "venue": {"id": "5299c829498e02ea6afedda1", "name": "PENNY", "location": {"address": "Weitlingstra\u00dfe 9", "crossStreet": "W\u00f6nnichstr.", "lat": 52.51006055926029, "lng": 13.499127876537386, "labeledLatLngs": [{"label": "display", "lat": 52.51006055926029, "lng": 13.499127876537386}], "distance": 685, "postalCode": "10317", "cc": "DE", "city": "Berlin", "state": "Berlin", "country": "Deutschland", "formattedAddress": ["Weitlingstra\u00dfe 9 (W\u00f6nnichstr.)", "10317 Berlin", "Deutschland"]}, "categories": [{"id": "52f2ab2ebcbc57f1066b8b46", "name": "Supermarket", "pluralName": "Supermarkets", "shortName": "Supermarket", "icon": {"prefix": "https://ss3.4sqi.net/img/categories_v2/shops/food_grocery_", "suffix": ".png"}, "primary": true}], "photos": {"count": 0, "groups": []}, "venuePage": {"id": "560105682"}}, "referralId": "e-0-5299c829498e02ea6afedda1-29"}, {"reasons": {"count": 0, "items": [{"summary": "This spot is popular", "type": "general", "reasonName": "globalInteractionReason"}]}, "venue": {"id": "4ca344e4554b236a1d182548", "name": "Sportplatz Fischerstra\u00dfe", "location": {"address": "Fischerstr. 15", "lat": 52.49938501589499, "lng": 13.490060989022515, "labeledLatLngs": [{"label": "display", "lat": 52.49938501589499, "lng": 13.490060989022515}], "distance": 669, "postalCode": "10317", "cc": "DE", "city": "Berlin", "state": "Berlin", "country": "Deutschland", "formattedAddress": ["Fischerstr. 15", "10317 Berlin", "Deutschland"]}, "categories": [{"id": "4cce455aebf7b749d5e191f5", "name": "Soccer Field", "pluralName": "Soccer Fields", "shortName": "Soccer Field", "icon": {"prefix": "https://ss3.4sqi.net/img/categories_v2/arts_entertainment/stadium_soccer_", "suffix": ".png"}, "primary": true}], "photos": {"count": 0, "groups": []}}, "referralId": "e-0-4ca344e4554b236a1d182548-30"}, {"reasons": {"count": 0, "items": [{"summary": "This spot is popular", "type": "general", "reasonName": "globalInteractionReason"}]}, "venue": {"id": "4ed50b1029c2bbe66182984f", "name": "Jufuhaus Berlin", "location": {"address": "Sewanstra\u00dfe 43", "lat": 52.498515140536846, "lng": 13.502365122176217, "labeledLatLngs": [{"label": "display", "lat": 52.498515140536846, "lng": 13.502365122176217}], "distance": 770, "cc": "DE", "city": "Berlin", "state": "Berlin", "country": "Deutschland", "formattedAddress": ["Sewanstra\u00dfe 43", "Berlin", "Deutschland"]}, "categories": [{"id": "4bf58dd8d48988d171941735", "name": "Event Space", "pluralName": "Event Spaces", "shortName": "Event Space", "icon": {"prefix": "https://ss3.4sqi.net/img/categories_v2/building/eventspace_", "suffix": ".png"}, "primary": true}], "photos": {"count": 0, "groups": []}}, "referralId": "e-0-4ed50b1029c2bbe66182984f-31"}, {"reasons": {"count": 0, "items": [{"summary": "This spot is popular", "type": "general", "reasonName": "globalInteractionReason"}]}, "venue": {"id": "53b62a19498e02ac539e8083", "name": "Lichtenberg Kanzlei", "location": {"address": "Frankfurter Allee 244", "lat": 52.511685072753615, "lng": 13.49652381973093, "labeledLatLngs": [{"label": "display", "lat": 52.511685072753615, "lng": 13.49652381973093}], "distance": 831, "postalCode": "10365", "cc": "DE", "city": "Berlin", "state": "Berlin", "country": "Deutschland", "formattedAddress": ["Frankfurter Allee 244", "10365 Berlin", "Deutschland"]}, "categories": [{"id": "52f2ab2ebcbc57f1066b8b3f", "name": "Lawyer", "pluralName": "Lawyers", "shortName": "Lawyer", "icon": {"prefix": "https://ss3.4sqi.net/img/categories_v2/education/lawschool_", "suffix": ".png"}, "primary": true}], "photos": {"count": 0, "groups": []}, "venuePage": {"id": "89597000"}}, "referralId": "e-0-53b62a19498e02ac539e8083-32"}, {"reasons": {"count": 0, "items": [{"summary": "This spot is popular", "type": "general", "reasonName": "globalInteractionReason"}]}, "venue": {"id": "5023e9fae4b01a8c9c15e086", "name": "Kiez Shop", "location": {"address": "Frankfurter Allee 248", "lat": 52.51197250061232, "lng": 13.497179391966117, "labeledLatLngs": [{"label": "display", "lat": 52.51197250061232, "lng": 13.497179391966117}], "distance": 866, "postalCode": "10365", "cc": "DE", "city": "Berlin", "state": "Berlin", "country": "Deutschland", "formattedAddress": ["Frankfurter Allee 248", "10365 Berlin", "Deutschland"]}, "categories": [{"id": "4d954b0ea243a5684a65b473", "name": "Convenience Store", "pluralName": "Convenience Stores", "shortName": "Convenience Store", "icon": {"prefix": "https://ss3.4sqi.net/img/categories_v2/shops/conveniencestore_", "suffix": ".png"}, "primary": true}], "photos": {"count": 0, "groups": []}}, "referralId": "e-0-5023e9fae4b01a8c9c15e086-33"}, {"reasons": {"count": 0, "items": [{"summary": "This spot is popular", "type": "general", "reasonName": "globalInteractionReason"}]}, "venue": {"id": "4d7659f5ec646dcb0003fa10", "name": "Netto Filiale", "location": {"address": "Sewanstr. 44", "lat": 52.49751976, "lng": 13.50301545, "labeledLatLngs": [{"label": "display", "lat": 52.49751976, "lng": 13.50301545}], "distance": 887, "postalCode": "10319", "cc": "DE", "city": "Berlin", "state": "Berlin", "country": "Deutschland", "formattedAddress": ["Sewanstr. 44", "10319 Berlin", "Deutschland"]}, "categories": [{"id": "52f2ab2ebcbc57f1066b8b46", "name": "Supermarket", "pluralName": "Supermarkets", "shortName": "Supermarket", "icon": {"prefix": "https://ss3.4sqi.net/img/categories_v2/shops/food_grocery_", "suffix": ".png"}, "primary": true}], "photos": {"count": 0, "groups": []}, "venuePage": {"id": "538529477"}}, "referralId": "e-0-4d7659f5ec646dcb0003fa10-34"}, {"reasons": {"count": 0, "items": [{"summary": "This spot is popular", "type": "general", "reasonName": "globalInteractionReason"}]}, "venue": {"id": "52bebd5d498efb004e943c28", "name": "Grillhaus", "location": {"lat": 52.511952694158225, "lng": 13.49208511852145, "labeledLatLngs": [{"label": "display", "lat": 52.511952694158225, "lng": 13.49208511852145}], "distance": 899, "cc": "DE", "city": "Berlin", "state": "Berlin", "country": "Deutschland", "formattedAddress": ["Berlin", "Deutschland"]}, "categories": [{"id": "5283c7b4e4b094cb91ec88d8", "name": "Doner Restaurant", "pluralName": "Doner Restaurants", "shortName": "Doner", "icon": {"prefix": "https://ss3.4sqi.net/img/categories_v2/food/turkish_", "suffix": ".png"}, "primary": true}], "photos": {"count": 0, "groups": []}}, "referralId": "e-0-52bebd5d498efb004e943c28-35"}, {"reasons": {"count": 0, "items": [{"summary": "This spot is popular", "type": "general", "reasonName": "globalInteractionReason"}]}, "venue": {"id": "5048ad29e4b06096d291b72c", "name": "H S+U Lichtenberg / Gudrunstra\u00dfe", "location": {"address": "Gudrunstr.", "lat": 52.512319678045834, "lng": 13.49995493888855, "labeledLatLngs": [{"label": "display", "lat": 52.512319678045834, "lng": 13.49995493888855}], "distance": 941, "postalCode": "10365", "cc": "DE", "city": "Berlin", "state": "Berlin", "country": "Deutschland", "formattedAddress": ["Gudrunstr.", "10365 Berlin", "Deutschland"]}, "categories": [{"id": "52f2ab2ebcbc57f1066b8b51", "name": "Tram Station", "pluralName": "Tram Stations", "shortName": "Tram", "icon": {"prefix": "https://ss3.4sqi.net/img/categories_v2/travel/trainstation_", "suffix": ".png"}, "primary": true}], "photos": {"count": 0, "groups": []}}, "referralId": "e-0-5048ad29e4b06096d291b72c-36"}, {"reasons": {"count": 0, "items": [{"summary": "This spot is popular", "type": "general", "reasonName": "globalInteractionReason"}]}, "venue": {"id": "4c52d575f31a9c7472ee85ea", "name": "PENNY", "location": {"address": "Volkradstra\u00dfe 32", "lat": 52.499747407910476, "lng": 13.507807989485741, "labeledLatLngs": [{"label": "display", "lat": 52.499747407910476, "lng": 13.507807989485741}], "distance": 946, "postalCode": "10319", "cc": "DE", "city": "Berlin", "state": "Berlin", "country": "Deutschland", "formattedAddress": ["Volkradstra\u00dfe 32", "10319 Berlin", "Deutschland"]}, "categories": [{"id": "4bf58dd8d48988d1ff941735", "name": "Miscellaneous Shop", "pluralName": "Miscellaneous Shops", "shortName": "Shop", "icon": {"prefix": "https://ss3.4sqi.net/img/categories_v2/shops/default_", "suffix": ".png"}, "primary": true}], "photos": {"count": 0, "groups": []}, "venuePage": {"id": "478953875"}}, "referralId": "e-0-4c52d575f31a9c7472ee85ea-37"}, {"reasons": {"count": 0, "items": [{"summary": "This spot is popular", "type": "general", "reasonName": "globalInteractionReason"}]}, "venue": {"id": "4f9c0270e4b020e60f6450e7", "name": "SV Bau-Union", "location": {"lat": 52.49602854527168, "lng": 13.499891972909655, "labeledLatLngs": [{"label": "display", "lat": 52.49602854527168, "lng": 13.499891972909655}], "distance": 950, "cc": "DE", "city": "Berlin", "state": "Berlin", "country": "Deutschland", "formattedAddress": ["Berlin", "Deutschland"]}, "categories": [{"id": "4cce455aebf7b749d5e191f5", "name": "Soccer Field", "pluralName": "Soccer Fields", "shortName": "Soccer Field", "icon": {"prefix": "https://ss3.4sqi.net/img/categories_v2/arts_entertainment/stadium_soccer_", "suffix": ".png"}, "primary": true}], "photos": {"count": 0, "groups": []}}, "referralId": "e-0-4f9c0270e4b020e60f6450e7-38"}, {"reasons": {"count": 0, "items": [{"summary": "This spot is popular", "type": "general", "reasonName": "globalInteractionReason"}]}, "venue": {"id": "4e96cc9602d5458d04964c71", "name": "Fressnapf Berlin-Friedrichsfelde", "location": {"address": "Volkradstr. 32", "lat": 52.4994461, "lng": 13.5077105, "labeledLatLngs": [{"label": "display", "lat": 52.4994461, "lng": 13.5077105}], "distance": 959, "postalCode": "10319", "cc": "DE", "city": "Berlin", "state": "Berlin", "country": "Deutschland", "formattedAddress": ["Volkradstr. 32", "10319 Berlin", "Deutschland"]}, "categories": [{"id": "4bf58dd8d48988d100951735", "name": "Pet Store", "pluralName": "Pet Stores", "shortName": "Pet Store", "icon": {"prefix": "https://ss3.4sqi.net/img/categories_v2/shops/pet_store_", "suffix": ".png"}, "primary": true}], "photos": {"count": 0, "groups": []}, "venuePage": {"id": "474700787"}}, "referralId": "e-0-4e96cc9602d5458d04964c71-39"}, {"reasons": {"count": 0, "items": [{"summary": "This spot is popular", "type": "general", "reasonName": "globalInteractionReason"}]}, "venue": {"id": "4e7ae92b31519f9efaac4780", "name": "Alte Mensa", "location": {"address": "Atzpodienstr. 45-46", "lat": 52.51283347322645, "lng": 13.492613752661969, "labeledLatLngs": [{"label": "display", "lat": 52.51283347322645, "lng": 13.492613752661969}], "distance": 984, "postalCode": "10365", "cc": "DE", "city": "Berlin", "state": "Berlin", "country": "Deutschland", "formattedAddress": ["Atzpodienstr. 45-46", "10365 Berlin", "Deutschland"]}, "categories": [{"id": "4bf58dd8d48988d128941735", "name": "Cafeteria", "pluralName": "Cafeterias", "shortName": "Cafeteria", "icon": {"prefix": "https://ss3.4sqi.net/img/categories_v2/education/cafeteria_", "suffix": ".png"}, "primary": true}], "photos": {"count": 0, "groups": []}}, "referralId": "e-0-4e7ae92b31519f9efaac4780-40"}, {"reasons": {"count": 0, "items": [{"summary": "This spot is popular", "type": "general", "reasonName": "globalInteractionReason"}]}, "venue": {"id": "5194bf8e498eb1ac87bad032", "name": "Pizza 1889", "location": {"address": "Frankfurter Allee 199", "lat": 52.51228625392272, "lng": 13.489401479859673, "labeledLatLngs": [{"label": "display", "lat": 52.51228625392272, "lng": 13.489401479859673}], "distance": 1000, "postalCode": "10365", "cc": "DE", "city": "Berlin", "state": "Berlin", "country": "Deutschland", "formattedAddress": ["Frankfurter Allee 199", "10365 Berlin", "Deutschland"]}, "categories": [{"id": "4bf58dd8d48988d1ca941735", "name": "Pizza Place", "pluralName": "Pizza Places", "shortName": "Pizza", "icon": {"prefix": "https://ss3.4sqi.net/img/categories_v2/food/pizza_", "suffix": ".png"}, "primary": true}], "photos": {"count": 0, "groups": []}}, "referralId": "e-0-5194bf8e498eb1ac87bad032-41"}]