[{"reasons": {"count": 0, "items": [{"summary": "This spot is popular", "type": "general", "reasonName": "globalInteractionReason"}]}, "venue": {"id": "4bd0832f462cb713807dd807", "name": "Restaurant Mylos", "location": {"address": "Holtzendorffstra\u00dfe 20", "crossStreet": "Kantstr.", "lat": 52.50665592481844, "lng": 13.29586185518644, "labeledLatLngs": [{"label": "display", "lat": 52.50665592481844, "lng": 13.29586185518644}], "distance": 192, "postalCode": "14057", "cc": "DE", "city": "Berlin", "state": "Berlin", "country": "Deutschland", "formattedAddress": ["Holtzendorffstra\u00dfe 20 (Kantstr.)", "14057 Berlin", "Deutschland"]}, "categories": [{"id": "4bf58dd8d48988d10e941735", "name": "Greek Restaurant", "pluralName": "Greek Restaurants", "shortName": "Greek", "icon": {"prefix": "https://ss3.4sqi.net/img/categories_v2/food/greek_", "suffix": ".png"}, "primary": true}], "photos": {"count": 0, "groups": []}}, "referralId": "e-0-4bd0832f462cb713807dd807-0"}, {"reasons": {"count": 0, "items": [{"summary": "This spot is popular", "type": "general", "reasonName": "globalInteractionReason"}]}, "venue": {"id": "57ee42d1cd10bbfcf51e755e", "name": "Restaurant Bruderherz", "location": {"address": "Leonhardtstr. 6", "lat": 52.505409, "lng": 13.29732, "labeledLatLngs": [{"label": "display", "lat": 52.505409, "lng": 13.29732}], "distance": 231, "postalCode": "14057", "cc": "DE", "city": "Berlin", "state": "Berlin", "country": "Deutschland", "formattedAddress": ["Leonhardtstr. 6", "14057 Berlin", "Deutschland"]}, "categories": [{"id": "4bf58dd8d48988d110941735", "name": "Italian Restaurant", "pluralName": "Italian Restaurants", "shortName": "Italian", "icon": {"prefix": "https://ss3.4sqi.net/img/categories_v2/food/italian_", "suffix": ".png"}, "primary": true}], "photos": {"count": 0, "groups": []}}, "referralId": "e-0-57ee42d1cd10bbfcf51e755e-1"}, {"reasons": {"count": 0, "items": [{"summary": "This spot is popular", "type": "general", "reasonName": "globalInteractionReason"}]}, "venue": {"id": "575fe01c498e419b124ab1c6", "name": "Kim's Ha", "location": {"address": "Kantstr. 87", "lat": 52.50677, "lng": 13.296732, "labeledLatLngs": [{"label": "display", "lat": 52.50677, "lng": 13.296732}], "distance": 245, "postalCode": "10627", "cc": "DE", "city": "Berlin", "state": "Berlin", "country": "Deutschland", "formattedAddress": ["Kantstr. 87", "10627 Berlin", "Deutschland"]}, "categories": [{"id": "4bf58dd8d48988d14a941735", "name": "Vietnamese Restaurant", "pluralName": "Vietnamese Restaurants", "shortName": "Vietnamese", "icon": {"prefix": "https://ss3.4sqi.net/img/categories_v2/food/vietnamese_", "suffix": ".png"}, "primary": true}], "photos": {"count": 0, "groups": []}}, "referralId": "e-0-575fe01c498e419b124ab1c6-2"}, {"reasons": {"count": 0, "items": [{"summary": "This spot is popular", "type": "general", "reasonName": "globalInteractionReason"}]}, "venue": {"id": "4b79b6a9f964a520f30c2fe3", "name": "Viet-Frisch", "location": {"address": "Kantstr. 83", "lat": 52.506882942099715, "lng": 13.296460534808906, "labeledLatLngs": [{"label": "display", "lat": 52.506882942099715, "lng": 13.296460534808906}], "distance": 239, "postalCode": "10627", "cc": "DE", "city": "Berlin", "state": "Berlin", "country": "Deutschland", "formattedAddress": ["Kantstr. 83", "10627 Berlin", "Deutschland"]}, "categories": [{"id": "4bf58dd8d48988d14a941735", "name": "Vietnamese Restaurant", "pluralName": "Vietnamese Restaurants", "shortName": "Vietnamese", "icon": {"prefix": "https://ss3.4sqi.net/img/categories_v2/food/vietnamese_", "suffix": ".png"}, "primary": true}], "photos": {"count": 0, "groups": []}}, "referralId": "e-0-4b79b6a9f964a520f30c2fe3-3"}, {"reasons": {"count": 0, "items": [{"summary": "This spot is popular", "type": "general", "reasonName": "globalInteractionReason"}]}, "venue": {"id": "4f55ff23e4b02285fde67bf3", "name": "Bistro La Piadina", "location": {"address": "Leonhardtstr. 7", "lat": 52.50524332546432, "lng": 13.297149747203653, "labeledLatLngs": [{"label": "display", "lat": 52.50524332546432, "lng": 13.297149747203653}], "distance": 221, "postalCode": "14057", "cc": "DE", "city": "Berlin", "state": "Berlin", "country": "Deutschland", "formattedAddress": ["Leonhardtstr. 7", "14057 Berlin", "Deutschland"]}, "categories": [{"id": "4bf58dd8d48988d110941735", "name": "Italian Restaurant", "pluralName": "Italian Restaurants", "shortName": "Italian", "icon": {"prefix": "https://ss3.4sqi.net/img/categories_v2/food/italian_", "suffix": ".png"}, "primary": true}], "photos": {"count": 0, "groups": []}}, "referralId": "e-0-4f55ff23e4b02285fde67bf3-4"}, {"reasons": {"count": 0, "items": [{"summary": "This spot is popular", "type": "general", "reasonName": "globalInteractionReason"}]}, "venue": {"id": "56c0d4edcd108fea476666ab", "name": "Osteria Ferrari", "location": {"address": "Holtzendorffstra\u00dfe 1", "lat": 52.504822, "lng": 13.294882, "labeledLatLngs": [{"label": "display", "lat": 52.504822, "lng": 13.294882}], "distance": 92, "postalCode": "14057", "cc": "DE", "city": "Berlin", "state": "Berlin", "country": "Deutschland", "formattedAddress": ["Holtzendorffstra\u00dfe 1", "14057 Berlin", "Deutschland"]}, "categories": [{"id": "55a5a1ebe4b013909087cb7f", "name": "Trattoria/Osteria", "pluralName": "Trattorias/Osterias", "shortName": "Trattoria/Osteria", "icon": {"prefix": "https://ss3.4sqi.net/img/categories_v2/food/italian_", "suffix": ".png"}, "primary": true}], "photos": {"count": 0, "groups": []}}, "referralId": "e-0-56c0d4edcd108fea476666ab-5"}, {"reasons": {"count": 0, "items": [{"summary": "This spot is popular", "type": "general", "reasonName": "globalInteractionReason"}]}, "venue": {"id": "4bf7c7115efe2d7f707e6934", "name": "Feines aus \u00d6sterreich", "location": {"address": "Leonhardtstr. 11", "lat": 52.505482594126384, "lng": 13.296532270472747, "labeledLatLngs": [{"label": "display", "lat": 52.505482594126384, "lng": 13.296532270472747}], "distance": 178, "postalCode": "14057", "cc": "DE", "city": "Berlin", "state": "Berlin", "country": "Deutschland", "formattedAddress": ["Leonhardtstr. 11", "14057 Berlin", "Deutschland"]}, "categories": [{"id": "4bf58dd8d48988d10d941735", "name": "German Restaurant", "pluralName": "German Restaurants", "shortName": "German", "icon": {"prefix": "https://ss3.4sqi.net/img/categories_v2/food/german_", "suffix": ".png"}, "primary": true}], "photos": {"count": 0, "groups": []}}, "referralId": "e-0-4bf7c7115efe2d7f707e6934-6"}, {"reasons": {"count": 0, "items": [{"summary": "This spot is popular", "type": "general", "reasonName": "globalInteractionReason"}]}, "venue": {"id": "4c8d0a66ed3ab60cd0e86c21", "name": "Masala", "location": {"address": "Friedbergstr.  38", "crossStreet": "Suarezstr.", "lat": 52.50382822039338, "lng": 13.291889035946289, "labeledLatLngs": [{"label": "display", "lat": 52.50382822039338, "lng": 13.291889035946289}], "distance": 221, "postalCode": "14057", "cc": "DE", "city": "Berlin", "state": "Berlin", "country": "Deutschland", "formattedAddress": ["Friedbergstr.  38 (Suarezstr.)", "14057 Berlin", "Deutschland"]}, "categories": [{"id": "4bf58dd8d48988d10f941735", "name": "Indian Restaurant", "pluralName": "Indian Restaurants", "shortName": "Indian", "icon": {"prefix": "https://ss3.4sqi.net/img/categories_v2/food/indian_", "suffix": ".png"}, "primary": true}], "photos": {"count": 0, "groups": []}}, "referralId": "e-0-4c8d0a66ed3ab60cd0e86c21-7"}, {"reasons": {"count": 0, "items": [{"summary": "This spot is popular", "type": "general", "reasonName": "globalInteractionReason"}]}, "venue": {"id": "4c1895401436a593ce848d75", "name": "de maufel", "location": {"address": "Leonhardtstr. 13", "lat": 52.5056485910849, "lng": 13.296108012331544, "labeledLatLngs": [{"label": "display", "lat": 52.5056485910849, "lng": 13.296108012331544}], "distance": 152, "postalCode": "14057", "cc": "DE", "city": "Berlin", "state": "Berlin", "country": "Deutschland", "formattedAddress": ["Leonhardtstr. 13", "14057 Berlin", "Deutschland"]}, "categories": [{"id": "4bf58dd8d48988d16d941735", "name": "Caf\u00e9", "pluralName": "Caf\u00e9s", "shortName": "Caf\u00e9", "icon": {"prefix": "https://ss3.4sqi.net/img/categories_v2/food/cafe_", "suffix": ".png"}, "primary": true}], "photos": {"count": 0, "groups": []}}, "referralId": "e-0-4c1895401436a593ce848d75-8"}, {"reasons": {"count": 0, "items": [{"summary": "This spot is popular", "type": "general", "reasonName": "globalInteractionReason"}]}, "venue": {"id": "4f74d4dee4b00a080e4e3908", "name": "Lietzenseepark", "location": {"address": "Neue Kantstr.", "crossStreet": "Herbartstr.", "lat": 52.50519871279926, "lng": 13.286676406860352, "labeledLatLngs": [{"label": "display", "lat": 52.50519871279926, "lng": 13.286676406860352}], "distance": 489, "postalCode": "14057", "cc": "DE", "city": "Berlin", "state": "Berlin", "country": "Deutschland", "formattedAddress": ["Neue Kantstr. (Herbartstr.)", "14057 Berlin", "Deutschland"]}, "categories": [{"id": "4bf58dd8d48988d163941735", "name": "Park", "pluralName": "Parks", "shortName": "Park", "icon": {"prefix": "https://ss3.4sqi.net/img/categories_v2/parks_outdoors/park_", "suffix": ".png"}, "primary": true}], "photos": {"count": 0, "groups": []}}, "referralId": "e-0-4f74d4dee4b00a080e4e3908-9"}, {"reasons": {"count": 0, "items": [{"summary": "This spot is popular", "type": "general", "reasonName": "globalInteractionReason"}]}, "venue": {"id": "4b25ddb4f964a520037724e3", "name": "Windback Caf\u00e9", "location": {"address": "Windscheidstr. 19", "lat": 52.50552644887643, "lng": 13.299626310564486, "labeledLatLngs": [{"label": "display", "lat": 52.50552644887643, "lng": 13.299626310564486}], "distance": 388, "postalCode": "10627", "cc": "DE", "city": "Berlin", "state": "Berlin", "country": "Deutschland", "formattedAddress": ["Windscheidstr. 19", "10627 Berlin", "Deutschland"]}, "categories": [{"id": "4bf58dd8d48988d16d941735", "name": "Caf\u00e9", "pluralName": "Caf\u00e9s", "shortName": "Caf\u00e9", "icon": {"prefix": "https://ss3.4sqi.net/img/categories_v2/food/cafe_", "suffix": ".png"}, "primary": true}], "photos": {"count": 0, "groups": []}}, "referralId": "e-0-4b25ddb4f964a520037724e3-10"}, {"reasons": {"count": 0, "items": [{"summary": "This spot is popular", "type": "general", "reasonName": "globalInteractionReason"}]}, "venue": {"id": "4af4646df964a52005f221e3", "name": "Engelbecken", "location": {"address": "Witzlebenstr. 31", "lat": 52.508681368405625, "lng": 13.293996299854804, "labeledLatLngs": [{"label": "display", "lat": 52.508681368405625, "lng": 13.293996299854804}], "distance": 365, "postalCode": "14057", "cc": "DE", "city": "Berlin", "state": "Berlin", "country": "Deutschland", "formattedAddress": ["Witzlebenstr. 31", "14057 Berlin", "Deutschland"]}, "categories": [{"id": "4bf58dd8d48988d10d941735", "name": "German Restaurant", "pluralName": "German Restaurants", "shortName": "German", "icon": {"prefix": "https://ss3.4sqi.net/img/categories_v2/food/german_", "suffix": ".png"}, "primary": true}], "photos": {"count": 0, "groups": []}}, "referralId": "e-0-4af4646df964a52005f221e3-11"}, {"reasons": {"count": 0, "items": [{"summary": "This spot is popular", "type": "general", "reasonName": "globalInteractionReason"}]}, "venue": {"id": "4adcda8ff964a520e24a21e3", "name": "Salumeria da Pino Puglisi", "location": {"address": "Windscheidstr. 20", "lat": 52.505012, "lng": 13.300167, "labeledLatLngs": [{"label": "display", "lat": 52.505012, "lng": 13.300167}], "distance": 426, "postalCode": "10627", "cc": "DE", "neighborhood": "Charlottenburg", "city": "Berlin", "state": "Berlin", "country": "Deutschland", "formattedAddress": ["Windscheidstr. 20", "10627 Berlin", "Deutschland"]}, "categories": [{"id": "4bf58dd8d48988d110941735", "name": "Italian Restaurant", "pluralName": "Italian Restaurants", "shortName": "Italian", "icon": {"prefix": "https://ss3.4sqi.net/img/categories_v2/food/italian_", "suffix": ".png"}, "primary": true}], "photos": {"count": 0, "groups": []}}, "referralId": "e-0-4adcda8ff964a520e24a21e3-12"}, {"reasons": {"count": 0, "items": [{"summary": "This spot is popular", "type": "general", "reasonName": "globalInteractionReason"}]}, "venue": {"id": "52669c6811d27222cf3b4934", "name": "Weingalerie - Weine aus PORTugal", "location": {"address": "Pestalozzistr. 55", "lat": 52.507923, "lng": 13.297061, "labeledLatLngs": [{"label": "display", "lat": 52.507923, "lng": 13.297061}], "distance": 353, "postalCode": "10627", "cc": "DE", "city": "Berlin", "state": "Berlin", "country": "Deutschland", "formattedAddress": ["Pestalozzistr. 55", "10627 Berlin", "Deutschland"]}, "categories": [{"id": "4bf58dd8d48988d119951735", "name": "Wine Shop", "pluralName": "Wine Shops", "shortName": "Wine Shop", "icon": {"prefix": "https://ss3.4sqi.net/img/categories_v2/shops/food_wineshop_", "suffix": ".png"}, "primary": true}], "photos": {"count": 0, "groups": []}}, "referralId": "e-0-52669c6811d27222cf3b4934-13"}, {"reasons": {"count": 0, "items": [{"summary": "This spot is popular", "type": "general", "reasonName": "globalInteractionReason"}]}, "venue": {"id": "4e52ae33b0fbfe59e9da18b7", "name": "Insonne", "location": {"address": "Windscheidstr. 22", "lat": 52.505605, "lng": 13.299947, "labeledLatLngs": [{"label": "display", "lat": 52.505605, "lng": 13.299947}], "distance": 410, "postalCode": "10627", "cc": "DE", "city": "Berlin", "state": "Berlin", "country": "Deutschland", "formattedAddress": ["Windscheidstr. 22", "10627 Berlin", "Deutschland"]}, "categories": [{"id": "4bf58dd8d48988d16d941735", "name": "Caf\u00e9", "pluralName": "Caf\u00e9s", "shortName": "Caf\u00e9", "icon": {"prefix": "https://ss3.4sqi.net/img/categories_v2/food/cafe_", "suffix": ".png"}, "primary": true}], "photos": {"count": 0, "groups": []}}, "referralId": "e-0-4e52ae33b0fbfe59e9da18b7-14"}, {"reasons": {"count": 0, "items": [{"summary": "This spot is popular", "type": "general", "reasonName": "globalInteractionReason"}]}, "venue": {"id": "5221b40911d2fdf814072aac", "name": "Lamaz\u00e8re", "location": {"address": "Stuttgarter Platz 18", "lat": 52.50503796880791, "lng": 13.300587213632856, "labeledLatLngs": [{"label": "display", "lat": 52.50503796880791, "lng": 13.300587213632856}], "distance": 455, "postalCode": "14057", "cc": "DE", "city": "Berlin", "state": "Berlin", "country": "Deutschland", "formattedAddress": ["Stuttgarter Platz 18", "14057 Berlin", "Deutschland"]}, "categories": [{"id": "4bf58dd8d48988d10c941735", "name": "French Restaurant", "pluralName": "French Restaurants", "shortName": "French", "icon": {"prefix": "https://ss3.4sqi.net/img/categories_v2/food/french_", "suffix": ".png"}, "primary": true}], "photos": {"count": 0, "groups": []}, "venuePage": {"id": "120238568"}}, "referralId": "e-0-5221b40911d2fdf814072aac-15"}, {"reasons": {"count": 0, "items": [{"summary": "This spot is popular", "type": "general", "reasonName": "globalInteractionReason"}]}, "venue": {"id": "4e21e5c6b61cdcf1ecc2c153", "name": "Windburger", "location": {"address": "Windscheidstr. 26", "lat": 52.506104498133325, "lng": 13.299420639496601, "labeledLatLngs": [{"label": "display", "lat": 52.506104498133325, "lng": 13.299420639496601}], "distance": 382, "postalCode": "10627", "cc": "DE", "city": "Berlin", "state": "Berlin", "country": "Deutschland", "formattedAddress": ["Windscheidstr. 26", "10627 Berlin", "Deutschland"]}, "categories": [{"id": "4bf58dd8d48988d16c941735", "name": "Burger Joint", "pluralName": "Burger Joints", "shortName": "Burgers", "icon": {"prefix": "https://ss3.4sqi.net/img/categories_v2/food/burger_", "suffix": ".png"}, "primary": true}], "photos": {"count": 0, "groups": []}}, "referralId": "e-0-4e21e5c6b61cdcf1ecc2c153-16"}, {"reasons": {"count": 0, "items": [{"summary": "This spot is popular", "type": "general", "reasonName": "globalInteractionReason"}]}, "venue": {"id": "4ba4c7caf964a52025b438e3", "name": "Aux D\u00e9lices Normands", "location": {"address": "Neue Kantstra\u00dfe 26", "lat": 52.506650525238435, "lng": 13.291369435155955, "labeledLatLngs": [{"label": "display", "lat": 52.506650525238435, "lng": 13.291369435155955}], "distance": 220, "postalCode": "14057", "cc": "DE", "city": "Berlin", "state": "Berlin", "country": "Deutschland", "formattedAddress": ["Neue Kantstra\u00dfe 26", "14057 Berlin", "Deutschland"]}, "categories": [{"id": "4bf58dd8d48988d16a941735", "name": "Bakery", "pluralName": "Bakeries", "shortName": "Bakery", "icon": {"prefix": "https://ss3.4sqi.net/img/categories_v2/food/bakery_", "suffix": ".png"}, "primary": true}], "photos": {"count": 0, "groups": []}}, "referralId": "e-0-4ba4c7caf964a52025b438e3-17"}, {"reasons": {"count": 0, "items": [{"summary": "This spot is popular", "type": "general", "reasonName": "globalInteractionReason"}]}, "venue": {"id": "4b0ff9def964a520f16623e3", "name": "Aspria Berlin Ku'damm", "location": {"address": "Karlsruher Str. 20", "lat": 52.500596831344865, "lng": 13.294458872154213, "labeledLatLngs": [{"label": "display", "lat": 52.500596831344865, "lng": 13.294458872154213}], "distance": 536, "postalCode": "10711", "cc": "DE", "city": "Berlin", "state": "Berlin", "country": "Deutschland", "formattedAddress": ["Karlsruher Str. 20", "10711 Berlin", "Deutschland"]}, "categories": [{"id": "4bf58dd8d48988d1fa931735", "name": "Hotel", "pluralName": "Hotels", "shortName": "Hotel", "icon": {"prefix": "https://ss3.4sqi.net/img/categories_v2/travel/hotel_", "suffix": ".png"}, "primary": true}], "photos": {"count": 0, "groups": []}, "venuePage": {"id": "126021694"}}, "referralId": "e-0-4b0ff9def964a520f16623e3-18"}, {"reasons": {"count": 0, "items": [{"summary": "This spot is popular", "type": "general", "reasonName": "globalInteractionReason"}]}, "venue": {"id": "4b7725eef964a5204a822ee3", "name": "Focaccino", "location": {"address": "Stuttgarter Platz 16", "lat": 52.505348, "lng": 13.301255, "labeledLatLngs": [{"label": "display", "lat": 52.505348, "lng": 13.301255}], "distance": 498, "postalCode": "10627", "cc": "DE", "city": "Berlin", "state": "Berlin", "country": "Deutschland", "formattedAddress": ["Stuttgarter Platz 16", "10627 Berlin", "Deutschland"]}, "categories": [{"id": "4bf58dd8d48988d110941735", "name": "Italian Restaurant", "pluralName": "Italian Restaurants", "shortName": "Italian", "icon": {"prefix": "https://ss3.4sqi.net/img/categories_v2/food/italian_", "suffix": ".png"}, "primary": true}], "photos": {"count": 0, "groups": []}, "venuePage": {"id": "170141208"}}, "referralId": "e-0-4b7725eef964a5204a822ee3-19"}, {"reasons": {"count": 0, "items": [{"summary": "This spot is popular", "type": "general", "reasonName": "globalInteractionReason"}]}, "venue": {"id": "4c1385b1a5eb76b0ae03c0b7", "name": "Stella Alpina Trattoria Ristorante", "location": {"address": "Suarezstra\u00dfe 4", "lat": 52.509949, "lng": 13.296558, "labeledLatLngs": [{"label": "display", "lat": 52.509949, "lng": 13.296558}], "distance": 537, "postalCode": "14057", "cc": "DE", "city": "Berlin", "state": "Berlin", "country": "Deutschland", "formattedAddress": ["Suarezstra\u00dfe 4", "14057 Berlin", "Deutschland"]}, "categories": [{"id": "55a5a1ebe4b013909087cb7f", "name": "Trattoria/Osteria", "pluralName": "Trattorias/Osterias", "shortName": "Trattoria/Osteria", "icon": {"prefix": "https://ss3.4sqi.net/img/categories_v2/food/italian_", "suffix": ".png"}, "primary": true}], "photos": {"count": 0, "groups": []}}, "referralId": "e-0-4c1385b1a5eb76b0ae03c0b7-20"}, {"reasons": {"count": 0, "items": [{"summary": "This spot is popular", "type": "general", "reasonName": "globalInteractionReason"}]}, "venue": {"id": "51abbe38498ecb834df7a39c", "name": "Galander -Charlottenburg-", "location": {"address": "Stuttgarter Platz 15", "lat": 52.505336390251884, "lng": 13.301601535489002, "labeledLatLngs": [{"label": "display", "lat": 52.505336390251884, "lng": 13.301601535489002}], "distance": 521, "postalCode": "10627", "cc": "DE", "city": "Berlin", "state": "Berlin", "country": "Deutschland", "formattedAddress": ["Stuttgarter Platz 15", "10627 Berlin", "Deutschland"]}, "categories": [{"id": "4bf58dd8d48988d11e941735", "name": "Cocktail Bar", "pluralName": "Cocktail Bars", "shortName": "Cocktail", "icon": {"prefix": "https://ss3.4sqi.net/img/categories_v2/nightlife/cocktails_", "suffix": ".png"}, "primary": true}], "photos": {"count": 0, "groups": []}}, "referralId": "e-0-51abbe38498ecb834df7a39c-21"}, {"reasons": {"count": 0, "items": [{"summary": "This spot is popular", "type": "general", "reasonName": "globalInteractionReason"}]}, "venue": {"id": "5356adc8498e865604ce122e", "name": "Creplala", "location": {"address": "Kantstr. 85a", "lat": 52.50673327697425, "lng": 13.295745108539542, "labeledLatLngs": [{"label": "display", "lat": 52.50673327697425, "lng": 13.295745108539542}], "distance": 193, "cc": "DE", "city": "Berlin", "state": "Berlin", "country": "Deutschland", "formattedAddress": ["Kantstr. 85a", "Berlin", "Deutschland"]}, "categories": [{"id": "52e81612bcbc57f1066b79f2", "name": "Creperie", "pluralName": "Creperies", "shortName": "Creperie", "icon": {"prefix": "https://ss3.4sqi.net/img/categories_v2/food/creperie_", "suffix": ".png"}, "primary": true}], "photos": {"count": 0, "groups": []}}, "referralId": "e-0-5356adc8498e865604ce122e-22"}, {"reasons": {"count": 0, "items": [{"summary": "This spot is popular", "type": "general", "reasonName": "globalInteractionReason"}]}, "venue": {"id": "59af921c3abcaf60f5331aec", "name": "Aspria Club", "location": {"lat": 52.50053575307469, "lng": 13.294352316766721, "labeledLatLngs": [{"label": "display", "lat": 52.50053575307469, "lng": 13.294352316766721}], "distance": 542, "cc": "DE", "country": "Deutschland", "formattedAddress": ["Deutschland"]}, "categories": [{"id": "4bf58dd8d48988d175941735", "name": "Gym / Fitness Center", "pluralName": "Gyms or Fitness Centers", "shortName": "Gym / Fitness", "icon": {"prefix": "https://ss3.4sqi.net/img/categories_v2/building/gym_", "suffix": ".png"}, "primary": true}], "photos": {"count": 0, "groups": []}}, "referralId": "e-0-59af921c3abcaf60f5331aec-23"}, {"reasons": {"count": 0, "items": [{"summary": "This spot is popular", "type": "general", "reasonName": "globalInteractionReason"}]}, "venue": {"id": "50424623e4b0b9943e5347bb", "name": "B\u00ean Th\u00e2nh", "location": {"address": "Kantstr. 78", "lat": 52.50692662893887, "lng": 13.297841352574395, "labeledLatLngs": [{"label": "display", "lat": 52.50692662893887, "lng": 13.297841352574395}], "distance": 316, "postalCode": "10627", "cc": "DE", "city": "Berlin", "state": "Berlin", "country": "Deutschland", "formattedAddress": ["Kantstr. 78", "10627 Berlin", "Deutschland"]}, "categories": [{"id": "4bf58dd8d48988d14a941735", "name": "Vietnamese Restaurant", "pluralName": "Vietnamese Restaurants", "shortName": "Vietnamese", "icon": {"prefix": "https://ss3.4sqi.net/img/categories_v2/food/vietnamese_", "suffix": ".png"}, "primary": true}], "photos": {"count": 0, "groups": []}}, "referralId": "e-0-50424623e4b0b9943e5347bb-24"}, {"reasons": {"count": 0, "items": [{"summary": "This spot is popular", "type": "general", "reasonName": "globalInteractionReason"}]}, "venue": {"id": "5835849914250b703bf84c9a", "name": "Lotus", "location": {"address": "Kantstr. 70", "crossStreet": "Fritschestr.", "lat": 52.506851419144446, "lng": 13.300907989008453, "labeledLatLngs": [{"label": "display", "lat": 52.506851419144446, "lng": 13.300907989008453}], "distance": 501, "postalCode": "10627", "cc": "DE", "neighborhood": "Charlottenburg", "city": "Berlin", "state": "Berlin", "country": "Deutschland", "formattedAddress": ["Kantstr. 70 (Fritschestr.)", "10627 Berlin", "Deutschland"]}, "categories": [{"id": "4bf58dd8d48988d10f941735", "name": "Indian Restaurant", "pluralName": "Indian Restaurants", "shortName": "Indian", "icon": {"prefix": "https://ss3.4sqi.net/img/categories_v2/food/indian_", "suffix": ".png"}, "primary": true}], "photos": {"count": 0, "groups": []}}, "referralId": "e-0-5835849914250b703bf84c9a-25"}, {"reasons": {"count": 0, "items": [{"summary": "This spot is popular", "type": "general", "reasonName": "globalInteractionReason"}]}, "venue": {"id": "4bc99754937ca593af00a692", "name": "Bootshaus Stella am Lietzensee", "location": {"address": "Witzlebenplatz 1", "lat": 52.50871848046555, "lng": 13.29255974476357, "labeledLatLngs": [{"label": "display", "lat": 52.50871848046555, "lng": 13.29255974476357}], "distance": 380, "postalCode": "14057", "cc": "DE", "city": "Berlin", "state": "Berlin", "country": "Deutschland", "formattedAddress": ["Witzlebenplatz 1", "14057 Berlin", "Deutschland"]}, "categories": [{"id": "4bf58dd8d48988d16d941735", "name": "Caf\u00e9", "pluralName": "Caf\u00e9s", "shortName": "Caf\u00e9", "icon": {"prefix": "https://ss3.4sqi.net/img/categories_v2/food/cafe_", "suffix": ".png"}, "primary": true}], "photos": {"count": 0, "groups": []}}, "referralId": "e-0-4bc99754937ca593af00a692-26"}, {"reasons": {"count": 0, "items": [{"summary": "This spot is popular", "type": "general", "reasonName": "globalInteractionReason"}]}, "venue": {"id": "4adcda6ef964a520cd4421e3", "name": "Ringhotel Seehof Berlin", "location": {"address": "Lietzenseeufer 11", "lat": 52.506933492118385, "lng": 13.289182771862976, "labeledLatLngs": [{"label": "display", "lat": 52.506933492118385, "lng": 13.289182771862976}], "distance": 362, "postalCode": "14057", "cc": "DE", "city": "Berlin", "state": "Berlin", "country": "Deutschland", "formattedAddress": ["Lietzenseeufer 11", "14057 Berlin", "Deutschland"]}, "categories": [{"id": "4bf58dd8d48988d1fa931735", "name": "Hotel", "pluralName": "Hotels", "shortName": "Hotel", "icon": {"prefix": "https://ss3.4sqi.net/img/categories_v2/travel/hotel_", "suffix": ".png"}, "primary": true}], "photos": {"count": 0, "groups": []}}, "referralId": "e-0-4adcda6ef964a520cd4421e3-27"}, {"reasons": {"count": 0, "items": [{"summary": "This spot is popular", "type": "general", "reasonName": "globalInteractionReason"}]}, "venue": {"id": "4b59ec07f964a52014a128e3", "name": "Lokahi Loft", "location": {"address": "Joachim-Friedrich-Str. 37/38", "lat": 52.499588819225195, "lng": 13.295801812973512, "labeledLatLngs": [{"label": "display", "lat": 52.499588819225195, "lng": 13.295801812973512}], "distance": 659, "postalCode": "10711", "cc": "DE", "city": "Berlin", "state": "Berlin", "country": "Deutschland", "formattedAddress": ["Joachim-Friedrich-Str. 37/38", "10711 Berlin", "Deutschland"]}, "categories": [{"id": "4bf58dd8d48988d175941735", "name": "Gym / Fitness Center", "pluralName": "Gyms or Fitness Centers", "shortName": "Gym / Fitness", "icon": {"prefix": "https://ss3.4sqi.net/img/categories_v2/building/gym_", "suffix": ".png"}, "primary": true}], "photos": {"count": 0, "groups": []}}, "referralId": "e-0-4b59ec07f964a52014a128e3-28"}, {"reasons": {"count": 0, "items": [{"summary": "This spot is popular", "type": "general", "reasonName": "globalInteractionReason"}]}, "venue": {"id": "4e73813518386b46492a9b0c", "name": "LPG BioMarkt", "location": {"address": "Kaiserdamm 12", "lat": 52.510717956320896, "lng": 13.289613026038973, "labeledLatLngs": [{"label": "display", "lat": 52.510717956320896, "lng": 13.289613026038973}], "distance": 659, "postalCode": "14057", "cc": "DE", "city": "Berlin", "state": "Berlin", "country": "Deutschland", "formattedAddress": ["Kaiserdamm 12", "14057 Berlin", "Deutschland"]}, "categories": [{"id": "52f2ab2ebcbc57f1066b8b45", "name": "Organic Grocery", "pluralName": "Organic Groceries", "shortName": "Organic Grocery", "icon": {"prefix": "https://ss3.4sqi.net/img/categories_v2/shops/food_grocery_", "suffix": ".png"}, "primary": true}], "photos": {"count": 0, "groups": []}}, "referralId": "e-0-4e73813518386b46492a9b0c-29"}, {"reasons": {"count": 0, "items": [{"summary": "This spot is popular", "type": "general", "reasonName": "globalInteractionReason"}]}, "venue": {"id": "535e5bcc498ec83eb5c6e534", "name": "Salumeria Rosa", "location": {"address": "Neue Kantstr. 25", "crossStreet": "Trendelenburgstr.", "lat": 52.50651132957601, "lng": 13.291000127792358, "labeledLatLngs": [{"label": "display", "lat": 52.50651132957601, "lng": 13.291000127792358}], "distance": 231, "postalCode": "14057", "cc": "DE", "city": "Berlin-Charlottenburg", "state": "Berlin", "country": "Deutschland", "formattedAddress": ["Neue Kantstr. 25 (Trendelenburgstr.)", "14057 Berlin-Charlottenburg", "Deutschland"]}, "categories": [{"id": "4bf58dd8d48988d146941735", "name": "Deli / Bodega", "pluralName": "Delis / Bodegas", "shortName": "Deli / Bodega", "icon": {"prefix": "https://ss3.4sqi.net/img/categories_v2/food/deli_", "suffix": ".png"}, "primary": true}], "photos": {"count": 0, "groups": []}}, "referralId": "e-0-535e5bcc498ec83eb5c6e534-30"}, {"reasons": {"count": 0, "items": [{"summary": "This spot is popular", "type": "general", "reasonName": "globalInteractionReason"}]}, "venue": {"id": "570bf32e498e870fd5fc5d90", "name": "Zen House", "location": {"address": "Kantstr. 71", "lat": 52.506839, "lng": 13.300144, "labeledLatLngs": [{"label": "display", "lat": 52.506839, "lng": 13.300144}], "distance": 452, "postalCode": "10627", "cc": "DE", "city": "Charlottenburg", "state": "Berlin", "country": "Deutschland", "formattedAddress": ["Kantstr. 71", "10627 Charlottenburg", "Deutschland"]}, "categories": [{"id": "4bf58dd8d48988d1d3941735", "name": "Vegetarian / Vegan Restaurant", "pluralName": "Vegetarian / Vegan Restaurants", "shortName": "Vegetarian / Vegan", "icon": {"prefix": "https://ss3.4sqi.net/img/categories_v2/food/vegetarian_", "suffix": ".png"}, "primary": true}], "photos": {"count": 0, "groups": []}}, "referralId": "e-0-570bf32e498e870fd5fc5d90-31"}, {"reasons": {"count": 0, "items": [{"summary": "This spot is popular", "type": "general", "reasonName": "globalInteractionReason"}]}, "venue": {"id": "4e71c3a98877dff6bceef8aa", "name": "Caf\u00e9 Magnifique", "location": {"address": "Damaschkestr. 36", "lat": 52.50145357797107, "lng": 13.297037230792036, "labeledLatLngs": [{"label": "display", "lat": 52.50145357797107, "lng": 13.297037230792036}], "distance": 488, "postalCode": "10711", "cc": "DE", "city": "Berlin", "state": "Berlin", "country": "Deutschland", "formattedAddress": ["Damaschkestr. 36", "10711 Berlin", "Deutschland"]}, "categories": [{"id": "4bf58dd8d48988d16d941735", "name": "Caf\u00e9", "pluralName": "Caf\u00e9s", "shortName": "Caf\u00e9", "icon": {"prefix": "https://ss3.4sqi.net/img/categories_v2/food/cafe_", "suffix": ".png"}, "primary": true}], "photos": {"count": 0, "groups": []}}, "referralId": "e-0-4e71c3a98877dff6bceef8aa-32"}, {"reasons": {"count": 0, "items": [{"summary": "This spot is popular", "type": "general", "reasonName": "globalInteractionReason"}]}, "venue": {"id": "528b8f70498ec85f24e2c6e5", "name": "Rossmann", "location": {"address": "Kurf\u00fcrstendamm 143", "lat": 52.498270053599185, "lng": 13.297967646988942, "labeledLatLngs": [{"label": "display", "lat": 52.498270053599185, "lng": 13.297967646988942}], "distance": 840, "postalCode": "10709", "cc": "DE", "city": "Berlin", "state": "Berlin", "country": "Deutschland", "formattedAddress": ["Kurf\u00fcrstendamm 143", "10709 Berlin", "Deutschland"]}, "categories": [{"id": "5745c2e4498e11e7bccabdbd", "name": "Drugstore", "pluralName": "Drugstores", "shortName": "Drugstore", "icon": {"prefix": "https://ss3.4sqi.net/img/categories_v2/shops/pharmacy_", "suffix": ".png"}, "primary": true}], "photos": {"count": 0, "groups": []}}, "referralId": "e-0-528b8f70498ec85f24e2c6e5-33"}, {"reasons": {"count": 0, "items": [{"summary": "This spot is popular", "type": "general", "reasonName": "globalInteractionReason"}]}, "venue": {"id": "5662b4d1498e22046910eb23", "name": "Goldhahn & Sampson", "location": {"address": "Wilmersdorfer Str. 102", "lat": 52.50389113594047, "lng": 13.307557139405183, "labeledLatLngs": [{"label": "display", "lat": 52.50389113594047, "lng": 13.307557139405183}], "distance": 940, "postalCode": "10629", "cc": "DE", "city": "Berlin", "state": "Berlin", "country": "Deutschland", "formattedAddress": ["Wilmersdorfer Str. 102", "10629 Berlin", "Deutschland"]}, "categories": [{"id": "4bf58dd8d48988d1f5941735", "name": "Gourmet Shop", "pluralName": "Gourmet Shops", "shortName": "Gourmet", "icon": {"prefix": "https://ss3.4sqi.net/img/categories_v2/shops/food_gourmet_", "suffix": ".png"}, "primary": true}], "photos": {"count": 0, "groups": []}}, "referralId": "e-0-5662b4d1498e22046910eb23-34"}, {"reasons": {"count": 0, "items": [{"summary": "This spot is popular", "type": "general", "reasonName": "globalInteractionReason"}]}, "venue": {"id": "4adcda8af964a520bb4921e3", "name": "Schaub\u00fchne am Lehniner Platz", "location": {"address": "Kurf\u00fcrstendamm 153", "lat": 52.49893053247921, "lng": 13.302726330794998, "labeledLatLngs": [{"label": "display", "lat": 52.49893053247921, "lng": 13.302726330794998}], "distance": 936, "postalCode": "10709", "cc": "DE", "city": "Berlin", "state": "Berlin", "country": "Deutschland", "formattedAddress": ["Kurf\u00fcrstendamm 153", "10709 Berlin", "Deutschland"]}, "categories": [{"id": "4bf58dd8d48988d137941735", "name": "Theater", "pluralName": "Theaters", "shortName": "Theater", "icon": {"prefix": "https://ss3.4sqi.net/img/categories_v2/arts_entertainment/performingarts_theater_", "suffix": ".png"}, "primary": true}], "photos": {"count": 0, "groups": []}}, "referralId": "e-0-4adcda8af964a520bb4921e3-35"}, {"reasons": {"count": 0, "items": [{"summary": "This spot is popular", "type": "general", "reasonName": "globalInteractionReason"}]}, "venue": {"id": "51388ca7e4b00126badf4d42", "name": "denn's Biomarkt", "location": {"address": "Kaiserdamm 112", "lat": 52.510634823275055, "lng": 13.293376697083344, "labeledLatLngs": [{"label": "display", "lat": 52.510634823275055, "lng": 13.293376697083344}], "distance": 583, "postalCode": "14057", "cc": "DE", "city": "Berlin", "state": "Berlin", "country": "Deutschland", "formattedAddress": ["Kaiserdamm 112", "14057 Berlin", "Deutschland"]}, "categories": [{"id": "52f2ab2ebcbc57f1066b8b45", "name": "Organic Grocery", "pluralName": "Organic Groceries", "shortName": "Organic Grocery", "icon": {"prefix": "https://ss3.4sqi.net/img/categories_v2/shops/food_grocery_", "suffix": ".png"}, "primary": true}], "photos": {"count": 0, "groups": []}}, "referralId": "e-0-51388ca7e4b00126badf4d42-36"}, {"reasons": {"count": 0, "items": [{"summary": "This spot is popular", "type": "general", "reasonName": "globalInteractionReason"}]}, "venue": {"id": "524586bb11d29c8347bfe9b7", "name": "Samakki Talad Thai", "location": {"address": "Kaiser-Friedrich-Stra\u00dfe 41", "lat": 52.508965, "lng": 13.30171, "labeledLatLngs": [{"label": "display", "lat": 52.508965, "lng": 13.30171}], "distance": 661, "cc": "DE", "city": "Berlin", "state": "Berlin", "country": "Deutschland", "formattedAddress": ["Kaiser-Friedrich-Stra\u00dfe 41", "Berlin", "Deutschland"]}, "categories": [{"id": "4bf58dd8d48988d149941735", "name": "Thai Restaurant", "pluralName": "Thai Restaurants", "shortName": "Thai", "icon": {"prefix": "https://ss3.4sqi.net/img/categories_v2/food/thai_", "suffix": ".png"}, "primary": true}], "photos": {"count": 0, "groups": []}}, "referralId": "e-0-524586bb11d29c8347bfe9b7-37"}, {"reasons": {"count": 0, "items": [{"summary": "This spot is popular", "type": "general", "reasonName": "globalInteractionReason"}]}, "venue": {"id": "4d1369d437f1236a561e811b", "name": "Vietnam Imbiss", "location": {"address": "Damaschkestr. 30", "lat": 52.50105953288178, "lng": 13.297947420274483, "labeledLatLngs": [{"label": "display", "lat": 52.50105953288178, "lng": 13.297947420274483}], "distance": 555, "cc": "DE", "city": "Berlin", "state": "Berlin", "country": "Deutschland", "formattedAddress": ["Damaschkestr. 30", "Berlin", "Deutschland"]}, "categories": [{"id": "4bf58dd8d48988d14a941735", "name": "Vietnamese Restaurant", "pluralName": "Vietnamese Restaurants", "shortName": "Vietnamese", "icon": {"prefix": "https://ss3.4sqi.net/img/categories_v2/food/vietnamese_", "suffix": ".png"}, "primary": true}], "photos": {"count": 0, "groups": []}}, "referralId": "e-0-4d1369d437f1236a561e811b-38"}, {"reasons": {"count": 0, "items": [{"summary": "This spot is popular", "type": "general", "reasonName": "globalInteractionReason"}]}, "venue": {"id": "51c18a22498e901b58eaa6ae", "name": "Cups", "location": {"address": "Kurf\u00fcrstendamm 114", "lat": 52.4973884452663, "lng": 13.291307350385743, "labeledLatLngs": [{"label": "display", "lat": 52.4973884452663, "lng": 13.291307350385743}], "distance": 909, "postalCode": "10711", "cc": "DE", "city": "Berlin", "state": "Berlin", "country": "Deutschland", "formattedAddress": ["Kurf\u00fcrstendamm 114", "10711 Berlin", "Deutschland"]}, "categories": [{"id": "4bf58dd8d48988d16d941735", "name": "Caf\u00e9", "pluralName": "Caf\u00e9s", "shortName": "Caf\u00e9", "icon": {"prefix": "https://ss3.4sqi.net/img/categories_v2/food/cafe_", "suffix": ".png"}, "primary": true}], "photos": {"count": 0, "groups": []}}, "referralId": "e-0-51c18a22498e901b58eaa6ae-39"}, {"reasons": {"count": 0, "items": [{"summary": "This spot is popular", "type": "general", "reasonName": "globalInteractionReason"}]}, "venue": {"id": "504db200e4b05828d1ff6d4d", "name": "Bey Simit Haus", "location": {"address": "Kaiserdamm 66", "lat": 52.51121476462036, "lng": 13.29840713088643, "labeledLatLngs": [{"label": "display", "lat": 52.51121476462036, "lng": 13.29840713088643}], "distance": 715, "cc": "DE", "city": "Berlin", "state": "Berlin", "country": "Deutschland", "formattedAddress": ["Kaiserdamm 66", "Berlin", "Deutschland"]}, "categories": [{"id": "4f04af1f2fb6e1c99f3db0bb", "name": "Turkish Restaurant", "pluralName": "Turkish Restaurants", "shortName": "Turkish", "icon": {"prefix": "https://ss3.4sqi.net/img/categories_v2/food/turkish_", "suffix": ".png"}, "primary": true}], "photos": {"count": 0, "groups": []}}, "referralId": "e-0-504db200e4b05828d1ff6d4d-40"}, {"reasons": {"count": 0, "items": [{"summary": "This spot is popular", "type": "general", "reasonName": "globalInteractionReason"}]}, "venue": {"id": "4de6754ffa764cf4bedfeb2f", "name": "Sayuri", "location": {"address": "Kurf\u00fcrstendamm 137", "crossStreet": "Joachim-Friedrich-Str.", "lat": 52.49771903635713, "lng": 13.295225996146746, "labeledLatLngs": [{"label": "display", "lat": 52.49771903635713, "lng": 13.295225996146746}], "distance": 860, "postalCode": "10711", "cc": "DE", "city": "Berlin", "state": "Berlin", "country": "Deutschland", "formattedAddress": ["Kurf\u00fcrstendamm 137 (Joachim-Friedrich-Str.)", "10711 Berlin", "Deutschland"]}, "categories": [{"id": "4bf58dd8d48988d111941735", "name": "Japanese Restaurant", "pluralName": "Japanese Restaurants", "shortName": "Japanese", "icon": {"prefix": "https://ss3.4sqi.net/img/categories_v2/food/japanese_", "suffix": ".png"}, "primary": true}], "photos": {"count": 0, "groups": []}}, "referralId": "e-0-4de6754ffa764cf4bedfeb2f-41"}, {"reasons": {"count": 0, "items": [{"summary": "This spot is popular", "type": "general", "reasonName": "globalInteractionReason"}]}, "venue": {"id": "4c7a2ba4bd346dcb1bd0f7ef", "name": "Giro d' Espresso", "location": {"address": "Knobelsdorffstr. 47", "lat": 52.51317125347748, "lng": 13.289603134059815, "labeledLatLngs": [{"label": "display", "lat": 52.51317125347748, "lng": 13.289603134059815}], "distance": 912, "postalCode": "14059", "cc": "DE", "city": "Berlin", "state": "Berlin", "country": "Deutschland", "formattedAddress": ["Knobelsdorffstr. 47", "14059 Berlin", "Deutschland"]}, "categories": [{"id": "4bf58dd8d48988d16d941735", "name": "Caf\u00e9", "pluralName": "Caf\u00e9s", "shortName": "Caf\u00e9", "icon": {"prefix": "https://ss3.4sqi.net/img/categories_v2/food/cafe_", "suffix": ".png"}, "primary": true}], "photos": {"count": 0, "groups": []}}, "referralId": "e-0-4c7a2ba4bd346dcb1bd0f7ef-42"}, {"reasons": {"count": 0, "items": [{"summary": "This spot is popular", "type": "general", "reasonName": "globalInteractionReason"}]}, "venue": {"id": "4bc8e74e762beee155ac3d38", "name": "Louisa\u00b4s Place", "location": {"address": "Kurf\u00fcrstendamm 160", "lat": 52.49950044843784, "lng": 13.305003752517328, "labeledLatLngs": [{"label": "display", "lat": 52.49950044843784, "lng": 13.305003752517328}], "distance": 998, "postalCode": "10709", "cc": "DE", "city": "Berlin", "state": "Berlin", "country": "Deutschland", "formattedAddress": ["Kurf\u00fcrstendamm 160", "10709 Berlin", "Deutschland"]}, "categories": [{"id": "4bf58dd8d48988d1fa931735", "name": "Hotel", "pluralName": "Hotels", "shortName": "Hotel", "icon": {"prefix": "https://ss3.4sqi.net/img/categories_v2/travel/hotel_", "suffix": ".png"}, "primary": true}], "photos": {"count": 0, "groups": []}, "venuePage": {"id": "83907820"}}, "referralId": "e-0-4bc8e74e762beee155ac3d38-43"}, {"reasons": {"count": 0, "items": [{"summary": "This spot is popular", "type": "general", "reasonName": "globalInteractionReason"}]}, "venue": {"id": "55f443c3498e2bb8eeba1f52", "name": "Scoopy doo", "location": {"address": "Georg-Wilhelm-Str. 4", "lat": 52.4983087, "lng": 13.2906527, "labeledLatLngs": [{"label": "display", "lat": 52.4983087, "lng": 13.2906527}], "distance": 819, "postalCode": "10711", "cc": "DE", "city": "Berlin", "state": "Berlin", "country": "Deutschland", "formattedAddress": ["Georg-Wilhelm-Str. 4", "10711 Berlin", "Deutschland"]}, "categories": [{"id": "4bf58dd8d48988d1c9941735", "name": "Ice Cream Shop", "pluralName": "Ice Cream Shops", "shortName": "Ice Cream", "icon": {"prefix": "https://ss3.4sqi.net/img/categories_v2/food/icecream_", "suffix": ".png"}, "primary": true}], "photos": {"count": 0, "groups": []}, "venuePage": {"id": "586488727"}}, "referralId": "e-0-55f443c3498e2bb8eeba1f52-44"}, {"reasons": {"count": 0, "items": [{"summary": "This spot is popular", "type": "general", "reasonName": "globalInteractionReason"}]}, "venue": {"id": "4b67f6eef964a52054622be3", "name": "Hugendubel", "location": {"address": "Wilmersdorfer Str. 121", "lat": 52.50864875906876, "lng": 13.306157194662298, "labeledLatLngs": [{"label": "display", "lat": 52.50864875906876, "lng": 13.306157194662298}], "distance": 905, "postalCode": "10627", "cc": "DE", "city": "Berlin", "state": "Berlin", "country": "Deutschland", "formattedAddress": ["Wilmersdorfer Str. 121", "10627 Berlin", "Deutschland"]}, "categories": [{"id": "4bf58dd8d48988d114951735", "name": "Bookstore", "pluralName": "Bookstores", "shortName": "Bookstore", "icon": {"prefix": "https://ss3.4sqi.net/img/categories_v2/shops/bookstore_", "suffix": ".png"}, "primary": true}], "photos": {"count": 0, "groups": []}, "venuePage": {"id": "580008407"}}, "referralId": "e-0-4b67f6eef964a52054622be3-45"}, {"reasons": {"count": 0, "items": [{"summary": "This spot is popular", "type": "general", "reasonName": "globalInteractionReason"}]}, "venue": {"id": "4e452243a809d4ed1bc4b16b", "name": "Superhahn", "location": {"address": "Kantstra\u00dfe 55", "lat": 52.50646374538298, "lng": 13.30726504760852, "labeledLatLngs": [{"label": "display", "lat": 52.50646374538298, "lng": 13.30726504760852}], "distance": 913, "postalCode": "10623", "cc": "DE", "city": "Berlin", "state": "Berlin", "country": "Deutschland", "formattedAddress": ["Kantstra\u00dfe 55", "10623 Berlin", "Deutschland"]}, "categories": [{"id": "5283c7b4e4b094cb91ec88d8", "name": "Doner Restaurant", "pluralName": "Doner Restaurants", "shortName": "Doner", "icon": {"prefix": "https://ss3.4sqi.net/img/categories_v2/food/turkish_", "suffix": ".png"}, "primary": true}], "photos": {"count": 0, "groups": []}}, "referralId": "e-0-4e452243a809d4ed1bc4b16b-46"}, {"reasons": {"count": 0, "items": [{"summary": "This spot is popular", "type": "general", "reasonName": "globalInteractionReason"}]}, "venue": {"id": "5a3ab99f1cf2e15c9fa049ba", "name": "THE MEAT", "location": {"address": "Damaschkestr. 17", "lat": 52.500458, "lng": 13.299439, "labeledLatLngs": [{"label": "display", "lat": 52.500458, "lng": 13.299439}], "distance": 666, "postalCode": "10711", "cc": "DE", "city": "Berlin", "state": "Berlin", "country": "Deutschland", "formattedAddress": ["Damaschkestr. 17", "10711 Berlin", "Deutschland"]}, "categories": [{"id": "4bf58dd8d48988d1cc941735", "name": "Steakhouse", "pluralName": "Steakhouses", "shortName": "Steakhouse", "icon": {"prefix": "https://ss3.4sqi.net/img/categories_v2/food/steakhouse_", "suffix": ".png"}, "primary": true}], "photos": {"count": 0, "groups": []}, "venuePage": {"id": "553348317"}}, "referralId": "e-0-5a3ab99f1cf2e15c9fa049ba-47"}, {"reasons": {"count": 0, "items": [{"summary": "This spot is popular", "type": "general", "reasonName": "globalInteractionReason"}]}, "venue": {"id": "598e307c9fca56393429b563", "name": "Impala Coffee", "location": {"address": "Wilmersdorfer Str. 67", "crossStreet": "Gervinusstr.", "lat": 52.50479923261686, "lng": 13.307089044959548, "labeledLatLngs": [{"label": "display", "lat": 52.50479923261686, "lng": 13.307089044959548}], "distance": 896, "postalCode": "10629", "cc": "DE", "city": "Berlin", "state": "Berlin", "country": "Deutschland", "formattedAddress": ["Wilmersdorfer Str. 67 (Gervinusstr.)", "10629 Berlin", "Deutschland"]}, "categories": [{"id": "4bf58dd8d48988d1e0931735", "name": "Coffee Shop", "pluralName": "Coffee Shops", "shortName": "Coffee Shop", "icon": {"prefix": "https://ss3.4sqi.net/img/categories_v2/food/coffeeshop_", "suffix": ".png"}, "primary": true}], "photos": {"count": 0, "groups": []}}, "referralId": "e-0-598e307c9fca56393429b563-48"}, {"reasons": {"count": 0, "items": [{"summary": "This spot is popular", "type": "general", "reasonName": "globalInteractionReason"}]}, "venue": {"id": "4bc9a030b6c49c7490b08e91", "name": "dm-drogerie markt", "location": {"address": "Wilmersdorfer Str. 66a", "lat": 52.50608, "lng": 13.306551, "labeledLatLngs": [{"label": "display", "lat": 52.50608, "lng": 13.306551}], "distance": 860, "postalCode": "10627", "cc": "DE", "city": "Berlin", "state": "Berlin", "country": "Deutschland", "formattedAddress": ["Wilmersdorfer Str. 66a", "10627 Berlin", "Deutschland"]}, "categories": [{"id": "5745c2e4498e11e7bccabdbd", "name": "Drugstore", "pluralName": "Drugstores", "shortName": "Drugstore", "icon": {"prefix": "https://ss3.4sqi.net/img/categories_v2/shops/pharmacy_", "suffix": ".png"}, "primary": true}], "photos": {"count": 0, "groups": []}}, "referralId": "e-0-4bc9a030b6c49c7490b08e91-49"}, {"reasons": {"count": 0, "items": [{"summary": "This spot is popular", "type": "general", "reasonName": "globalInteractionReason"}]}, "venue": {"id": "4b097f25f964a520451823e3", "name": "Saigon Today", "location": {"address": "Wilmersdorfer Str. 69", "lat": 52.50447108351826, "lng": 13.307390666638229, "labeledLatLngs": [{"label": "display", "lat": 52.50447108351826, "lng": 13.307390666638229}], "distance": 920, "postalCode": "10629", "cc": "DE", "city": "Berlin", "state": "Berlin", "country": "Deutschland", "formattedAddress": ["Wilmersdorfer Str. 69", "10629 Berlin", "Deutschland"]}, "categories": [{"id": "4bf58dd8d48988d14a941735", "name": "Vietnamese Restaurant", "pluralName": "Vietnamese Restaurants", "shortName": "Vietnamese", "icon": {"prefix": "https://ss3.4sqi.net/img/categories_v2/food/vietnamese_", "suffix": ".png"}, "primary": true}], "photos": {"count": 0, "groups": []}}, "referralId": "e-0-4b097f25f964a520451823e3-50"}, {"reasons": {"count": 0, "items": [{"summary": "This spot is popular", "type": "general", "reasonName": "globalInteractionReason"}]}, "venue": {"id": "4decc67b88774880e356335d", "name": "Pizzeria Ristorante Buongiorno", "location": {"address": "Kantstr. 57", "lat": 52.50681765619151, "lng": 13.30595112174029, "labeledLatLngs": [{"label": "display", "lat": 52.50681765619151, "lng": 13.30595112174029}], "distance": 831, "postalCode": "10627", "cc": "DE", "city": "Berlin", "state": "Berlin", "country": "Deutschland", "formattedAddress": ["Kantstr. 57", "10627 Berlin", "Deutschland"]}, "categories": [{"id": "4bf58dd8d48988d110941735", "name": "Italian Restaurant", "pluralName": "Italian Restaurants", "shortName": "Italian", "icon": {"prefix": "https://ss3.4sqi.net/img/categories_v2/food/italian_", "suffix": ".png"}, "primary": true}], "photos": {"count": 0, "groups": []}}, "referralId": "e-0-4decc67b88774880e356335d-51"}, {"reasons": {"count": 0, "items": [{"summary": "This spot is popular", "type": "general", "reasonName": "globalInteractionReason"}]}, "venue": {"id": "4adcda86f964a520144921e3", "name": "Francucci's", "location": {"address": "Kurf\u00fcrstendamm 90", "lat": 52.499206112262726, "lng": 13.302086970251048, "labeledLatLngs": [{"label": "display", "lat": 52.499206112262726, "lng": 13.302086970251048}], "distance": 885, "postalCode": "10709", "cc": "DE", "city": "Berlin", "state": "Berlin", "country": "Deutschland", "formattedAddress": ["Kurf\u00fcrstendamm 90", "10709 Berlin", "Deutschland"]}, "categories": [{"id": "4bf58dd8d48988d110941735", "name": "Italian Restaurant", "pluralName": "Italian Restaurants", "shortName": "Italian", "icon": {"prefix": "https://ss3.4sqi.net/img/categories_v2/food/italian_", "suffix": ".png"}, "primary": true}], "photos": {"count": 0, "groups": []}}, "referralId": "e-0-4adcda86f964a520144921e3-52"}, {"reasons": {"count": 0, "items": [{"summary": "This spot is popular", "type": "general", "reasonName": "globalInteractionReason"}]}, "venue": {"id": "54061fbe498ed729c0896951", "name": "FitX", "location": {"address": "Kurf\u00fcrstendamm 156", "lat": 52.498851, "lng": 13.303223, "labeledLatLngs": [{"label": "display", "lat": 52.498851, "lng": 13.303223}], "distance": 964, "postalCode": "10709", "cc": "DE", "city": "Berlin", "state": "Berlin", "country": "Deutschland", "formattedAddress": ["Kurf\u00fcrstendamm 156", "10709 Berlin", "Deutschland"]}, "categories": [{"id": "4bf58dd8d48988d175941735", "name": "Gym / Fitness Center", "pluralName": "Gyms or Fitness Centers", "shortName": "Gym / Fitness", "icon": {"prefix": "https://ss3.4sqi.net/img/categories_v2/building/gym_", "suffix": ".png"}, "primary": true}], "photos": {"count": 0, "groups": []}}, "referralId": "e-0-54061fbe498ed729c0896951-53"}, {"reasons": {"count": 0, "items": [{"summary": "This spot is popular", "type": "general", "reasonName": "globalInteractionReason"}]}, "venue": {"id": "4dce653bfa7664b7c6a613cc", "name": "go asia \u6771 Asien Supermarkt", "location": {"address": "Kantstr. 101", "crossStreet": "Kaiser-Friedrich-Str.", "lat": 52.506530920574285, "lng": 13.302662372589111, "labeledLatLngs": [{"label": "display", "lat": 52.506530920574285, "lng": 13.302662372589111}], "distance": 606, "postalCode": "10627", "cc": "DE", "neighborhood": "Charlottenburg", "city": "Berlin", "state": "Berlin", "country": "Deutschland", "formattedAddress": ["Kantstr. 101 (Kaiser-Friedrich-Str.)", "10627 Berlin", "Deutschland"]}, "categories": [{"id": "4bf58dd8d48988d118951735", "name": "Grocery Store", "pluralName": "Grocery Stores", "shortName": "Grocery Store", "icon": {"prefix": "https://ss3.4sqi.net/img/categories_v2/shops/food_grocery_", "suffix": ".png"}, "primary": true}], "photos": {"count": 0, "groups": []}}, "referralId": "e-0-4dce653bfa7664b7c6a613cc-54"}, {"reasons": {"count": 0, "items": [{"summary": "This spot is popular", "type": "general", "reasonName": "globalInteractionReason"}]}, "venue": {"id": "54846a52498e9dcac1551ec0", "name": "Caf\u00e9 Dreik\u00e4sehoch Kaiserdamm 20", "location": {"address": "Kaiserdamm 20", "lat": 52.51050118268362, "lng": 13.286338448524473, "labeledLatLngs": [{"label": "display", "lat": 52.51050118268362, "lng": 13.286338448524473}], "distance": 764, "postalCode": "14057", "cc": "DE", "city": "Berlin", "state": "Berlin", "country": "Deutschland", "formattedAddress": ["Kaiserdamm 20", "14057 Berlin", "Deutschland"]}, "categories": [{"id": "4bf58dd8d48988d1d0941735", "name": "Dessert Shop", "pluralName": "Dessert Shops", "shortName": "Desserts", "icon": {"prefix": "https://ss3.4sqi.net/img/categories_v2/food/dessert_", "suffix": ".png"}, "primary": true}], "photos": {"count": 0, "groups": []}, "venuePage": {"id": "409845324"}}, "referralId": "e-0-54846a52498e9dcac1551ec0-55"}, {"reasons": {"count": 0, "items": [{"summary": "This spot is popular", "type": "general", "reasonName": "globalInteractionReason"}]}, "venue": {"id": "5aa3eb1772475052b05b73fd", "name": "1000Grad", "location": {"address": "Kurf\u00fcrstendamm 90", "lat": 52.499092, "lng": 13.30165, "labeledLatLngs": [{"label": "display", "lat": 52.499092, "lng": 13.30165}], "distance": 877, "postalCode": "10709", "cc": "DE", "neighborhood": "Joachim-Friedrich-Stra\u00dfe", "city": "Berlin", "state": "Berlin", "country": "Deutschland", "formattedAddress": ["Kurf\u00fcrstendamm 90", "10709 Berlin", "Deutschland"]}, "categories": [{"id": "4bf58dd8d48988d142941735", "name": "Asian Restaurant", "pluralName": "Asian Restaurants", "shortName": "Asian", "icon": {"prefix": "https://ss3.4sqi.net/img/categories_v2/food/asian_", "suffix": ".png"}, "primary": true}], "photos": {"count": 0, "groups": []}, "venuePage": {"id": "547362208"}}, "referralId": "e-0-5aa3eb1772475052b05b73fd-56"}, {"reasons": {"count": 0, "items": [{"summary": "This spot is popular", "type": "general", "reasonName": "globalInteractionReason"}]}, "venue": {"id": "4bca067f511f9521a7d1aec7", "name": "Ach! Niko Ach!", "location": {"address": "Kurf\u00fcrstendamm 97-98", "lat": 52.49843713159175, "lng": 13.298388899654581, "labeledLatLngs": [{"label": "display", "lat": 52.49843713159175, "lng": 13.298388899654581}], "distance": 832, "postalCode": "10709", "cc": "DE", "city": "Berlin", "state": "Berlin", "country": "Deutschland", "formattedAddress": ["Kurf\u00fcrstendamm 97-98", "10709 Berlin", "Deutschland"]}, "categories": [{"id": "4bf58dd8d48988d10e941735", "name": "Greek Restaurant", "pluralName": "Greek Restaurants", "shortName": "Greek", "icon": {"prefix": "https://ss3.4sqi.net/img/categories_v2/food/greek_", "suffix": ".png"}, "primary": true}], "photos": {"count": 0, "groups": []}}, "referralId": "e-0-4bca067f511f9521a7d1aec7-57"}, {"reasons": {"count": 0, "items": [{"summary": "This spot is popular", "type": "general", "reasonName": "globalInteractionReason"}]}, "venue": {"id": "4c1cd789eac020a1d51a47c2", "name": "Roberta caff\u00e8 e gelateria", "location": {"address": "Dahlmannstr. 16", "lat": 52.49980441050502, "lng": 13.303983427530305, "labeledLatLngs": [{"label": "display", "lat": 52.49980441050502, "lng": 13.303983427530305}], "distance": 924, "postalCode": "10629", "cc": "DE", "city": "Berlin", "state": "Berlin", "country": "Deutschland", "formattedAddress": ["Dahlmannstr. 16", "10629 Berlin", "Deutschland"]}, "categories": [{"id": "4bf58dd8d48988d1c9941735", "name": "Ice Cream Shop", "pluralName": "Ice Cream Shops", "shortName": "Ice Cream", "icon": {"prefix": "https://ss3.4sqi.net/img/categories_v2/food/icecream_", "suffix": ".png"}, "primary": true}], "photos": {"count": 0, "groups": []}}, "referralId": "e-0-4c1cd789eac020a1d51a47c2-58"}, {"reasons": {"count": 0, "items": [{"summary": "This spot is popular", "type": "general", "reasonName": "globalInteractionReason"}]}, "venue": {"id": "5b509ddd0802d4002c733056", "name": "Gimme Gelato", "location": {"address": "Wundtstra\u00dfe 15", "crossStreet": "Horstweg", "lat": 52.512006, "lng": 13.29415, "labeledLatLngs": [{"label": "display", "lat": 52.512006, "lng": 13.29415}], "distance": 735, "postalCode": "14059", "cc": "DE", "city": "Berlin", "state": "Berlin", "country": "Deutschland", "formattedAddress": ["Wundtstra\u00dfe 15 (Horstweg)", "14059 Berlin", "Deutschland"]}, "categories": [{"id": "4bf58dd8d48988d1c9941735", "name": "Ice Cream Shop", "pluralName": "Ice Cream Shops", "shortName": "Ice Cream", "icon": {"prefix": "https://ss3.4sqi.net/img/categories_v2/food/icecream_", "suffix": ".png"}, "primary": true}], "photos": {"count": 0, "groups": []}, "venuePage": {"id": "574431520"}}, "referralId": "e-0-5b509ddd0802d4002c733056-59"}, {"reasons": {"count": 0, "items": [{"summary": "This spot is popular", "type": "general", "reasonName": "globalInteractionReason"}]}, "venue": {"id": "4c6d34696af58cfa9ebb8817", "name": "Fressnapf", "location": {"address": "L\u00fctzenstr. 7a", "lat": 52.49966252138127, "lng": 13.288615707863187, "labeledLatLngs": [{"label": "display", "lat": 52.49966252138127, "lng": 13.288615707863187}], "distance": 732, "postalCode": "10711", "cc": "DE", "city": "Berlin", "state": "Berlin", "country": "Deutschland", "formattedAddress": ["L\u00fctzenstr. 7a", "10711 Berlin", "Deutschland"]}, "categories": [{"id": "4bf58dd8d48988d100951735", "name": "Pet Store", "pluralName": "Pet Stores", "shortName": "Pet Store", "icon": {"prefix": "https://ss3.4sqi.net/img/categories_v2/shops/pet_store_", "suffix": ".png"}, "primary": true}], "photos": {"count": 0, "groups": []}}, "referralId": "e-0-4c6d34696af58cfa9ebb8817-60"}, {"reasons": {"count": 0, "items": [{"summary": "This spot is popular", "type": "general", "reasonName": "globalInteractionReason"}]}, "venue": {"id": "4b533664f964a520859227e3", "name": "SuperFit", "location": {"address": "Wilmersdorfer Str. 54", "lat": 52.508353368499236, "lng": 13.305484717175954, "labeledLatLngs": [{"label": "display", "lat": 52.508353368499236, "lng": 13.305484717175954}], "distance": 850, "postalCode": "10627", "cc": "DE", "city": "Berlin", "state": "Berlin", "country": "Deutschland", "formattedAddress": ["Wilmersdorfer Str. 54", "10627 Berlin", "Deutschland"]}, "categories": [{"id": "4bf58dd8d48988d175941735", "name": "Gym / Fitness Center", "pluralName": "Gyms or Fitness Centers", "shortName": "Gym / Fitness", "icon": {"prefix": "https://ss3.4sqi.net/img/categories_v2/building/gym_", "suffix": ".png"}, "primary": true}], "photos": {"count": 0, "groups": []}}, "referralId": "e-0-4b533664f964a520859227e3-61"}, {"reasons": {"count": 0, "items": [{"summary": "This spot is popular", "type": "general", "reasonName": "globalInteractionReason"}]}, "venue": {"id": "4e904fefd22dccc37eb474a0", "name": "Piazza Br\u00e1", "location": {"address": "Kurf\u00fcrstendamm 94", "lat": 52.49864353417829, "lng": 13.299682004033542, "labeledLatLngs": [{"label": "display", "lat": 52.49864353417829, "lng": 13.299682004033542}], "distance": 848, "postalCode": "10709", "cc": "DE", "city": "Berlin", "state": "Berlin", "country": "Deutschland", "formattedAddress": ["Kurf\u00fcrstendamm 94", "10709 Berlin", "Deutschland"]}, "categories": [{"id": "4bf58dd8d48988d110941735", "name": "Italian Restaurant", "pluralName": "Italian Restaurants", "shortName": "Italian", "icon": {"prefix": "https://ss3.4sqi.net/img/categories_v2/food/italian_", "suffix": ".png"}, "primary": true}], "photos": {"count": 0, "groups": []}}, "referralId": "e-0-4e904fefd22dccc37eb474a0-62"}, {"reasons": {"count": 0, "items": [{"summary": "This spot is popular", "type": "general", "reasonName": "globalInteractionReason"}]}, "venue": {"id": "4c0d2c6a98102d7fe2c6e106", "name": "Cantinetta", "location": {"address": "Goethestr. 38", "crossStreet": "Wilmersdorfer Str.", "lat": 52.508895513060075, "lng": 13.307011663734198, "labeledLatLngs": [{"label": "display", "lat": 52.508895513060075, "lng": 13.307011663734198}], "distance": 969, "postalCode": "10627", "cc": "DE", "neighborhood": "Charlottenburg", "city": "Berlin", "state": "Berlin", "country": "Deutschland", "formattedAddress": ["Goethestr. 38 (Wilmersdorfer Str.)", "10627 Berlin", "Deutschland"]}, "categories": [{"id": "4bf58dd8d48988d110941735", "name": "Italian Restaurant", "pluralName": "Italian Restaurants", "shortName": "Italian", "icon": {"prefix": "https://ss3.4sqi.net/img/categories_v2/food/italian_", "suffix": ".png"}, "primary": true}], "photos": {"count": 0, "groups": []}}, "referralId": "e-0-4c0d2c6a98102d7fe2c6e106-63"}, {"reasons": {"count": 0, "items": [{"summary": "This spot is popular", "type": "general", "reasonName": "globalInteractionReason"}]}, "venue": {"id": "4e8883094690839ce048670e", "name": "Trattoria Toscana", "location": {"address": "Schlo\u00dfstrasse 45", "crossStreet": "Zillestr.", "lat": 52.514005290818034, "lng": 13.297156637481791, "labeledLatLngs": [{"label": "display", "lat": 52.514005290818034, "lng": 13.297156637481791}], "distance": 982, "postalCode": "14059", "cc": "DE", "city": "Berlin", "state": "Berlin", "country": "Deutschland", "formattedAddress": ["Schlo\u00dfstrasse 45 (Zillestr.)", "14059 Berlin", "Deutschland"]}, "categories": [{"id": "55a5a1ebe4b013909087cb7f", "name": "Trattoria/Osteria", "pluralName": "Trattorias/Osterias", "shortName": "Trattoria/Osteria", "icon": {"prefix": "https://ss3.4sqi.net/img/categories_v2/food/italian_", "suffix": ".png"}, "primary": true}], "photos": {"count": 0, "groups": []}}, "referralId": "e-0-4e8883094690839ce048670e-64"}, {"reasons": {"count": 0, "items": [{"summary": "This spot is popular", "type": "general", "reasonName": "globalInteractionReason"}]}, "venue": {"id": "4e49569845dd81ecad7f7701", "name": "Hamy Sophie Kinh Moi", "location": {"address": "Wilmersdorfer Str. 41-42", "lat": 52.510730844839316, "lng": 13.305447639235854, "labeledLatLngs": [{"label": "display", "lat": 52.510730844839316, "lng": 13.305447639235854}], "distance": 981, "postalCode": "10627", "cc": "DE", "city": "Berlin", "state": "Berlin", "country": "Deutschland", "formattedAddress": ["Wilmersdorfer Str. 41-42", "10627 Berlin", "Deutschland"]}, "categories": [{"id": "4bf58dd8d48988d142941735", "name": "Asian Restaurant", "pluralName": "Asian Restaurants", "shortName": "Asian", "icon": {"prefix": "https://ss3.4sqi.net/img/categories_v2/food/asian_", "suffix": ".png"}, "primary": true}], "photos": {"count": 0, "groups": []}}, "referralId": "e-0-4e49569845dd81ecad7f7701-65"}, {"reasons": {"count": 0, "items": [{"summary": "This spot is popular", "type": "general", "reasonName": "globalInteractionReason"}]}, "venue": {"id": "4b472c98f964a520512c26e3", "name": "Gusto Giusto", "location": {"address": "Kaiserdamm 110", "lat": 52.51070102845878, "lng": 13.292645718600735, "labeledLatLngs": [{"label": "display", "lat": 52.51070102845878, "lng": 13.292645718600735}], "distance": 595, "postalCode": "14057", "cc": "DE", "city": "Berlin", "state": "Berlin", "country": "Deutschland", "formattedAddress": ["Kaiserdamm 110", "14057 Berlin", "Deutschland"]}, "categories": [{"id": "4bf58dd8d48988d1ca941735", "name": "Pizza Place", "pluralName": "Pizza Places", "shortName": "Pizza", "icon": {"prefix": "https://ss3.4sqi.net/img/categories_v2/food/pizza_", "suffix": ".png"}, "primary": true}], "photos": {"count": 0, "groups": []}, "venuePage": {"id": "575050521"}}, "referralId": "e-0-4b472c98f964a520512c26e3-66"}, {"reasons": {"count": 0, "items": [{"summary": "This spot is popular", "type": "general", "reasonName": "globalInteractionReason"}]}, "venue": {"id": "4b6eaf64f964a5208ec62ce3", "name": "Karun Bistro", "location": {"address": "Pestalozzistr. 29", "lat": 52.50786951631908, "lng": 13.308000388589877, "labeledLatLngs": [{"label": "display", "lat": 52.50786951631908, "lng": 13.308000388589877}], "distance": 994, "postalCode": "10627", "cc": "DE", "city": "Berlin", "state": "Berlin", "country": "Deutschland", "formattedAddress": ["Pestalozzistr. 29", "10627 Berlin", "Deutschland"]}, "categories": [{"id": "52e81612bcbc57f1066b79f7", "name": "Persian Restaurant", "pluralName": "Persian Restaurants", "shortName": "Persian", "icon": {"prefix": "https://ss3.4sqi.net/img/categories_v2/food/middleeastern_", "suffix": ".png"}, "primary": true}], "photos": {"count": 0, "groups": []}}, "referralId": "e-0-4b6eaf64f964a5208ec62ce3-67"}, {"reasons": {"count": 0, "items": [{"summary": "This spot is popular", "type": "general", "reasonName": "globalInteractionReason"}]}, "venue": {"id": "4b280a86f964a520178e24e3", "name": "Haus der 100 Biere", "location": {"address": "Kurf\u00fcrstendamm 100", "lat": 52.49828169255052, "lng": 13.297111420740737, "labeledLatLngs": [{"label": "display", "lat": 52.49828169255052, "lng": 13.297111420740737}], "distance": 822, "postalCode": "10709", "cc": "DE", "city": "Berlin", "state": "Berlin", "country": "Deutschland", "formattedAddress": ["Kurf\u00fcrstendamm 100", "10709 Berlin", "Deutschland"]}, "categories": [{"id": "4bf58dd8d48988d10d941735", "name": "German Restaurant", "pluralName": "German Restaurants", "shortName": "German", "icon": {"prefix": "https://ss3.4sqi.net/img/categories_v2/food/german_", "suffix": ".png"}, "primary": true}], "photos": {"count": 0, "groups": []}}, "referralId": "e-0-4b280a86f964a520178e24e3-68"}, {"reasons": {"count": 0, "items": [{"summary": "This spot is popular", "type": "general", "reasonName": "globalInteractionReason"}]}, "venue": {"id": "4dcfbd6652b1f8915bb6c6e3", "name": "Henriettenplatz", "location": {"address": "Kurf\u00fcrstendamm", "crossStreet": "Westf\u00e4lische Str.", "lat": 52.49674086387018, "lng": 13.290994763374329, "labeledLatLngs": [{"label": "display", "lat": 52.49674086387018, "lng": 13.290994763374329}], "distance": 984, "postalCode": "10711", "cc": "DE", "city": "Berlin", "state": "Berlin", "country": "Deutschland", "formattedAddress": ["Kurf\u00fcrstendamm (Westf\u00e4lische Str.)", "10711 Berlin", "Deutschland"]}, "categories": [{"id": "4bf58dd8d48988d164941735", "name": "Plaza", "pluralName": "Plazas", "shortName": "Plaza", "icon": {"prefix": "https://ss3.4sqi.net/img/categories_v2/parks_outdoors/plaza_", "suffix": ".png"}, "primary": true}], "photos": {"count": 0, "groups": []}}, "referralId": "e-0-4dcfbd6652b1f8915bb6c6e3-69"}, {"reasons": {"count": 0, "items": [{"summary": "This spot is popular", "type": "general", "reasonName": "globalInteractionReason"}]}, "venue": {"id": "58b19dde005a0f2e197b4633", "name": "Asude Restaurant", "location": {"lat": 52.51115849610309, "lng": 13.298935766033178, "labeledLatLngs": [{"label": "display", "lat": 52.51115849610309, "lng": 13.298935766033178}], "distance": 725, "cc": "DE", "country": "Deutschland", "formattedAddress": ["Deutschland"]}, "categories": [{"id": "52e81612bcbc57f1066b79ff", "name": "Halal Restaurant", "pluralName": "Halal Restaurants", "shortName": "Halal", "icon": {"prefix": "https://ss3.4sqi.net/img/categories_v2/food/halal_", "suffix": ".png"}, "primary": true}], "photos": {"count": 0, "groups": []}}, "referralId": "e-0-58b19dde005a0f2e197b4633-70"}, {"reasons": {"count": 0, "items": [{"summary": "This spot is popular", "type": "general", "reasonName": "globalInteractionReason"}]}, "venue": {"id": "57f68281498e68e5b630663b", "name": "Pizzeria Luardi", "location": {"address": "Kantstra\u00dfe 60", "lat": 52.50693, "lng": 13.304972, "labeledLatLngs": [{"label": "display", "lat": 52.50693, "lng": 13.304972}], "distance": 769, "postalCode": "10627", "cc": "DE", "city": "Berlin", "state": "Berlin", "country": "Deutschland", "formattedAddress": ["Kantstra\u00dfe 60", "10627 Berlin", "Deutschland"]}, "categories": [{"id": "4bf58dd8d48988d110941735", "name": "Italian Restaurant", "pluralName": "Italian Restaurants", "shortName": "Italian", "icon": {"prefix": "https://ss3.4sqi.net/img/categories_v2/food/italian_", "suffix": ".png"}, "primary": true}], "photos": {"count": 0, "groups": []}}, "referralId": "e-0-57f68281498e68e5b630663b-71"}, {"reasons": {"count": 0, "items": [{"summary": "This spot is popular", "type": "general", "reasonName": "globalInteractionReason"}]}, "venue": {"id": "4d931a3bb189721eca592f2a", "name": "Ming Jia", "location": {"address": "Schlossstr. 32", "lat": 52.511817, "lng": 13.297099471092224, "labeledLatLngs": [{"label": "display", "lat": 52.511817, "lng": 13.297099471092224}], "distance": 746, "postalCode": "14059", "cc": "DE", "city": "Berlin", "state": "Berlin", "country": "Deutschland", "formattedAddress": ["Schlossstr. 32", "14059 Berlin", "Deutschland"]}, "categories": [{"id": "4bf58dd8d48988d145941735", "name": "Chinese Restaurant", "pluralName": "Chinese Restaurants", "shortName": "Chinese", "icon": {"prefix": "https://ss3.4sqi.net/img/categories_v2/food/asian_", "suffix": ".png"}, "primary": true}], "photos": {"count": 0, "groups": []}}, "referralId": "e-0-4d931a3bb189721eca592f2a-72"}, {"reasons": {"count": 0, "items": [{"summary": "This spot is popular", "type": "general", "reasonName": "globalInteractionReason"}]}, "venue": {"id": "538cc059498eb2165bf9dedc", "name": "Trattoria la bella sicilia", "location": {"address": "Knobelsdorffstr. 37", "crossStreet": "Dankelmannstr.", "lat": 52.51313387287784, "lng": 13.29101270804162, "labeledLatLngs": [{"label": "display", "lat": 52.51313387287784, "lng": 13.29101270804162}], "distance": 882, "postalCode": "14059", "cc": "DE", "neighborhood": "Charlottenburg", "city": "Berlin", "state": "Berlin", "country": "Deutschland", "formattedAddress": ["Knobelsdorffstr. 37 (Dankelmannstr.)", "14059 Berlin", "Deutschland"]}, "categories": [{"id": "55a5a1ebe4b013909087cb7f", "name": "Trattoria/Osteria", "pluralName": "Trattorias/Osterias", "shortName": "Trattoria/Osteria", "icon": {"prefix": "https://ss3.4sqi.net/img/categories_v2/food/italian_", "suffix": ".png"}, "primary": true}], "photos": {"count": 0, "groups": []}, "venuePage": {"id": "390746254"}}, "referralId": "e-0-538cc059498eb2165bf9dedc-73"}, {"reasons": {"count": 0, "items": [{"summary": "This spot is popular", "type": "general", "reasonName": "globalInteractionReason"}]}, "venue": {"id": "4c3609d02c8020a17ea08600", "name": "BIO COMPANY", "location": {"address": "Wilmersdorfer Str. 107", "lat": 52.504716632031425, "lng": 13.307283732365653, "labeledLatLngs": [{"label": "display", "lat": 52.504716632031425, "lng": 13.307283732365653}], "distance": 910, "postalCode": "10629", "cc": "DE", "city": "Berlin", "state": "Berlin", "country": "Deutschland", "formattedAddress": ["Wilmersdorfer Str. 107", "10629 Berlin", "Deutschland"]}, "categories": [{"id": "52f2ab2ebcbc57f1066b8b45", "name": "Organic Grocery", "pluralName": "Organic Groceries", "shortName": "Organic Grocery", "icon": {"prefix": "https://ss3.4sqi.net/img/categories_v2/shops/food_grocery_", "suffix": ".png"}, "primary": true}], "photos": {"count": 0, "groups": []}, "venuePage": {"id": "459926480"}}, "referralId": "e-0-4c3609d02c8020a17ea08600-74"}, {"reasons": {"count": 0, "items": [{"summary": "This spot is popular", "type": "general", "reasonName": "globalInteractionReason"}]}, "venue": {"id": "4af95d40f964a520771122e3", "name": "Restaurant Tu\u011fra", "location": {"address": "Kurf\u00fcrstendamm 96", "crossStreet": "Markgraf-Albrecht-Str.", "lat": 52.498673, "lng": 13.298555, "labeledLatLngs": [{"label": "display", "lat": 52.498673, "lng": 13.298555}], "distance": 812, "postalCode": "10709", "cc": "DE", "city": "Berlin", "state": "Berlin", "country": "Deutschland", "formattedAddress": ["Kurf\u00fcrstendamm 96 (Markgraf-Albrecht-Str.)", "10709 Berlin", "Deutschland"]}, "categories": [{"id": "4f04af1f2fb6e1c99f3db0bb", "name": "Turkish Restaurant", "pluralName": "Turkish Restaurants", "shortName": "Turkish", "icon": {"prefix": "https://ss3.4sqi.net/img/categories_v2/food/turkish_", "suffix": ".png"}, "primary": true}], "photos": {"count": 0, "groups": []}}, "referralId": "e-0-4af95d40f964a520771122e3-75"}, {"reasons": {"count": 0, "items": [{"summary": "This spot is popular", "type": "general", "reasonName": "globalInteractionReason"}]}, "venue": {"id": "55fbeefb498e60386881d1ad", "name": "Grand Tang", "location": {"address": "Pestalozzistra\u00dfe 37", "crossStreet": "Wilmersdorfer Strasse", "lat": 52.50806420402725, "lng": 13.304196518779639, "labeledLatLngs": [{"label": "display", "lat": 52.50806420402725, "lng": 13.304196518779639}], "distance": 758, "postalCode": "10627", "cc": "DE", "neighborhood": "Charlottenburg", "city": "Berlin", "state": "Berlin", "country": "Deutschland", "formattedAddress": ["Pestalozzistra\u00dfe 37 (Wilmersdorfer Strasse)", "10627 Berlin", "Deutschland"]}, "categories": [{"id": "52af3b773cf9994f4e043c03", "name": "Szechuan Restaurant", "pluralName": "Szechuan Restaurants", "shortName": "Szechuan", "icon": {"prefix": "https://ss3.4sqi.net/img/categories_v2/food/asian_", "suffix": ".png"}, "primary": true}], "photos": {"count": 0, "groups": []}}, "referralId": "e-0-55fbeefb498e60386881d1ad-76"}, {"reasons": {"count": 0, "items": [{"summary": "This spot is popular", "type": "general", "reasonName": "globalInteractionReason"}]}, "venue": {"id": "4b9a8bfff964a520debf35e3", "name": "Caf\u00e9 au lait - Coffee Food & Drinks", "location": {"address": "Kantstr. 110", "crossStreet": "Wilmersdorfer Str.", "lat": 52.50674634495147, "lng": 13.305781169860838, "labeledLatLngs": [{"label": "display", "lat": 52.50674634495147, "lng": 13.305781169860838}], "distance": 818, "postalCode": "10627", "cc": "DE", "city": "Berlin", "state": "Berlin", "country": "Deutschland", "formattedAddress": ["Kantstr. 110 (Wilmersdorfer Str.)", "10627 Berlin", "Deutschland"]}, "categories": [{"id": "4bf58dd8d48988d16d941735", "name": "Caf\u00e9", "pluralName": "Caf\u00e9s", "shortName": "Caf\u00e9", "icon": {"prefix": "https://ss3.4sqi.net/img/categories_v2/food/cafe_", "suffix": ".png"}, "primary": true}], "photos": {"count": 0, "groups": []}, "venuePage": {"id": "521440049"}}, "referralId": "e-0-4b9a8bfff964a520debf35e3-77"}, {"reasons": {"count": 0, "items": [{"summary": "This spot is popular", "type": "general", "reasonName": "globalInteractionReason"}]}, "venue": {"id": "4c07984342d4b713a8b1f445", "name": "Ristorante San Giorgio", "location": {"address": "Mommsenstr. 36", "lat": 52.503500742404704, "lng": 13.305044174194336, "labeledLatLngs": [{"label": "display", "lat": 52.503500742404704, "lng": 13.305044174194336}], "distance": 784, "postalCode": "10629", "cc": "DE", "city": "Berlin", "state": "Berlin", "country": "Deutschland", "formattedAddress": ["Mommsenstr. 36", "10629 Berlin", "Deutschland"]}, "categories": [{"id": "4bf58dd8d48988d110941735", "name": "Italian Restaurant", "pluralName": "Italian Restaurants", "shortName": "Italian", "icon": {"prefix": "https://ss3.4sqi.net/img/categories_v2/food/italian_", "suffix": ".png"}, "primary": true}], "photos": {"count": 0, "groups": []}}, "referralId": "e-0-4c07984342d4b713a8b1f445-78"}, {"reasons": {"count": 0, "items": [{"summary": "This spot is popular", "type": "general", "reasonName": "globalInteractionReason"}]}, "venue": {"id": "4b44909cf964a520c3f625e3", "name": "Viet's", "location": {"address": "Wilmersdorfer Str. 105", "lat": 52.50416070325026, "lng": 13.307421575275796, "labeledLatLngs": [{"label": "display", "lat": 52.50416070325026, "lng": 13.307421575275796}], "distance": 926, "postalCode": "10629", "cc": "DE", "city": "Berlin", "state": "Berlin", "country": "Deutschland", "formattedAddress": ["Wilmersdorfer Str. 105", "10629 Berlin", "Deutschland"]}, "categories": [{"id": "4bf58dd8d48988d14a941735", "name": "Vietnamese Restaurant", "pluralName": "Vietnamese Restaurants", "shortName": "Vietnamese", "icon": {"prefix": "https://ss3.4sqi.net/img/categories_v2/food/vietnamese_", "suffix": ".png"}, "primary": true}], "photos": {"count": 0, "groups": []}}, "referralId": "e-0-4b44909cf964a520c3f625e3-79"}, {"reasons": {"count": 0, "items": [{"summary": "This spot is popular", "type": "general", "reasonName": "globalInteractionReason"}]}, "venue": {"id": "53526df1498e84539e9ef72d", "name": "T.Viet", "location": {"address": "Kaiserdamm 25A", "lat": 52.51017753195876, "lng": 13.28241834350102, "labeledLatLngs": [{"label": "display", "lat": 52.51017753195876, "lng": 13.28241834350102}], "distance": 942, "postalCode": "14057", "cc": "DE", "city": "Berlin", "state": "Berlin", "country": "Deutschland", "formattedAddress": ["Kaiserdamm 25A", "14057 Berlin", "Deutschland"]}, "categories": [{"id": "4bf58dd8d48988d14a941735", "name": "Vietnamese Restaurant", "pluralName": "Vietnamese Restaurants", "shortName": "Vietnamese", "icon": {"prefix": "https://ss3.4sqi.net/img/categories_v2/food/vietnamese_", "suffix": ".png"}, "primary": true}], "photos": {"count": 0, "groups": []}}, "referralId": "e-0-53526df1498e84539e9ef72d-80"}, {"reasons": {"count": 0, "items": [{"summary": "This spot is popular", "type": "general", "reasonName": "globalInteractionReason"}]}, "venue": {"id": "529df2d411d2dd5ef8726266", "name": "Flying Tiger", "location": {"address": "Wilmersdorfer Str. 117", "lat": 52.50774023966672, "lng": 13.306664228439331, "labeledLatLngs": [{"label": "display", "lat": 52.50774023966672, "lng": 13.306664228439331}], "distance": 903, "postalCode": "10627", "cc": "DE", "city": "Berlin", "state": "Berlin", "country": "Deutschland", "formattedAddress": ["Wilmersdorfer Str. 117", "10627 Berlin", "Deutschland"]}, "categories": [{"id": "4bf58dd8d48988d128951735", "name": "Gift Shop", "pluralName": "Gift Shops", "shortName": "Gift Shop", "icon": {"prefix": "https://ss3.4sqi.net/img/categories_v2/shops/giftshop_", "suffix": ".png"}, "primary": true}], "photos": {"count": 0, "groups": []}}, "referralId": "e-0-529df2d411d2dd5ef8726266-81"}, {"reasons": {"count": 0, "items": [{"summary": "This spot is popular", "type": "general", "reasonName": "globalInteractionReason"}]}, "venue": {"id": "4e6a5de418381ea1bddf3c4d", "name": "Cooking Papa", "location": {"address": "Wilmersdorfer Str. 72", "lat": 52.50392225222963, "lng": 13.307505850842006, "labeledLatLngs": [{"label": "display", "lat": 52.50392225222963, "lng": 13.307505850842006}], "distance": 936, "postalCode": "10629", "cc": "DE", "city": "Berlin", "state": "Berlin", "country": "Deutschland", "formattedAddress": ["Wilmersdorfer Str. 72", "10629 Berlin", "Deutschland"]}, "categories": [{"id": "4bf58dd8d48988d113941735", "name": "Korean Restaurant", "pluralName": "Korean Restaurants", "shortName": "Korean", "icon": {"prefix": "https://ss3.4sqi.net/img/categories_v2/food/korean_", "suffix": ".png"}, "primary": true}], "photos": {"count": 0, "groups": []}}, "referralId": "e-0-4e6a5de418381ea1bddf3c4d-82"}, {"reasons": {"count": 0, "items": [{"summary": "This spot is popular", "type": "general", "reasonName": "globalInteractionReason"}]}, "venue": {"id": "4e68b546d22df5c11f6b9dfa", "name": "The Village Feinkost Caf\u00e9", "location": {"address": "Sophie-Charlotten-Str. 49", "lat": 52.5119015284251, "lng": 13.288774544664374, "labeledLatLngs": [{"label": "display", "lat": 52.5119015284251, "lng": 13.288774544664374}], "distance": 802, "postalCode": "14059", "cc": "DE", "city": "Berlin", "state": "Berlin", "country": "Deutschland", "formattedAddress": ["Sophie-Charlotten-Str. 49", "14059 Berlin", "Deutschland"]}, "categories": [{"id": "4bf58dd8d48988d14e941735", "name": "American Restaurant", "pluralName": "American Restaurants", "shortName": "American", "icon": {"prefix": "https://ss3.4sqi.net/img/categories_v2/food/default_", "suffix": ".png"}, "primary": true}], "photos": {"count": 0, "groups": []}}, "referralId": "e-0-4e68b546d22df5c11f6b9dfa-83"}, {"reasons": {"count": 0, "items": [{"summary": "This spot is popular", "type": "general", "reasonName": "globalInteractionReason"}]}, "venue": {"id": "560ff4d6498e97d1ccedc697", "name": "Velvet Leaf", "location": {"address": "Damaschkestr. 12-14", "lat": 52.50043834695751, "lng": 13.300495428186744, "labeledLatLngs": [{"label": "display", "lat": 52.50043834695751, "lng": 13.300495428186744}], "distance": 710, "postalCode": "10711", "cc": "DE", "city": "Berlin", "state": "Berlin", "country": "Deutschland", "formattedAddress": ["Damaschkestr. 12-14", "10711 Berlin", "Deutschland"]}, "categories": [{"id": "4bf58dd8d48988d1d3941735", "name": "Vegetarian / Vegan Restaurant", "pluralName": "Vegetarian / Vegan Restaurants", "shortName": "Vegetarian / Vegan", "icon": {"prefix": "https://ss3.4sqi.net/img/categories_v2/food/vegetarian_", "suffix": ".png"}, "primary": true}], "photos": {"count": 0, "groups": []}}, "referralId": "e-0-560ff4d6498e97d1ccedc697-84"}, {"reasons": {"count": 0, "items": [{"summary": "This spot is popular", "type": "general", "reasonName": "globalInteractionReason"}]}, "venue": {"id": "52aaf98111d20cca1861f314", "name": "REWE", "location": {"address": "Sophie-Charlotten-Str. 41", "lat": 52.513192, "lng": 13.287528, "labeledLatLngs": [{"label": "display", "lat": 52.513192, "lng": 13.287528}], "distance": 968, "postalCode": "14059", "cc": "DE", "city": "Berlin", "state": "Berlin", "country": "Deutschland", "formattedAddress": ["Sophie-Charlotten-Str. 41", "14059 Berlin", "Deutschland"]}, "categories": [{"id": "52f2ab2ebcbc57f1066b8b46", "name": "Supermarket", "pluralName": "Supermarkets", "shortName": "Supermarket", "icon": {"prefix": "https://ss3.4sqi.net/img/categories_v2/shops/food_grocery_", "suffix": ".png"}, "primary": true}], "photos": {"count": 0, "groups": []}, "venuePage": {"id": "560859856"}}, "referralId": "e-0-52aaf98111d20cca1861f314-85"}, {"reasons": {"count": 0, "items": [{"summary": "This spot is popular", "type": "general", "reasonName": "globalInteractionReason"}]}, "venue": {"id": "5b6db85da89b5a00240c7800", "name": "Hema", "location": {"address": "Wilmersdorfer Stra\u00dfe 118", "lat": 52.508058, "lng": 13.307619, "labeledLatLngs": [{"label": "display", "lat": 52.508058, "lng": 13.307619}], "distance": 975, "postalCode": "10627", "cc": "DE", "city": "Berlin", "state": "Berlin", "country": "Deutschland", "formattedAddress": ["Wilmersdorfer Stra\u00dfe 118", "10627 Berlin", "Deutschland"]}, "categories": [{"id": "4bf58dd8d48988d1f6941735", "name": "Department Store", "pluralName": "Department Stores", "shortName": "Department Store", "icon": {"prefix": "https://ss3.4sqi.net/img/categories_v2/shops/departmentstore_", "suffix": ".png"}, "primary": true}], "photos": {"count": 0, "groups": []}}, "referralId": "e-0-5b6db85da89b5a00240c7800-86"}, {"reasons": {"count": 0, "items": [{"summary": "This spot is popular", "type": "general", "reasonName": "globalInteractionReason"}]}, "venue": {"id": "4d286e660fdc6a311b2a8d0b", "name": "Nazar Market", "location": {"address": "Wilmersdorfer Stra\u00dfe 132", "crossStreet": "Bismarck Str.", "lat": 52.510674645460384, "lng": 13.305488323992632, "labeledLatLngs": [{"label": "display", "lat": 52.510674645460384, "lng": 13.305488323992632}], "distance": 980, "postalCode": "10627", "cc": "DE", "city": "Berlin", "state": "Berlin", "country": "Deutschland", "formattedAddress": ["Wilmersdorfer Stra\u00dfe 132 (Bismarck Str.)", "10627 Berlin", "Deutschland"]}, "categories": [{"id": "4bf58dd8d48988d1f9941735", "name": "Food & Drink Shop", "pluralName": "Food & Drink Shops", "shortName": "Food & Drink", "icon": {"prefix": "https://ss3.4sqi.net/img/categories_v2/shops/foodanddrink_", "suffix": ".png"}, "primary": true}], "photos": {"count": 0, "groups": []}}, "referralId": "e-0-4d286e660fdc6a311b2a8d0b-87"}, {"reasons": {"count": 0, "items": [{"summary": "This spot is popular", "type": "general", "reasonName": "globalInteractionReason"}]}, "venue": {"id": "4daf2bcba86e29d01a53bbba", "name": "China Restaurant Panda III", "location": {"address": "Am Messedamm", "lat": 52.50649442642958, "lng": 13.280186547528164, "labeledLatLngs": [{"label": "display", "lat": 52.50649442642958, "lng": 13.280186547528164}], "distance": 937, "postalCode": "14057", "cc": "DE", "city": "Berlin", "state": "Berlin", "country": "Deutschland", "formattedAddress": ["Am Messedamm", "14057 Berlin", "Deutschland"]}, "categories": [{"id": "4bf58dd8d48988d142941735", "name": "Asian Restaurant", "pluralName": "Asian Restaurants", "shortName": "Asian", "icon": {"prefix": "https://ss3.4sqi.net/img/categories_v2/food/asian_", "suffix": ".png"}, "primary": true}], "photos": {"count": 0, "groups": []}}, "referralId": "e-0-4daf2bcba86e29d01a53bbba-88"}, {"reasons": {"count": 0, "items": [{"summary": "This spot is popular", "type": "general", "reasonName": "globalInteractionReason"}]}, "venue": {"id": "54c815e7498e912143449497", "name": "Milch & Soda", "location": {"address": "Wilmersdorfer Str. 71", "lat": 52.50400744, "lng": 13.30718133, "labeledLatLngs": [{"label": "display", "lat": 52.50400744, "lng": 13.30718133}], "distance": 913, "postalCode": "10629", "cc": "DE", "city": "Berlin", "state": "Berlin", "country": "Deutschland", "formattedAddress": ["Wilmersdorfer Str. 71", "10629 Berlin", "Deutschland"]}, "categories": [{"id": "4bf58dd8d48988d1c0941735", "name": "Mediterranean Restaurant", "pluralName": "Mediterranean Restaurants", "shortName": "Mediterranean", "icon": {"prefix": "https://ss3.4sqi.net/img/categories_v2/food/mediterranean_", "suffix": ".png"}, "primary": true}], "photos": {"count": 0, "groups": []}, "venuePage": {"id": "558861873"}}, "referralId": "e-0-54c815e7498e912143449497-89"}, {"reasons": {"count": 0, "items": [{"summary": "This spot is popular", "type": "general", "reasonName": "globalInteractionReason"}]}, "venue": {"id": "57d19945498e4ddd9445eb8b", "name": "Eisfabrik Alan", "location": {"address": "Wundtstra\u00dfe 4", "lat": 52.513262, "lng": 13.294694, "labeledLatLngs": [{"label": "display", "lat": 52.513262, "lng": 13.294694}], "distance": 876, "postalCode": "14059", "cc": "DE", "city": "Berlin", "state": "Berlin", "country": "Deutschland", "formattedAddress": ["Wundtstra\u00dfe 4", "14059 Berlin", "Deutschland"]}, "categories": [{"id": "4bf58dd8d48988d1c9941735", "name": "Ice Cream Shop", "pluralName": "Ice Cream Shops", "shortName": "Ice Cream", "icon": {"prefix": "https://ss3.4sqi.net/img/categories_v2/food/icecream_", "suffix": ".png"}, "primary": true}], "photos": {"count": 0, "groups": []}}, "referralId": "e-0-57d19945498e4ddd9445eb8b-90"}, {"reasons": {"count": 0, "items": [{"summary": "This spot is popular", "type": "general", "reasonName": "globalInteractionReason"}]}, "venue": {"id": "4b25f73ff964a520cb7724e3", "name": "Eis Caf\u00e9 Eisgr\u00fcn", "location": {"address": "Kurf\u00fcrstendamm 114-115", "lat": 52.49732423389471, "lng": 13.290991723679316, "labeledLatLngs": [{"label": "display", "lat": 52.49732423389471, "lng": 13.290991723679316}], "distance": 920, "postalCode": "10711", "cc": "DE", "city": "Berlin", "state": "Berlin", "country": "Deutschland", "formattedAddress": ["Kurf\u00fcrstendamm 114-115", "10711 Berlin", "Deutschland"]}, "categories": [{"id": "4bf58dd8d48988d1c9941735", "name": "Ice Cream Shop", "pluralName": "Ice Cream Shops", "shortName": "Ice Cream", "icon": {"prefix": "https://ss3.4sqi.net/img/categories_v2/food/icecream_", "suffix": ".png"}, "primary": true}], "photos": {"count": 0, "groups": []}}, "referralId": "e-0-4b25f73ff964a520cb7724e3-91"}, {"reasons": {"count": 0, "items": [{"summary": "This spot is popular", "type": "general", "reasonName": "globalInteractionReason"}]}, "venue": {"id": "4b993d0ef964a520916c35e3", "name": "Ku'Damm 101", "location": {"address": "Kurf\u00fcrstendamm 101", "crossStreet": "Joachim-Friedrich-Str.", "lat": 52.498230085796955, "lng": 13.295989036560059, "labeledLatLngs": [{"label": "display", "lat": 52.498230085796955, "lng": 13.295989036560059}], "distance": 810, "postalCode": "10711", "cc": "DE", "city": "Berlin", "state": "Berlin", "country": "Deutschland", "formattedAddress": ["Kurf\u00fcrstendamm 101 (Joachim-Friedrich-Str.)", "10711 Berlin", "Deutschland"]}, "categories": [{"id": "4bf58dd8d48988d1fa931735", "name": "Hotel", "pluralName": "Hotels", "shortName": "Hotel", "icon": {"prefix": "https://ss3.4sqi.net/img/categories_v2/travel/hotel_", "suffix": ".png"}, "primary": true}], "photos": {"count": 0, "groups": []}, "venuePage": {"id": "38016154"}}, "referralId": "e-0-4b993d0ef964a520916c35e3-92"}, {"reasons": {"count": 0, "items": [{"summary": "This spot is popular", "type": "general", "reasonName": "globalInteractionReason"}]}, "venue": {"id": "5148cac4e4b003eed950160f", "name": "TAK KEE", "location": {"address": "Wilmersdorfer Str. 79", "lat": 52.50238, "lng": 13.30771, "labeledLatLngs": [{"label": "display", "lat": 52.50238, "lng": 13.30771}], "distance": 994, "postalCode": "10629", "cc": "DE", "city": "Berlin", "state": "Berlin", "country": "Deutschland", "formattedAddress": ["Wilmersdorfer Str. 79", "10629 Berlin", "Deutschland"]}, "categories": [{"id": "52af3a7c3cf9994f4e043bed", "name": "Cantonese Restaurant", "pluralName": "Cantonese Restaurants", "shortName": "Cantonese", "icon": {"prefix": "https://ss3.4sqi.net/img/categories_v2/food/asian_", "suffix": ".png"}, "primary": true}], "photos": {"count": 0, "groups": []}}, "referralId": "e-0-5148cac4e4b003eed950160f-93"}, {"reasons": {"count": 0, "items": [{"summary": "This spot is popular", "type": "general", "reasonName": "globalInteractionReason"}]}, "venue": {"id": "4c4c8b835609c9b6e9a3bb92", "name": "Paella", "location": {"address": "Wundtstr. 72", "lat": 52.50711, "lng": 13.28389, "labeledLatLngs": [{"label": "display", "lat": 52.50711, "lng": 13.28389}], "distance": 704, "postalCode": "14057", "cc": "DE", "city": "Berlin", "state": "Berlin", "country": "Deutschland", "formattedAddress": ["Wundtstr. 72", "14057 Berlin", "Deutschland"]}, "categories": [{"id": "4bf58dd8d48988d1c1941735", "name": "Mexican Restaurant", "pluralName": "Mexican Restaurants", "shortName": "Mexican", "icon": {"prefix": "https://ss3.4sqi.net/img/categories_v2/food/mexican_", "suffix": ".png"}, "primary": true}], "photos": {"count": 0, "groups": []}}, "referralId": "e-0-4c4c8b835609c9b6e9a3bb92-94"}, {"reasons": {"count": 0, "items": [{"summary": "This spot is popular", "type": "general", "reasonName": "globalInteractionReason"}]}, "venue": {"id": "4caf75f8b4b0a35d6f2f41ce", "name": "Trattoria Bar \"da Peppino\"", "location": {"address": "Wundtstr. 17", "lat": 52.51167798321832, "lng": 13.293247854660219, "labeledLatLngs": [{"label": "display", "lat": 52.51167798321832, "lng": 13.293247854660219}], "distance": 699, "postalCode": "14059", "cc": "DE", "city": "Berlin", "state": "Berlin", "country": "Deutschland", "formattedAddress": ["Wundtstr. 17", "14059 Berlin", "Deutschland"]}, "categories": [{"id": "55a5a1ebe4b013909087cb7f", "name": "Trattoria/Osteria", "pluralName": "Trattorias/Osterias", "shortName": "Trattoria/Osteria", "icon": {"prefix": "https://ss3.4sqi.net/img/categories_v2/food/italian_", "suffix": ".png"}, "primary": true}], "photos": {"count": 0, "groups": []}}, "referralId": "e-0-4caf75f8b4b0a35d6f2f41ce-95"}, {"reasons": {"count": 0, "items": [{"summary": "This spot is popular", "type": "general", "reasonName": "globalInteractionReason"}]}, "venue": {"id": "4d611ba1ef378cfae07f86a6", "name": "Pianocaf\u00e9 am Lietzensee", "location": {"address": "Neue Kantstr. 20", "lat": 52.50636296742098, "lng": 13.285157707953752, "labeledLatLngs": [{"label": "display", "lat": 52.50636296742098, "lng": 13.285157707953752}], "distance": 601, "postalCode": "14057", "cc": "DE", "city": "Berlin", "state": "Berlin", "country": "Deutschland", "formattedAddress": ["Neue Kantstr. 20", "14057 Berlin", "Deutschland"]}, "categories": [{"id": "4bf58dd8d48988d16d941735", "name": "Caf\u00e9", "pluralName": "Caf\u00e9s", "shortName": "Caf\u00e9", "icon": {"prefix": "https://ss3.4sqi.net/img/categories_v2/food/cafe_", "suffix": ".png"}, "primary": true}], "photos": {"count": 0, "groups": []}}, "referralId": "e-0-4d611ba1ef378cfae07f86a6-96"}, {"reasons": {"count": 0, "items": [{"summary": "This spot is popular", "type": "general", "reasonName": "globalInteractionReason"}]}, "venue": {"id": "4adcda8bf964a520fd4921e3", "name": "Kant-Kino", "location": {"address": "Kantstr. 54", "lat": 52.50666546861855, "lng": 13.308512300610673, "labeledLatLngs": [{"label": "display", "lat": 52.50666546861855, "lng": 13.308512300610673}], "distance": 1000, "postalCode": "10627", "cc": "DE", "city": "Berlin", "state": "Berlin", "country": "Deutschland", "formattedAddress": ["Kantstr. 54", "10627 Berlin", "Deutschland"]}, "categories": [{"id": "4bf58dd8d48988d17f941735", "name": "Movie Theater", "pluralName": "Movie Theaters", "shortName": "Movie Theater", "icon": {"prefix": "https://ss3.4sqi.net/img/categories_v2/arts_entertainment/movietheater_", "suffix": ".png"}, "primary": true}], "photos": {"count": 0, "groups": []}}, "referralId": "e-0-4adcda8bf964a520fd4921e3-97"}, {"reasons": {"count": 0, "items": [{"summary": "This spot is popular", "type": "general", "reasonName": "globalInteractionReason"}]}, "venue": {"id": "52b44479498e0bd54806d9a2", "name": "eurogida", "location": {"address": "Wilmersdorfer Str. 46", "lat": 52.508848046046865, "lng": 13.305383978955103, "labeledLatLngs": [{"label": "display", "lat": 52.508848046046865, "lng": 13.305383978955103}], "distance": 867, "postalCode": "10627", "cc": "DE", "city": "Berlin", "state": "Berlin", "country": "Deutschland", "formattedAddress": ["Wilmersdorfer Str. 46", "10627 Berlin", "Deutschland"]}, "categories": [{"id": "4bf58dd8d48988d118951735", "name": "Grocery Store", "pluralName": "Grocery Stores", "shortName": "Grocery Store", "icon": {"prefix": "https://ss3.4sqi.net/img/categories_v2/shops/food_grocery_", "suffix": ".png"}, "primary": true}], "photos": {"count": 0, "groups": []}}, "referralId": "e-0-52b44479498e0bd54806d9a2-98"}, {"reasons": {"count": 0, "items": [{"summary": "This spot is popular", "type": "general", "reasonName": "globalInteractionReason"}]}, "venue": {"id": "4dae93eacda1ea0bb040d79c", "name": "Lehniner Platz", "location": {"address": "Kurf\u00fcrstendamm", "crossStreet": "Damaschkestr.", "lat": 52.49946672724713, "lng": 13.302130725702362, "labeledLatLngs": [{"label": "display", "lat": 52.49946672724713, "lng": 13.302130725702362}], "distance": 864, "postalCode": "10709", "cc": "DE", "city": "Berlin", "state": "Berlin", "country": "Deutschland", "formattedAddress": ["Kurf\u00fcrstendamm (Damaschkestr.)", "10709 Berlin", "Deutschland"]}, "categories": [{"id": "4bf58dd8d48988d164941735", "name": "Plaza", "pluralName": "Plazas", "shortName": "Plaza", "icon": {"prefix": "https://ss3.4sqi.net/img/categories_v2/parks_outdoors/plaza_", "suffix": ".png"}, "primary": true}], "photos": {"count": 0, "groups": []}}, "referralId": "e-0-4dae93eacda1ea0bb040d79c-99"}]