[{"reasons": {"count": 0, "items": [{"summary": "This spot is popular", "type": "general", "reasonName": "globalInteractionReason"}]}, "venue": {"id": "5687c347498eaff180da2e5f", "name": "Home: Coffee & Food", "location": {"address": "Jonasstr. 23", "lat": 52.4714263969709, "lng": 13.433527758902985, "labeledLatLngs": [{"label": "display", "lat": 52.4714263969709, "lng": 13.433527758902985}], "distance": 202, "postalCode": "12053", "cc": "DE", "city": "Berlin", "state": "Berlin", "country": "Deutschland", "formattedAddress": ["Jonasstr. 23", "12053 Berlin", "Deutschland"]}, "categories": [{"id": "4bf58dd8d48988d1e0931735", "name": "Coffee Shop", "pluralName": "Coffee Shops", "shortName": "Coffee Shop", "icon": {"prefix": "https://ss3.4sqi.net/img/categories_v2/food/coffeeshop_", "suffix": ".png"}, "primary": true}], "photos": {"count": 0, "groups": []}, "venuePage": {"id": "480660518"}}, "referralId": "e-0-5687c347498eaff180da2e5f-0"}, {"reasons": {"count": 0, "items": [{"summary": "This spot is popular", "type": "general", "reasonName": "globalInteractionReason"}]}, "venue": {"id": "4c34889b66e40f47b7a4c98b", "name": "K\u00f6rnerpark", "location": {"address": "Schierker Str.", "crossStreet": "Wittmannsdorfer Str.", "lat": 52.47148940104489, "lng": 13.437624343426899, "labeledLatLngs": [{"label": "display", "lat": 52.47148940104489, "lng": 13.437624343426899}], "distance": 248, "postalCode": "12051", "cc": "DE", "city": "Berlin", "state": "Berlin", "country": "Deutschland", "formattedAddress": ["Schierker Str. (Wittmannsdorfer Str.)", "12051 Berlin", "Deutschland"]}, "categories": [{"id": "4bf58dd8d48988d163941735", "name": "Park", "pluralName": "Parks", "shortName": "Park", "icon": {"prefix": "https://ss3.4sqi.net/img/categories_v2/parks_outdoors/park_", "suffix": ".png"}, "primary": true}], "photos": {"count": 0, "groups": []}}, "referralId": "e-0-4c34889b66e40f47b7a4c98b-1"}, {"reasons": {"count": 0, "items": [{"summary": "This spot is popular", "type": "general", "reasonName": "globalInteractionReason"}]}, "venue": {"id": "5b375828ca18ea002c26372d", "name": "21 gramm", "location": {"address": "Hermannstr. 179", "crossStreet": "Thomasstr.", "lat": 52.472125, "lng": 13.429091, "labeledLatLngs": [{"label": "display", "lat": 52.472125, "lng": 13.429091}], "distance": 410, "postalCode": "12049", "cc": "DE", "neighborhood": "K\u00f6rnerkiez", "city": "Berlin", "state": "Berlin", "country": "Deutschland", "formattedAddress": ["Hermannstr. 179 (Thomasstr.)", "12049 Berlin", "Deutschland"]}, "categories": [{"id": "4bf58dd8d48988d143941735", "name": "Breakfast Spot", "pluralName": "Breakfast Spots", "shortName": "Breakfast", "icon": {"prefix": "https://ss3.4sqi.net/img/categories_v2/food/breakfast_", "suffix": ".png"}, "primary": true}], "photos": {"count": 0, "groups": []}, "venuePage": {"id": "578007248"}}, "referralId": "e-0-5b375828ca18ea002c26372d-2"}, {"reasons": {"count": 0, "items": [{"summary": "This spot is popular", "type": "general", "reasonName": "globalInteractionReason"}]}, "venue": {"id": "4e7793c48130fa6bd3b581ff", "name": "Nin\u00ec e Pettirosso", "location": {"address": "Selkestr. 27", "lat": 52.470317, "lng": 13.43698, "labeledLatLngs": [{"label": "display", "lat": 52.470317, "lng": 13.43698}], "distance": 330, "postalCode": "12051", "cc": "DE", "neighborhood": "K\u00f6rnerkiez", "city": "Berlin", "state": "Berlin", "country": "Deutschland", "formattedAddress": ["Selkestr. 27", "12051 Berlin", "Deutschland"]}, "categories": [{"id": "4bf58dd8d48988d110941735", "name": "Italian Restaurant", "pluralName": "Italian Restaurants", "shortName": "Italian", "icon": {"prefix": "https://ss3.4sqi.net/img/categories_v2/food/italian_", "suffix": ".png"}, "primary": true}], "photos": {"count": 0, "groups": []}, "venuePage": {"id": "77200582"}}, "referralId": "e-0-4e7793c48130fa6bd3b581ff-3"}, {"reasons": {"count": 0, "items": [{"summary": "This spot is popular", "type": "general", "reasonName": "globalInteractionReason"}]}, "venue": {"id": "57d586f4498e04744340dec1", "name": "BONA Kollektiv", "location": {"address": "Hermannstr. 178", "lat": 52.4716546113619, "lng": 13.429121919198035, "labeledLatLngs": [{"label": "display", "lat": 52.4716546113619, "lng": 13.429121919198035}], "distance": 424, "postalCode": "12051", "cc": "DE", "neighborhood": "K\u00f6rnerkiez", "city": "Berlin", "state": "Berlin", "country": "Deutschland", "formattedAddress": ["Hermannstr. 178", "12051 Berlin", "Deutschland"]}, "categories": [{"id": "4bf58dd8d48988d16d941735", "name": "Caf\u00e9", "pluralName": "Caf\u00e9s", "shortName": "Caf\u00e9", "icon": {"prefix": "https://ss3.4sqi.net/img/categories_v2/food/cafe_", "suffix": ".png"}, "primary": true}], "photos": {"count": 0, "groups": []}}, "referralId": "e-0-57d586f4498e04744340dec1-4"}, {"reasons": {"count": 0, "items": [{"summary": "This spot is popular", "type": "general", "reasonName": "globalInteractionReason"}]}, "venue": {"id": "4e58236fae60dbf65b4a8731", "name": "Schloss Neuschweinsteiger", "location": {"address": "Emser Str. 122/123", "lat": 52.469093896205045, "lng": 13.4354137581539, "labeledLatLngs": [{"label": "display", "lat": 52.469093896205045, "lng": 13.4354137581539}], "distance": 438, "postalCode": "12051", "cc": "DE", "city": "Berlin", "state": "Berlin", "country": "Deutschland", "formattedAddress": ["Emser Str. 122/123", "12051 Berlin", "Deutschland"]}, "categories": [{"id": "4bf58dd8d48988d11e941735", "name": "Cocktail Bar", "pluralName": "Cocktail Bars", "shortName": "Cocktail", "icon": {"prefix": "https://ss3.4sqi.net/img/categories_v2/nightlife/cocktails_", "suffix": ".png"}, "primary": true}], "photos": {"count": 0, "groups": []}, "venuePage": {"id": "77967299"}}, "referralId": "e-0-4e58236fae60dbf65b4a8731-5"}, {"reasons": {"count": 0, "items": [{"summary": "This spot is popular", "type": "general", "reasonName": "globalInteractionReason"}]}, "venue": {"id": "50ce405fe4b0aceb60754dbc", "name": "Merakli K\u00f6fteci", "location": {"address": "Hermannstr 174", "lat": 52.471037770421816, "lng": 13.429444253096332, "labeledLatLngs": [{"label": "display", "lat": 52.471037770421816, "lng": 13.429444253096332}], "distance": 434, "postalCode": "12051", "cc": "DE", "city": "Berlin", "state": "Berlin", "country": "Deutschland", "formattedAddress": ["Hermannstr 174", "12051 Berlin", "Deutschland"]}, "categories": [{"id": "4f04af1f2fb6e1c99f3db0bb", "name": "Turkish Restaurant", "pluralName": "Turkish Restaurants", "shortName": "Turkish", "icon": {"prefix": "https://ss3.4sqi.net/img/categories_v2/food/turkish_", "suffix": ".png"}, "primary": true}], "photos": {"count": 0, "groups": []}}, "referralId": "e-0-50ce405fe4b0aceb60754dbc-6"}, {"reasons": {"count": 0, "items": [{"summary": "This spot is popular", "type": "general", "reasonName": "globalInteractionReason"}]}, "venue": {"id": "563e6f5acd103aeb127752dc", "name": "Tante Frizzante", "location": {"address": "Hermannstr. 95", "lat": 52.4700757384999, "lng": 13.429869380970676, "labeledLatLngs": [{"label": "display", "lat": 52.4700757384999, "lng": 13.429869380970676}], "distance": 476, "postalCode": "12051", "cc": "DE", "city": "Berlin", "state": "Berlin", "country": "Deutschland", "formattedAddress": ["Hermannstr. 95", "12051 Berlin", "Deutschland"]}, "categories": [{"id": "4bf58dd8d48988d1c9941735", "name": "Ice Cream Shop", "pluralName": "Ice Cream Shops", "shortName": "Ice Cream", "icon": {"prefix": "https://ss3.4sqi.net/img/categories_v2/food/icecream_", "suffix": ".png"}, "primary": true}], "photos": {"count": 0, "groups": []}}, "referralId": "e-0-563e6f5acd103aeb127752dc-7"}, {"reasons": {"count": 0, "items": [{"summary": "This spot is popular", "type": "general", "reasonName": "globalInteractionReason"}]}, "venue": {"id": "574b1493498e3b6d14466975", "name": "Ilse Eins", "location": {"address": "Ilsestr. 1", "lat": 52.46876695292819, "lng": 13.435775914178217, "labeledLatLngs": [{"label": "display", "lat": 52.46876695292819, "lng": 13.435775914178217}], "distance": 477, "cc": "DE", "city": "Berlin", "state": "Berlin", "country": "Deutschland", "formattedAddress": ["Ilsestr. 1", "Berlin", "Deutschland"]}, "categories": [{"id": "4bf58dd8d48988d1c9941735", "name": "Ice Cream Shop", "pluralName": "Ice Cream Shops", "shortName": "Ice Cream", "icon": {"prefix": "https://ss3.4sqi.net/img/categories_v2/food/icecream_", "suffix": ".png"}, "primary": true}], "photos": {"count": 0, "groups": []}}, "referralId": "e-0-574b1493498e3b6d14466975-8"}, {"reasons": {"count": 0, "items": [{"summary": "This spot is popular", "type": "general", "reasonName": "globalInteractionReason"}]}, "venue": {"id": "4adcda83f964a520904821e3", "name": "Galerie im K\u00f6rnerpark", "location": {"address": "Schierker Str. 8", "lat": 52.47110175579688, "lng": 13.43709678765251, "labeledLatLngs": [{"label": "display", "lat": 52.47110175579688, "lng": 13.43709678765251}], "distance": 258, "postalCode": "12051", "cc": "DE", "city": "Berlin", "state": "Berlin", "country": "Deutschland", "formattedAddress": ["Schierker Str. 8", "12051 Berlin", "Deutschland"]}, "categories": [{"id": "4bf58dd8d48988d1e2931735", "name": "Art Gallery", "pluralName": "Art Galleries", "shortName": "Art Gallery", "icon": {"prefix": "https://ss3.4sqi.net/img/categories_v2/arts_entertainment/artgallery_", "suffix": ".png"}, "primary": true}], "photos": {"count": 0, "groups": []}}, "referralId": "e-0-4adcda83f964a520904821e3-9"}, {"reasons": {"count": 0, "items": [{"summary": "This spot is popular", "type": "general", "reasonName": "globalInteractionReason"}]}, "venue": {"id": "5690ec80498ed05fb633f32f", "name": "ZINS Organic Haircare Salon", "location": {"address": "Thomasstrasse 59", "lat": 52.47210341972789, "lng": 13.43254955962761, "labeledLatLngs": [{"label": "display", "lat": 52.47210341972789, "lng": 13.43254955962761}], "distance": 192, "postalCode": "12053", "cc": "DE", "neighborhood": "K\u00f6rnerkiez, Berlin", "city": "Berlin", "state": "Berlin", "country": "Deutschland", "formattedAddress": ["Thomasstrasse 59", "12053 Berlin", "Deutschland"]}, "categories": [{"id": "54541900498ea6ccd0202697", "name": "Health & Beauty Service", "pluralName": "Health & Beauty Services", "shortName": "Health & Beauty", "icon": {"prefix": "https://ss3.4sqi.net/img/categories_v2/shops/salon_barber_", "suffix": ".png"}, "primary": true}], "photos": {"count": 0, "groups": []}}, "referralId": "e-0-5690ec80498ed05fb633f32f-10"}, {"reasons": {"count": 0, "items": [{"summary": "This spot is popular", "type": "general", "reasonName": "globalInteractionReason"}]}, "venue": {"id": "4c34606a7cc0c9b68c2af39a", "name": "Caf\u00e9 Vux", "location": {"address": "Wipperstr. 14", "crossStreet": "Kirchhofstr.", "lat": 52.47215815149066, "lng": 13.44250738620758, "labeledLatLngs": [{"label": "display", "lat": 52.47215815149066, "lng": 13.44250738620758}], "distance": 520, "postalCode": "12055", "cc": "DE", "city": "Berlin", "state": "Berlin", "country": "Deutschland", "formattedAddress": ["Wipperstr. 14 (Kirchhofstr.)", "12055 Berlin", "Deutschland"]}, "categories": [{"id": "4bf58dd8d48988d1d3941735", "name": "Vegetarian / Vegan Restaurant", "pluralName": "Vegetarian / Vegan Restaurants", "shortName": "Vegetarian / Vegan", "icon": {"prefix": "https://ss3.4sqi.net/img/categories_v2/food/vegetarian_", "suffix": ".png"}, "primary": true}], "photos": {"count": 0, "groups": []}}, "referralId": "e-0-4c34606a7cc0c9b68c2af39a-11"}, {"reasons": {"count": 0, "items": [{"summary": "This spot is popular", "type": "general", "reasonName": "globalInteractionReason"}]}, "venue": {"id": "4b0ea86df964a5205f5923e3", "name": "Heimathafen Neuk\u00f6lln", "location": {"address": "Karl-Marx-Str. 141", "lat": 52.47694577044968, "lng": 13.439722525814265, "labeledLatLngs": [{"label": "display", "lat": 52.47694577044968, "lng": 13.439722525814265}], "distance": 543, "postalCode": "12043", "cc": "DE", "city": "Berlin", "state": "Berlin", "country": "Deutschland", "formattedAddress": ["Karl-Marx-Str. 141", "12043 Berlin", "Deutschland"]}, "categories": [{"id": "4bf58dd8d48988d135941735", "name": "Indie Theater", "pluralName": "Indie Theaters", "shortName": "Indie", "icon": {"prefix": "https://ss3.4sqi.net/img/categories_v2/arts_entertainment/performingarts_theater_", "suffix": ".png"}, "primary": true}], "photos": {"count": 0, "groups": []}}, "referralId": "e-0-4b0ea86df964a5205f5923e3-12"}, {"reasons": {"count": 0, "items": [{"summary": "This spot is popular", "type": "general", "reasonName": "globalInteractionReason"}]}, "venue": {"id": "4e1333b7814d60ce660627e1", "name": "leuchtstoff - Kaffeebar", "location": {"address": "Siegfriedstr. 19", "lat": 52.46806531750529, "lng": 13.432528064706222, "labeledLatLngs": [{"label": "display", "lat": 52.46806531750529, "lng": 13.432528064706222}], "distance": 575, "postalCode": "12051", "cc": "DE", "city": "Berlin", "state": "Berlin", "country": "Deutschland", "formattedAddress": ["Siegfriedstr. 19", "12051 Berlin", "Deutschland"]}, "categories": [{"id": "4bf58dd8d48988d1e0931735", "name": "Coffee Shop", "pluralName": "Coffee Shops", "shortName": "Coffee Shop", "icon": {"prefix": "https://ss3.4sqi.net/img/categories_v2/food/coffeeshop_", "suffix": ".png"}, "primary": true}], "photos": {"count": 0, "groups": []}, "venuePage": {"id": "45166827"}}, "referralId": "e-0-4e1333b7814d60ce660627e1-13"}, {"reasons": {"count": 0, "items": [{"summary": "This spot is popular", "type": "general", "reasonName": "globalInteractionReason"}]}, "venue": {"id": "55bd1706498e34359287d4e2", "name": "Berliner Berg", "location": {"address": "Kopfstr. 59", "lat": 52.47623888133578, "lng": 13.432739134010728, "labeledLatLngs": [{"label": "display", "lat": 52.47623888133578, "lng": 13.432739134010728}], "distance": 388, "postalCode": "12053", "cc": "DE", "neighborhood": "Neuk\u00f6lln", "city": "Berlin", "state": "Berlin", "country": "Deutschland", "formattedAddress": ["Kopfstr. 59", "12053 Berlin", "Deutschland"]}, "categories": [{"id": "56aa371ce4b08b9a8d57356c", "name": "Beer Bar", "pluralName": "Beer Bars", "shortName": "Beer Bar", "icon": {"prefix": "https://ss3.4sqi.net/img/categories_v2/nightlife/pub_", "suffix": ".png"}, "primary": true}], "photos": {"count": 0, "groups": []}}, "referralId": "e-0-55bd1706498e34359287d4e2-14"}, {"reasons": {"count": 0, "items": [{"summary": "This spot is popular", "type": "general", "reasonName": "globalInteractionReason"}]}, "venue": {"id": "5bf3194a971317002d6463cd", "name": "Barra", "location": {"address": "Okerstr. 2", "lat": 52.474282, "lng": 13.426805, "labeledLatLngs": [{"label": "display", "lat": 52.474282, "lng": 13.426805}], "distance": 570, "postalCode": "12049", "cc": "DE", "city": "Berlin", "state": "Berlin", "country": "Deutschland", "formattedAddress": ["Okerstr. 2", "12049 Berlin", "Deutschland"]}, "categories": [{"id": "4bf58dd8d48988d1c4941735", "name": "Restaurant", "pluralName": "Restaurants", "shortName": "Restaurant", "icon": {"prefix": "https://ss3.4sqi.net/img/categories_v2/food/default_", "suffix": ".png"}, "primary": true}], "photos": {"count": 0, "groups": []}}, "referralId": "e-0-5bf3194a971317002d6463cd-15"}, {"reasons": {"count": 0, "items": [{"summary": "This spot is popular", "type": "general", "reasonName": "globalInteractionReason"}]}, "venue": {"id": "52a0d95211d292d2566b9a0c", "name": "Caf\u00e9 Amalia", "location": {"address": "Selkestr. 27", "crossStreet": "Nogastr.", "lat": 52.47006728443229, "lng": 13.437188112852507, "labeledLatLngs": [{"label": "display", "lat": 52.47006728443229, "lng": 13.437188112852507}], "distance": 362, "postalCode": "12051", "cc": "DE", "city": "Berlin", "state": "Berlin", "country": "Deutschland", "formattedAddress": ["Selkestr. 27 (Nogastr.)", "12051 Berlin", "Deutschland"]}, "categories": [{"id": "4bf58dd8d48988d16d941735", "name": "Caf\u00e9", "pluralName": "Caf\u00e9s", "shortName": "Caf\u00e9", "icon": {"prefix": "https://ss3.4sqi.net/img/categories_v2/food/cafe_", "suffix": ".png"}, "primary": true}], "photos": {"count": 0, "groups": []}}, "referralId": "e-0-52a0d95211d292d2566b9a0c-16"}, {"reasons": {"count": 0, "items": [{"summary": "This spot is popular", "type": "general", "reasonName": "globalInteractionReason"}]}, "venue": {"id": "514f920cb0edeef407181936", "name": "\u03a9 Bar", "location": {"address": "Wipperstr. 18", "crossStreet": "Sch\u00f6neweider Str.", "lat": 52.47160545272625, "lng": 13.443020693333741, "labeledLatLngs": [{"label": "display", "lat": 52.47160545272625, "lng": 13.443020693333741}], "distance": 569, "postalCode": "12055", "cc": "DE", "city": "Berlin", "state": "Berlin", "country": "Deutschland", "formattedAddress": ["Wipperstr. 18 (Sch\u00f6neweider Str.)", "12055 Berlin", "Deutschland"]}, "categories": [{"id": "4bf58dd8d48988d116941735", "name": "Bar", "pluralName": "Bars", "shortName": "Bar", "icon": {"prefix": "https://ss3.4sqi.net/img/categories_v2/nightlife/pub_", "suffix": ".png"}, "primary": true}], "photos": {"count": 0, "groups": []}}, "referralId": "e-0-514f920cb0edeef407181936-17"}, {"reasons": {"count": 0, "items": [{"summary": "This spot is popular", "type": "general", "reasonName": "globalInteractionReason"}]}, "venue": {"id": "4b54633ef964a5207cb927e3", "name": "Tiba", "location": {"address": "Karl-Marx-Str. 175", "lat": 52.47454632738598, "lng": 13.440061055810416, "labeledLatLngs": [{"label": "display", "lat": 52.47454632738598, "lng": 13.440061055810416}], "distance": 385, "cc": "DE", "neighborhood": "Karl-Marx-Stra\u00dfe", "city": "Berlin", "state": "Berlin", "country": "Deutschland", "formattedAddress": ["Karl-Marx-Str. 175", "Berlin", "Deutschland"]}, "categories": [{"id": "4bf58dd8d48988d115941735", "name": "Middle Eastern Restaurant", "pluralName": "Middle Eastern Restaurants", "shortName": "Middle Eastern", "icon": {"prefix": "https://ss3.4sqi.net/img/categories_v2/food/middleeastern_", "suffix": ".png"}, "primary": true}], "photos": {"count": 0, "groups": []}}, "referralId": "e-0-4b54633ef964a5207cb927e3-18"}, {"reasons": {"count": 0, "items": [{"summary": "This spot is popular", "type": "general", "reasonName": "globalInteractionReason"}]}, "venue": {"id": "4b6b22bff964a52021f52be3", "name": "Laika [Kultur Kiez Kneipe]", "location": {"address": "Emser Str. 131", "lat": 52.46942894642081, "lng": 13.438148756894316, "labeledLatLngs": [{"label": "display", "lat": 52.46942894642081, "lng": 13.438148756894316}], "distance": 454, "postalCode": "12057", "cc": "DE", "city": "Berlin", "state": "Berlin", "country": "Deutschland", "formattedAddress": ["Emser Str. 131", "12057 Berlin", "Deutschland"]}, "categories": [{"id": "4bf58dd8d48988d116941735", "name": "Bar", "pluralName": "Bars", "shortName": "Bar", "icon": {"prefix": "https://ss3.4sqi.net/img/categories_v2/nightlife/pub_", "suffix": ".png"}, "primary": true}], "photos": {"count": 0, "groups": []}}, "referralId": "e-0-4b6b22bff964a52021f52be3-19"}, {"reasons": {"count": 0, "items": [{"summary": "This spot is popular", "type": "general", "reasonName": "globalInteractionReason"}]}, "venue": {"id": "577bf22d498e283019df2a8c", "name": "La Stella Nera", "location": {"address": "Leykestr. 18", "lat": 52.47493, "lng": 13.427939, "labeledLatLngs": [{"label": "display", "lat": 52.47493, "lng": 13.427939}], "distance": 521, "postalCode": "12053", "cc": "DE", "neighborhood": "K\u00f6rnerkiez", "city": "Berlin", "state": "Berlin", "country": "Deutschland", "formattedAddress": ["Leykestr. 18", "12053 Berlin", "Deutschland"]}, "categories": [{"id": "4bf58dd8d48988d1d3941735", "name": "Vegetarian / Vegan Restaurant", "pluralName": "Vegetarian / Vegan Restaurants", "shortName": "Vegetarian / Vegan", "icon": {"prefix": "https://ss3.4sqi.net/img/categories_v2/food/vegetarian_", "suffix": ".png"}, "primary": true}], "photos": {"count": 0, "groups": []}}, "referralId": "e-0-577bf22d498e283019df2a8c-20"}, {"reasons": {"count": 0, "items": [{"summary": "This spot is popular", "type": "general", "reasonName": "globalInteractionReason"}]}, "venue": {"id": "4b771b51f964a5201c7e2ee3", "name": "Passage Kino", "location": {"address": "Karl-Marx-Str. 131", "lat": 52.477532904422084, "lng": 13.439125090358829, "labeledLatLngs": [{"label": "display", "lat": 52.477532904422084, "lng": 13.439125090358829}], "distance": 576, "postalCode": "12043", "cc": "DE", "city": "Berlin", "state": "Berlin", "country": "Deutschland", "formattedAddress": ["Karl-Marx-Str. 131", "12043 Berlin", "Deutschland"]}, "categories": [{"id": "4bf58dd8d48988d17e941735", "name": "Indie Movie Theater", "pluralName": "Indie Movie Theaters", "shortName": "Indie Movies", "icon": {"prefix": "https://ss3.4sqi.net/img/categories_v2/arts_entertainment/movietheater_", "suffix": ".png"}, "primary": true}], "photos": {"count": 0, "groups": []}}, "referralId": "e-0-4b771b51f964a5201c7e2ee3-21"}, {"reasons": {"count": 0, "items": [{"summary": "This spot is popular", "type": "general", "reasonName": "globalInteractionReason"}]}, "venue": {"id": "59600485123a19106a74b87f", "name": "Herr Lindemann", "location": {"address": "Richardplatz 16", "lat": 52.473923, "lng": 13.444992, "labeledLatLngs": [{"label": "display", "lat": 52.473923, "lng": 13.444992}], "distance": 687, "postalCode": "12055", "cc": "DE", "neighborhood": "B\u00f6hmisch-Rixdorf", "city": "Berlin", "state": "Berlin", "country": "Deutschland", "formattedAddress": ["Richardplatz 16", "12055 Berlin", "Deutschland"]}, "categories": [{"id": "4bf58dd8d48988d11e941735", "name": "Cocktail Bar", "pluralName": "Cocktail Bars", "shortName": "Cocktail", "icon": {"prefix": "https://ss3.4sqi.net/img/categories_v2/nightlife/cocktails_", "suffix": ".png"}, "primary": true}], "photos": {"count": 0, "groups": []}, "venuePage": {"id": "563673500"}}, "referralId": "e-0-59600485123a19106a74b87f-22"}, {"reasons": {"count": 0, "items": [{"summary": "This spot is popular", "type": "general", "reasonName": "globalInteractionReason"}]}, "venue": {"id": "50f972bce4b0c9038863a278", "name": "Dr. Pogo Veganladen", "location": {"address": "Karl-Marx-Platz 24", "lat": 52.47391871763757, "lng": 13.443196944649117, "labeledLatLngs": [{"label": "display", "lat": 52.47391871763757, "lng": 13.443196944649117}], "distance": 567, "postalCode": "12043", "cc": "DE", "city": "Berlin", "state": "Berlin", "country": "Deutschland", "formattedAddress": ["Karl-Marx-Platz 24", "12043 Berlin", "Deutschland"]}, "categories": [{"id": "52f2ab2ebcbc57f1066b8b45", "name": "Organic Grocery", "pluralName": "Organic Groceries", "shortName": "Organic Grocery", "icon": {"prefix": "https://ss3.4sqi.net/img/categories_v2/shops/food_grocery_", "suffix": ".png"}, "primary": true}], "photos": {"count": 0, "groups": []}}, "referralId": "e-0-50f972bce4b0c9038863a278-23"}, {"reasons": {"count": 0, "items": [{"summary": "This spot is popular", "type": "general", "reasonName": "globalInteractionReason"}]}, "venue": {"id": "4ea1c4f3b80355a981747dc8", "name": "From Hanoi With Love", "location": {"address": "Hermannstr. 176", "lat": 52.47136913441411, "lng": 13.429269521956977, "labeledLatLngs": [{"label": "display", "lat": 52.47136913441411, "lng": 13.429269521956977}], "distance": 427, "postalCode": "12051", "cc": "DE", "city": "Berlin", "state": "Berlin", "country": "Deutschland", "formattedAddress": ["Hermannstr. 176", "12051 Berlin", "Deutschland"]}, "categories": [{"id": "4bf58dd8d48988d14a941735", "name": "Vietnamese Restaurant", "pluralName": "Vietnamese Restaurants", "shortName": "Vietnamese", "icon": {"prefix": "https://ss3.4sqi.net/img/categories_v2/food/vietnamese_", "suffix": ".png"}, "primary": true}], "photos": {"count": 0, "groups": []}}, "referralId": "e-0-4ea1c4f3b80355a981747dc8-24"}, {"reasons": {"count": 0, "items": [{"summary": "This spot is popular", "type": "general", "reasonName": "globalInteractionReason"}]}, "venue": {"id": "504a0033e4b0fae9a726b820", "name": "SAVVY Contemporary", "location": {"address": "Richardstr. 20", "lat": 52.47684168244228, "lng": 13.44120383015267, "labeledLatLngs": [{"label": "display", "lat": 52.47684168244228, "lng": 13.44120383015267}], "distance": 600, "postalCode": "12055", "cc": "DE", "city": "Berlin", "state": "Berlin", "country": "Deutschland", "formattedAddress": ["Richardstr. 20", "12055 Berlin", "Deutschland"]}, "categories": [{"id": "4bf58dd8d48988d1e2931735", "name": "Art Gallery", "pluralName": "Art Galleries", "shortName": "Art Gallery", "icon": {"prefix": "https://ss3.4sqi.net/img/categories_v2/arts_entertainment/artgallery_", "suffix": ".png"}, "primary": true}], "photos": {"count": 0, "groups": []}}, "referralId": "e-0-504a0033e4b0fae9a726b820-25"}, {"reasons": {"count": 0, "items": [{"summary": "This spot is popular", "type": "general", "reasonName": "globalInteractionReason"}]}, "venue": {"id": "5b2e831c724750002c4e7540", "name": "Zosse", "location": {"address": "Richardstrasse 37", "lat": 52.474918, "lng": 13.443632, "labeledLatLngs": [{"label": "display", "lat": 52.474918, "lng": 13.443632}], "distance": 624, "postalCode": "12055", "cc": "DE", "neighborhood": "Karl-Marx-Stra\u00dfe", "city": "Berlin", "state": "Berlin", "country": "Deutschland", "formattedAddress": ["Richardstrasse 37", "12055 Berlin", "Deutschland"]}, "categories": [{"id": "4bf58dd8d48988d155941735", "name": "Gastropub", "pluralName": "Gastropubs", "shortName": "Gastropub", "icon": {"prefix": "https://ss3.4sqi.net/img/categories_v2/food/gastropub_", "suffix": ".png"}, "primary": true}], "photos": {"count": 0, "groups": []}}, "referralId": "e-0-5b2e831c724750002c4e7540-26"}, {"reasons": {"count": 0, "items": [{"summary": "This spot is popular", "type": "general", "reasonName": "globalInteractionReason"}]}, "venue": {"id": "5c561110b3c961002ce00d1c", "name": "Jemenitisches Restaurant", "location": {"address": "Karl-Marx-Stra\u00dfe 172", "lat": 52.474525, "lng": 13.440109, "labeledLatLngs": [{"label": "display", "lat": 52.474525, "lng": 13.440109}], "distance": 387, "postalCode": "12043", "cc": "DE", "city": "Berlin", "state": "Berlin", "country": "Deutschland", "formattedAddress": ["Karl-Marx-Stra\u00dfe 172", "12043 Berlin", "Deutschland"]}, "categories": [{"id": "5bae9231bedf3950379f89ea", "name": "Yemeni Restaurant", "pluralName": "Yemeni Restaurants", "shortName": "Yemeni Restaurant", "icon": {"prefix": "https://ss3.4sqi.net/img/categories_v2/food/middleeastern_", "suffix": ".png"}, "primary": true}], "photos": {"count": 0, "groups": []}}, "referralId": "e-0-5c561110b3c961002ce00d1c-27"}, {"reasons": {"count": 0, "items": [{"summary": "This spot is popular", "type": "general", "reasonName": "globalInteractionReason"}]}, "venue": {"id": "4c17d966834e2d7fa3fd2780", "name": "Richardplatz", "location": {"address": "Richardplatz", "crossStreet": "Richardstr.", "lat": 52.474051, "lng": 13.445404, "labeledLatLngs": [{"label": "display", "lat": 52.474051, "lng": 13.445404}], "distance": 717, "postalCode": "12055", "cc": "DE", "city": "Berlin", "state": "Berlin", "country": "Deutschland", "formattedAddress": ["Richardplatz (Richardstr.)", "12055 Berlin", "Deutschland"]}, "categories": [{"id": "4bf58dd8d48988d164941735", "name": "Plaza", "pluralName": "Plazas", "shortName": "Plaza", "icon": {"prefix": "https://ss3.4sqi.net/img/categories_v2/parks_outdoors/plaza_", "suffix": ".png"}, "primary": true}], "photos": {"count": 0, "groups": []}}, "referralId": "e-0-4c17d966834e2d7fa3fd2780-28"}, {"reasons": {"count": 0, "items": [{"summary": "This spot is popular", "type": "general", "reasonName": "globalInteractionReason"}]}, "venue": {"id": "4e6bafb1c65b5bef28ec8421", "name": "Caglayan Grillhaus", "location": {"address": "Hermannstr. 175", "lat": 52.47126974548254, "lng": 13.4293419664755, "labeledLatLngs": [{"label": "display", "lat": 52.47126974548254, "lng": 13.4293419664755}], "distance": 427, "postalCode": "12051", "cc": "DE", "neighborhood": "K\u00f6rnerkiez", "city": "Berlin", "state": "Berlin", "country": "Deutschland", "formattedAddress": ["Hermannstr. 175", "12051 Berlin", "Deutschland"]}, "categories": [{"id": "4bf58dd8d48988d115941735", "name": "Middle Eastern Restaurant", "pluralName": "Middle Eastern Restaurants", "shortName": "Middle Eastern", "icon": {"prefix": "https://ss3.4sqi.net/img/categories_v2/food/middleeastern_", "suffix": ".png"}, "primary": true}], "photos": {"count": 0, "groups": []}}, "referralId": "e-0-4e6bafb1c65b5bef28ec8421-29"}, {"reasons": {"count": 0, "items": [{"summary": "This spot is popular", "type": "general", "reasonName": "globalInteractionReason"}]}, "venue": {"id": "5a4802adea1e4412308bc0f0", "name": "arkaoda Berlin", "location": {"address": "Karl-Marx-Platz 16", "lat": 52.47393756943134, "lng": 13.442535968207551, "labeledLatLngs": [{"label": "display", "lat": 52.47393756943134, "lng": 13.442535968207551}], "distance": 523, "postalCode": "12043", "cc": "DE", "city": "Berlin", "state": "Berlin", "country": "Deutschland", "formattedAddress": ["Karl-Marx-Platz 16", "12043 Berlin", "Deutschland"]}, "categories": [{"id": "4bf58dd8d48988d11f941735", "name": "Nightclub", "pluralName": "Nightclubs", "shortName": "Nightclub", "icon": {"prefix": "https://ss3.4sqi.net/img/categories_v2/nightlife/nightclub_", "suffix": ".png"}, "primary": true}], "photos": {"count": 0, "groups": []}}, "referralId": "e-0-5a4802adea1e4412308bc0f0-30"}, {"reasons": {"count": 0, "items": [{"summary": "This spot is popular", "type": "general", "reasonName": "globalInteractionReason"}]}, "venue": {"id": "4e79071aae60f8128c6d2743", "name": "Nur Gem\u00fcse-Kebab", "location": {"address": "Hermannstr. 113", "crossStreet": "auf der S-Bahnbr\u00fccke", "lat": 52.467423, "lng": 13.431111, "labeledLatLngs": [{"label": "display", "lat": 52.467423, "lng": 13.431111}], "distance": 675, "postalCode": "12051", "cc": "DE", "city": "Berlin", "state": "Berlin", "country": "Deutschland", "formattedAddress": ["Hermannstr. 113 (auf der S-Bahnbr\u00fccke)", "12051 Berlin", "Deutschland"]}, "categories": [{"id": "5283c7b4e4b094cb91ec88d8", "name": "Doner Restaurant", "pluralName": "Doner Restaurants", "shortName": "Doner", "icon": {"prefix": "https://ss3.4sqi.net/img/categories_v2/food/turkish_", "suffix": ".png"}, "primary": true}], "photos": {"count": 0, "groups": []}}, "referralId": "e-0-4e79071aae60f8128c6d2743-31"}, {"reasons": {"count": 0, "items": [{"summary": "This spot is popular", "type": "general", "reasonName": "globalInteractionReason"}]}, "venue": {"id": "4eb5b463cc2143e8281d3f30", "name": "Liesl", "location": {"address": "Nogatstr. 30", "lat": 52.469261242840005, "lng": 13.431186883098217, "labeledLatLngs": [{"label": "display", "lat": 52.469261242840005, "lng": 13.431186883098217}], "distance": 490, "postalCode": "12051", "cc": "DE", "city": "Berlin", "state": "Berlin", "country": "Deutschland", "formattedAddress": ["Nogatstr. 30", "12051 Berlin", "Deutschland"]}, "categories": [{"id": "4bf58dd8d48988d11b941735", "name": "Pub", "pluralName": "Pubs", "shortName": "Pub", "icon": {"prefix": "https://ss3.4sqi.net/img/categories_v2/nightlife/pub_", "suffix": ".png"}, "primary": true}], "photos": {"count": 0, "groups": []}}, "referralId": "e-0-4eb5b463cc2143e8281d3f30-32"}, {"reasons": {"count": 0, "items": [{"summary": "This spot is popular", "type": "general", "reasonName": "globalInteractionReason"}]}, "venue": {"id": "5a397f23c6666622a0d7dfb0", "name": "Paulinski Palme", "location": {"address": "Richardstr. 76", "lat": 52.474957639356376, "lng": 13.444590003205292, "labeledLatLngs": [{"label": "display", "lat": 52.474957639356376, "lng": 13.444590003205292}], "distance": 687, "cc": "DE", "neighborhood": "B\u00f6hmisch-Rixdorf", "city": "Berlin", "state": "Berlin", "country": "Deutschland", "formattedAddress": ["Richardstr. 76", "Berlin", "Deutschland"]}, "categories": [{"id": "4bf58dd8d48988d123941735", "name": "Wine Bar", "pluralName": "Wine Bars", "shortName": "Wine Bar", "icon": {"prefix": "https://ss3.4sqi.net/img/categories_v2/food/winery_", "suffix": ".png"}, "primary": true}], "photos": {"count": 0, "groups": []}}, "referralId": "e-0-5a397f23c6666622a0d7dfb0-33"}, {"reasons": {"count": 0, "items": [{"summary": "This spot is popular", "type": "general", "reasonName": "globalInteractionReason"}]}, "venue": {"id": "5217309f498e84315daee9cb", "name": "Caf\u00e9 Botanico", "location": {"address": "Richardstr. 100", "lat": 52.47731595457574, "lng": 13.441248048118089, "labeledLatLngs": [{"label": "display", "lat": 52.47731595457574, "lng": 13.441248048118089}], "distance": 640, "postalCode": "12043", "cc": "DE", "city": "Berlin", "state": "Berlin", "country": "Deutschland", "formattedAddress": ["Richardstr. 100", "12043 Berlin", "Deutschland"]}, "categories": [{"id": "4bf58dd8d48988d16d941735", "name": "Caf\u00e9", "pluralName": "Caf\u00e9s", "shortName": "Caf\u00e9", "icon": {"prefix": "https://ss3.4sqi.net/img/categories_v2/food/cafe_", "suffix": ".png"}, "primary": true}], "photos": {"count": 0, "groups": []}}, "referralId": "e-0-5217309f498e84315daee9cb-34"}, {"reasons": {"count": 0, "items": [{"summary": "This spot is popular", "type": "general", "reasonName": "globalInteractionReason"}]}, "venue": {"id": "4d9712c6a2c654813bdbce53", "name": "Comenius-Garten", "location": {"address": "Richardstr. 35", "crossStreet": "Karl-Marx-Platz", "lat": 52.47504467762332, "lng": 13.442802429199219, "labeledLatLngs": [{"label": "display", "lat": 52.47504467762332, "lng": 13.442802429199219}], "distance": 577, "postalCode": "12043", "cc": "DE", "city": "Berlin", "state": "Berlin", "country": "Deutschland", "formattedAddress": ["Richardstr. 35 (Karl-Marx-Platz)", "12043 Berlin", "Deutschland"]}, "categories": [{"id": "4bf58dd8d48988d15a941735", "name": "Garden", "pluralName": "Gardens", "shortName": "Garden", "icon": {"prefix": "https://ss3.4sqi.net/img/categories_v2/parks_outdoors/garden_", "suffix": ".png"}, "primary": true}], "photos": {"count": 0, "groups": []}}, "referralId": "e-0-4d9712c6a2c654813bdbce53-35"}, {"reasons": {"count": 0, "items": [{"summary": "This spot is popular", "type": "general", "reasonName": "globalInteractionReason"}]}, "venue": {"id": "4d850d478de9721ef0c33e51", "name": "Frollein Langner", "location": {"address": "Weisestr. 34", "crossStreet": "Okerstr.", "lat": 52.47401134769074, "lng": 13.425077545416812, "labeledLatLngs": [{"label": "display", "lat": 52.47401134769074, "lng": 13.425077545416812}], "distance": 678, "postalCode": "12049", "cc": "DE", "city": "Berlin", "state": "Berlin", "country": "Deutschland", "formattedAddress": ["Weisestr. 34 (Okerstr.)", "12049 Berlin", "Deutschland"]}, "categories": [{"id": "4bf58dd8d48988d116941735", "name": "Bar", "pluralName": "Bars", "shortName": "Bar", "icon": {"prefix": "https://ss3.4sqi.net/img/categories_v2/nightlife/pub_", "suffix": ".png"}, "primary": true}], "photos": {"count": 0, "groups": []}, "venuePage": {"id": "445548475"}}, "referralId": "e-0-4d850d478de9721ef0c33e51-36"}, {"reasons": {"count": 0, "items": [{"summary": "This spot is popular", "type": "general", "reasonName": "globalInteractionReason"}]}, "venue": {"id": "50b66cd2e4b0bc146bb4280c", "name": "Alter Roter L\u00f6we Rein", "location": {"address": "Richardstr. 31", "lat": 52.47576451922523, "lng": 13.443177572017891, "labeledLatLngs": [{"label": "display", "lat": 52.47576451922523, "lng": 13.443177572017891}], "distance": 635, "postalCode": "12043", "cc": "DE", "city": "Berlin", "state": "Berlin", "country": "Deutschland", "formattedAddress": ["Richardstr. 31", "12043 Berlin", "Deutschland"]}, "categories": [{"id": "4bf58dd8d48988d116941735", "name": "Bar", "pluralName": "Bars", "shortName": "Bar", "icon": {"prefix": "https://ss3.4sqi.net/img/categories_v2/nightlife/pub_", "suffix": ".png"}, "primary": true}], "photos": {"count": 0, "groups": []}}, "referralId": "e-0-50b66cd2e4b0bc146bb4280c-37"}, {"reasons": {"count": 0, "items": [{"summary": "This spot is popular", "type": "general", "reasonName": "globalInteractionReason"}]}, "venue": {"id": "541482fa498ec442f78eaa7f", "name": "KINDL Zentrum f\u00fcr zeitgen\u00f6ssische Kunst", "location": {"address": "Am Sudhaus 2", "lat": 52.479361, "lng": 13.430944, "labeledLatLngs": [{"label": "display", "lat": 52.479361, "lng": 13.430944}], "distance": 756, "postalCode": "12053", "cc": "DE", "city": "Berlin", "state": "Berlin", "country": "Deutschland", "formattedAddress": ["Am Sudhaus 2", "12053 Berlin", "Deutschland"]}, "categories": [{"id": "4bf58dd8d48988d1e2931735", "name": "Art Gallery", "pluralName": "Art Galleries", "shortName": "Art Gallery", "icon": {"prefix": "https://ss3.4sqi.net/img/categories_v2/arts_entertainment/artgallery_", "suffix": ".png"}, "primary": true}], "photos": {"count": 0, "groups": []}}, "referralId": "e-0-541482fa498ec442f78eaa7f-38"}, {"reasons": {"count": 0, "items": [{"summary": "This spot is popular", "type": "general", "reasonName": "globalInteractionReason"}]}, "venue": {"id": "50fc4395e4b084af5edb832e", "name": "Loislane", "location": {"address": "Emser Str. 41", "lat": 52.46838972518222, "lng": 13.429575297576891, "labeledLatLngs": [{"label": "display", "lat": 52.46838972518222, "lng": 13.429575297576891}], "distance": 631, "postalCode": "12051", "cc": "DE", "city": "Berlin", "state": "Berlin", "country": "Deutschland", "formattedAddress": ["Emser Str. 41", "12051 Berlin", "Deutschland"]}, "categories": [{"id": "4bf58dd8d48988d16d941735", "name": "Caf\u00e9", "pluralName": "Caf\u00e9s", "shortName": "Caf\u00e9", "icon": {"prefix": "https://ss3.4sqi.net/img/categories_v2/food/cafe_", "suffix": ".png"}, "primary": true}], "photos": {"count": 0, "groups": []}}, "referralId": "e-0-50fc4395e4b084af5edb832e-39"}, {"reasons": {"count": 0, "items": [{"summary": "This spot is popular", "type": "general", "reasonName": "globalInteractionReason"}]}, "venue": {"id": "5259adfd498e8d8c6524c701", "name": "Velvet", "location": {"address": "Ganghofer Str. 1", "lat": 52.47907882608319, "lng": 13.438421123549753, "labeledLatLngs": [{"label": "display", "lat": 52.47907882608319, "lng": 13.438421123549753}], "distance": 713, "postalCode": "12043", "cc": "DE", "city": "Berlin", "state": "Berlin", "country": "Deutschland", "formattedAddress": ["Ganghofer Str. 1", "12043 Berlin", "Deutschland"]}, "categories": [{"id": "4bf58dd8d48988d11e941735", "name": "Cocktail Bar", "pluralName": "Cocktail Bars", "shortName": "Cocktail", "icon": {"prefix": "https://ss3.4sqi.net/img/categories_v2/nightlife/cocktails_", "suffix": ".png"}, "primary": true}], "photos": {"count": 0, "groups": []}}, "referralId": "e-0-5259adfd498e8d8c6524c701-40"}, {"reasons": {"count": 0, "items": [{"summary": "This spot is popular", "type": "general", "reasonName": "globalInteractionReason"}]}, "venue": {"id": "526b9c4e11d2ef13bf80f997", "name": "Prachtwerk", "location": {"address": "Ganghoferstr. 2", "lat": 52.47907980698503, "lng": 13.438402686454733, "labeledLatLngs": [{"label": "display", "lat": 52.47907980698503, "lng": 13.438402686454733}], "distance": 713, "postalCode": "12043", "cc": "DE", "city": "Berlin", "state": "Berlin", "country": "Deutschland", "formattedAddress": ["Ganghoferstr. 2", "12043 Berlin", "Deutschland"]}, "categories": [{"id": "4bf58dd8d48988d16d941735", "name": "Caf\u00e9", "pluralName": "Caf\u00e9s", "shortName": "Caf\u00e9", "icon": {"prefix": "https://ss3.4sqi.net/img/categories_v2/food/cafe_", "suffix": ".png"}, "primary": true}], "photos": {"count": 0, "groups": []}}, "referralId": "e-0-526b9c4e11d2ef13bf80f997-41"}, {"reasons": {"count": 0, "items": [{"summary": "This spot is popular", "type": "general", "reasonName": "globalInteractionReason"}]}, "venue": {"id": "4c82c05bd92ea09333074e72", "name": "Sameheads", "location": {"address": "Richardstr. 10", "crossStreet": "Berthelsdorfer Str.", "lat": 52.47801357422616, "lng": 13.439512698331281, "labeledLatLngs": [{"label": "display", "lat": 52.47801357422616, "lng": 13.439512698331281}], "distance": 635, "postalCode": "12043", "cc": "DE", "city": "Berlin", "state": "Berlin", "country": "Deutschland", "formattedAddress": ["Richardstr. 10 (Berthelsdorfer Str.)", "12043 Berlin", "Deutschland"]}, "categories": [{"id": "4bf58dd8d48988d116941735", "name": "Bar", "pluralName": "Bars", "shortName": "Bar", "icon": {"prefix": "https://ss3.4sqi.net/img/categories_v2/nightlife/pub_", "suffix": ".png"}, "primary": true}], "photos": {"count": 0, "groups": []}}, "referralId": "e-0-4c82c05bd92ea09333074e72-42"}, {"reasons": {"count": 0, "items": [{"summary": "This spot is popular", "type": "general", "reasonName": "globalInteractionReason"}]}, "venue": {"id": "4d3b36d7325ff04d76ff2345", "name": "Fincan Kulturcaf\u00e9", "location": {"address": "Altenbrakerstr. 26", "crossStreet": "Nogatstr", "lat": 52.46927, "lng": 13.43249, "labeledLatLngs": [{"label": "display", "lat": 52.46927, "lng": 13.43249}], "distance": 450, "postalCode": "12051", "cc": "DE", "city": "Berlin", "state": "Berlin", "country": "Deutschland", "formattedAddress": ["Altenbrakerstr. 26 (Nogatstr)", "12051 Berlin", "Deutschland"]}, "categories": [{"id": "4bf58dd8d48988d11b941735", "name": "Pub", "pluralName": "Pubs", "shortName": "Pub", "icon": {"prefix": "https://ss3.4sqi.net/img/categories_v2/nightlife/pub_", "suffix": ".png"}, "primary": true}], "photos": {"count": 0, "groups": []}}, "referralId": "e-0-4d3b36d7325ff04d76ff2345-43"}, {"reasons": {"count": 0, "items": [{"summary": "This spot is popular", "type": "general", "reasonName": "globalInteractionReason"}]}, "venue": {"id": "52987d3a498ee7054ccd9882", "name": "Flaschenzug", "location": {"address": "Emser Stra\u00dfe 16", "crossStreet": "Selkestra\u00dfe", "lat": 52.469344343506044, "lng": 13.437180250106408, "labeledLatLngs": [{"label": "display", "lat": 52.469344343506044, "lng": 13.437180250106408}], "distance": 436, "postalCode": "12051", "cc": "DE", "city": "Berlin", "state": "Berlin", "country": "Deutschland", "formattedAddress": ["Emser Stra\u00dfe 16 (Selkestra\u00dfe)", "12051 Berlin", "Deutschland"]}, "categories": [{"id": "4bf58dd8d48988d11b941735", "name": "Pub", "pluralName": "Pubs", "shortName": "Pub", "icon": {"prefix": "https://ss3.4sqi.net/img/categories_v2/nightlife/pub_", "suffix": ".png"}, "primary": true}], "photos": {"count": 0, "groups": []}}, "referralId": "e-0-52987d3a498ee7054ccd9882-44"}, {"reasons": {"count": 0, "items": [{"summary": "This spot is popular", "type": "general", "reasonName": "globalInteractionReason"}]}, "venue": {"id": "5546072a498e349bf0e737e1", "name": "Shaam Restaurant", "location": {"address": "Karl-Marx-Stra\u00dfe 177", "lat": 52.474363806181806, "lng": 13.440120220184326, "labeledLatLngs": [{"label": "display", "lat": 52.474363806181806, "lng": 13.440120220184326}], "distance": 380, "postalCode": "10247", "cc": "DE", "neighborhood": "Neuk\u00f6lln, Berlin", "city": "Berlin", "state": "Berlin", "country": "Deutschland", "formattedAddress": ["Karl-Marx-Stra\u00dfe 177", "10247 Berlin", "Deutschland"]}, "categories": [{"id": "4bf58dd8d48988d115941735", "name": "Middle Eastern Restaurant", "pluralName": "Middle Eastern Restaurants", "shortName": "Middle Eastern", "icon": {"prefix": "https://ss3.4sqi.net/img/categories_v2/food/middleeastern_", "suffix": ".png"}, "primary": true}], "photos": {"count": 0, "groups": []}}, "referralId": "e-0-5546072a498e349bf0e737e1-45"}, {"reasons": {"count": 0, "items": [{"summary": "This spot is popular", "type": "general", "reasonName": "globalInteractionReason"}]}, "venue": {"id": "553bb0b4498e935d065e6f69", "name": "Lauter Eis", "location": {"address": "Warthestr. 4", "lat": 52.470147992615466, "lng": 13.428828166771641, "labeledLatLngs": [{"label": "display", "lat": 52.470147992615466, "lng": 13.428828166771641}], "distance": 524, "cc": "DE", "city": "Berlin", "state": "Berlin", "country": "Deutschland", "formattedAddress": ["Warthestr. 4", "Berlin", "Deutschland"]}, "categories": [{"id": "4bf58dd8d48988d1c9941735", "name": "Ice Cream Shop", "pluralName": "Ice Cream Shops", "shortName": "Ice Cream", "icon": {"prefix": "https://ss3.4sqi.net/img/categories_v2/food/icecream_", "suffix": ".png"}, "primary": true}], "photos": {"count": 0, "groups": []}}, "referralId": "e-0-553bb0b4498e935d065e6f69-46"}, {"reasons": {"count": 0, "items": [{"summary": "This spot is popular", "type": "general", "reasonName": "globalInteractionReason"}]}, "venue": {"id": "536b6592498eafda5caef40f", "name": "Rixbox", "location": {"address": "Richardstr. 2", "crossStreet": "Alfred-Scholz-Platz", "lat": 52.479005733519294, "lng": 13.43779279156502, "labeledLatLngs": [{"label": "display", "lat": 52.479005733519294, "lng": 13.43779279156502}], "distance": 693, "postalCode": "12043", "cc": "DE", "city": "Berlin", "state": "Berlin", "country": "Deutschland", "formattedAddress": ["Richardstr. 2 (Alfred-Scholz-Platz)", "12043 Berlin", "Deutschland"]}, "categories": [{"id": "4bf58dd8d48988d1e0931735", "name": "Coffee Shop", "pluralName": "Coffee Shops", "shortName": "Coffee Shop", "icon": {"prefix": "https://ss3.4sqi.net/img/categories_v2/food/coffeeshop_", "suffix": ".png"}, "primary": true}], "photos": {"count": 0, "groups": []}}, "referralId": "e-0-536b6592498eafda5caef40f-47"}, {"reasons": {"count": 0, "items": [{"summary": "This spot is popular", "type": "general", "reasonName": "globalInteractionReason"}]}, "venue": {"id": "51474e67e4b02de9576b8ec6", "name": "STAR Gem\u00fcse-Schawarma & Falafel", "location": {"lat": 52.4703494828974, "lng": 13.429663296488343, "labeledLatLngs": [{"label": "display", "lat": 52.4703494828974, "lng": 13.429663296488343}], "distance": 466, "cc": "DE", "city": "Berlin", "state": "Berlin", "country": "Deutschland", "formattedAddress": ["Berlin", "Deutschland"]}, "categories": [{"id": "4bf58dd8d48988d10b941735", "name": "Falafel Restaurant", "pluralName": "Falafel Restaurants", "shortName": "Falafel", "icon": {"prefix": "https://ss3.4sqi.net/img/categories_v2/food/falafel_", "suffix": ".png"}, "primary": true}], "photos": {"count": 0, "groups": []}}, "referralId": "e-0-51474e67e4b02de9576b8ec6-48"}, {"reasons": {"count": 0, "items": [{"summary": "This spot is popular", "type": "general", "reasonName": "globalInteractionReason"}]}, "venue": {"id": "507072afe4b0e156ba5a566c", "name": "Zio Felix", "location": {"address": "Okerstr. 35", "lat": 52.47386532197597, "lng": 13.423668797923707, "labeledLatLngs": [{"label": "display", "lat": 52.47386532197597, "lng": 13.423668797923707}], "distance": 771, "postalCode": "12049", "cc": "DE", "city": "Berlin", "state": "Berlin", "country": "Deutschland", "formattedAddress": ["Okerstr. 35", "12049 Berlin", "Deutschland"]}, "categories": [{"id": "4bf58dd8d48988d1ca941735", "name": "Pizza Place", "pluralName": "Pizza Places", "shortName": "Pizza", "icon": {"prefix": "https://ss3.4sqi.net/img/categories_v2/food/pizza_", "suffix": ".png"}, "primary": true}], "photos": {"count": 0, "groups": []}}, "referralId": "e-0-507072afe4b0e156ba5a566c-49"}, {"reasons": {"count": 0, "items": [{"summary": "This spot is popular", "type": "general", "reasonName": "globalInteractionReason"}]}, "venue": {"id": "4adcda8cf964a520064a21e3", "name": "Rollberg Kino", "location": {"address": "Rollbergstr. 70", "lat": 52.478724477299146, "lng": 13.427944660847354, "labeledLatLngs": [{"label": "display", "lat": 52.478724477299146, "lng": 13.427944660847354}], "distance": 793, "postalCode": "12049", "cc": "DE", "city": "Berlin", "state": "Berlin", "country": "Deutschland", "formattedAddress": ["Rollbergstr. 70", "12049 Berlin", "Deutschland"]}, "categories": [{"id": "4bf58dd8d48988d17e941735", "name": "Indie Movie Theater", "pluralName": "Indie Movie Theaters", "shortName": "Indie Movies", "icon": {"prefix": "https://ss3.4sqi.net/img/categories_v2/arts_entertainment/movietheater_", "suffix": ".png"}, "primary": true}], "photos": {"count": 0, "groups": []}}, "referralId": "e-0-4adcda8cf964a520064a21e3-50"}, {"reasons": {"count": 0, "items": [{"summary": "This spot is popular", "type": "general", "reasonName": "globalInteractionReason"}]}, "venue": {"id": "4adcda79f964a5207b4621e3", "name": "SchwuZ", "location": {"address": "Rollbergstr. 26", "lat": 52.47944881, "lng": 13.43312668, "labeledLatLngs": [{"label": "display", "lat": 52.47944881, "lng": 13.43312668}], "distance": 725, "postalCode": "12053", "cc": "DE", "neighborhood": "Karl-Marx-Stra\u00dfe", "city": "Berlin", "state": "Berlin", "country": "Deutschland", "formattedAddress": ["Rollbergstr. 26", "12053 Berlin", "Deutschland"]}, "categories": [{"id": "4bf58dd8d48988d11f941735", "name": "Nightclub", "pluralName": "Nightclubs", "shortName": "Nightclub", "icon": {"prefix": "https://ss3.4sqi.net/img/categories_v2/nightlife/nightclub_", "suffix": ".png"}, "primary": true}], "photos": {"count": 0, "groups": []}, "venuePage": {"id": "67751609"}}, "referralId": "e-0-4adcda79f964a5207b4621e3-51"}, {"reasons": {"count": 0, "items": [{"summary": "This spot is popular", "type": "general", "reasonName": "globalInteractionReason"}]}, "venue": {"id": "5960ae4bf00a706a94bf587b", "name": "m|a", "location": {"address": "Kienitzer Strasse", "lat": 52.475971, "lng": 13.426299, "labeledLatLngs": [{"label": "display", "lat": 52.475971, "lng": 13.426299}], "distance": 672, "cc": "DE", "city": "Berlin", "state": "Berlin", "country": "Deutschland", "formattedAddress": ["Kienitzer Strasse", "Berlin", "Deutschland"]}, "categories": [{"id": "4bf58dd8d48988d143941735", "name": "Breakfast Spot", "pluralName": "Breakfast Spots", "shortName": "Breakfast", "icon": {"prefix": "https://ss3.4sqi.net/img/categories_v2/food/breakfast_", "suffix": ".png"}, "primary": true}], "photos": {"count": 0, "groups": []}}, "referralId": "e-0-5960ae4bf00a706a94bf587b-52"}, {"reasons": {"count": 0, "items": [{"summary": "This spot is popular", "type": "general", "reasonName": "globalInteractionReason"}]}, "venue": {"id": "5464ef81498e2e01c6011aef", "name": "Karabach Restaurant", "location": {"address": "Hermannstr. 196", "lat": 52.474809751872, "lng": 13.427592223272118, "labeledLatLngs": [{"label": "display", "lat": 52.474809751872, "lng": 13.427592223272118}], "distance": 537, "cc": "DE", "city": "Berlin", "state": "Berlin", "country": "Deutschland", "formattedAddress": ["Hermannstr. 196", "Berlin", "Deutschland"]}, "categories": [{"id": "5293a7d53cf9994f4e043a45", "name": "Caucasian Restaurant", "pluralName": "Caucasian Restaurants", "shortName": "Caucasian", "icon": {"prefix": "https://ss3.4sqi.net/img/categories_v2/food/caucasian_", "suffix": ".png"}, "primary": true}], "photos": {"count": 0, "groups": []}}, "referralId": "e-0-5464ef81498e2e01c6011aef-53"}, {"reasons": {"count": 0, "items": [{"summary": "This spot is popular", "type": "general", "reasonName": "globalInteractionReason"}]}, "venue": {"id": "569fe896498e2e370cb8fc70", "name": "Horse", "location": {"address": "Allerstr. 3", "lat": 52.47521407081142, "lng": 13.426422627537312, "labeledLatLngs": [{"label": "display", "lat": 52.47521407081142, "lng": 13.426422627537312}], "distance": 628, "cc": "DE", "city": "Berlin", "state": "Berlin", "country": "Deutschland", "formattedAddress": ["Allerstr. 3", "Berlin", "Deutschland"]}, "categories": [{"id": "4bf58dd8d48988d116941735", "name": "Bar", "pluralName": "Bars", "shortName": "Bar", "icon": {"prefix": "https://ss3.4sqi.net/img/categories_v2/nightlife/pub_", "suffix": ".png"}, "primary": true}], "photos": {"count": 0, "groups": []}}, "referralId": "e-0-569fe896498e2e370cb8fc70-54"}, {"reasons": {"count": 0, "items": [{"summary": "This spot is popular", "type": "general", "reasonName": "globalInteractionReason"}]}, "venue": {"id": "4eed19fc02d514a369a6fed6", "name": "Willi Moeller Holzkohle Bar", "location": {"address": "Leinestr. 54", "lat": 52.473312382927574, "lng": 13.42681498420134, "labeledLatLngs": [{"label": "display", "lat": 52.473312382927574, "lng": 13.42681498420134}], "distance": 553, "postalCode": "12049", "cc": "DE", "city": "Berlin", "state": "Berlin", "country": "Deutschland", "formattedAddress": ["Leinestr. 54", "12049 Berlin", "Deutschland"]}, "categories": [{"id": "4bf58dd8d48988d116941735", "name": "Bar", "pluralName": "Bars", "shortName": "Bar", "icon": {"prefix": "https://ss3.4sqi.net/img/categories_v2/nightlife/pub_", "suffix": ".png"}, "primary": true}], "photos": {"count": 0, "groups": []}}, "referralId": "e-0-4eed19fc02d514a369a6fed6-55"}, {"reasons": {"count": 0, "items": [{"summary": "This spot is popular", "type": "general", "reasonName": "globalInteractionReason"}]}, "venue": {"id": "5426c089498e259fb70d6d0f", "name": "Die Dicke Linda", "location": {"address": "Kranoldplatz", "lat": 52.46621875989864, "lng": 13.43731455903514, "labeledLatLngs": [{"label": "display", "lat": 52.46621875989864, "lng": 13.43731455903514}], "distance": 774, "postalCode": "12051", "cc": "DE", "city": "Berlin", "state": "Berlin", "country": "Deutschland", "formattedAddress": ["Kranoldplatz", "12051 Berlin", "Deutschland"]}, "categories": [{"id": "50be8ee891d4fa8dcc7199a7", "name": "Market", "pluralName": "Markets", "shortName": "Market", "icon": {"prefix": "https://ss3.4sqi.net/img/categories_v2/shops/market_", "suffix": ".png"}, "primary": true}], "photos": {"count": 0, "groups": []}}, "referralId": "e-0-5426c089498e259fb70d6d0f-56"}, {"reasons": {"count": 0, "items": [{"summary": "This spot is popular", "type": "general", "reasonName": "globalInteractionReason"}]}, "venue": {"id": "54688889498e74d3bc2917c6", "name": "Sahara Imbiss", "location": {"address": "Herrfurthstr. 5", "lat": 52.477422142877735, "lng": 13.424589693727848, "labeledLatLngs": [{"label": "display", "lat": 52.477422142877735, "lng": 13.424589693727848}], "distance": 856, "postalCode": "12049", "cc": "DE", "city": "Berlin", "state": "Berlin", "country": "Deutschland", "formattedAddress": ["Herrfurthstr. 5", "12049 Berlin", "Deutschland"]}, "categories": [{"id": "4bf58dd8d48988d1c8941735", "name": "African Restaurant", "pluralName": "African Restaurants", "shortName": "African", "icon": {"prefix": "https://ss3.4sqi.net/img/categories_v2/food/african_", "suffix": ".png"}, "primary": true}], "photos": {"count": 0, "groups": []}}, "referralId": "e-0-54688889498e74d3bc2917c6-57"}, {"reasons": {"count": 0, "items": [{"summary": "This spot is popular", "type": "general", "reasonName": "globalInteractionReason"}]}, "venue": {"id": "552f6482498ea9b85f2e31f5", "name": "Coffee & Deli", "location": {"address": "Hermannstr. 164", "crossStreet": "Nogatstr.", "lat": 52.469377235216726, "lng": 13.430437445640564, "labeledLatLngs": [{"label": "display", "lat": 52.469377235216726, "lng": 13.430437445640564}], "distance": 508, "postalCode": "12051", "cc": "DE", "city": "Berlin", "state": "Berlin", "country": "Deutschland", "formattedAddress": ["Hermannstr. 164 (Nogatstr.)", "12051 Berlin", "Deutschland"]}, "categories": [{"id": "4bf58dd8d48988d1e0931735", "name": "Coffee Shop", "pluralName": "Coffee Shops", "shortName": "Coffee Shop", "icon": {"prefix": "https://ss3.4sqi.net/img/categories_v2/food/coffeeshop_", "suffix": ".png"}, "primary": true}], "photos": {"count": 0, "groups": []}}, "referralId": "e-0-552f6482498ea9b85f2e31f5-58"}, {"reasons": {"count": 0, "items": [{"summary": "This spot is popular", "type": "general", "reasonName": "globalInteractionReason"}]}, "venue": {"id": "4adcda7ef964a520be4721e3", "name": "Stadtbad Neuk\u00f6lln", "location": {"address": "Ganghoferstr. 3", "lat": 52.479245262119015, "lng": 13.439937829971313, "labeledLatLngs": [{"label": "display", "lat": 52.479245262119015, "lng": 13.439937829971313}], "distance": 770, "postalCode": "12043", "cc": "DE", "city": "Berlin", "state": "Berlin", "country": "Deutschland", "formattedAddress": ["Ganghoferstr. 3", "12043 Berlin", "Deutschland"]}, "categories": [{"id": "4bf58dd8d48988d15e941735", "name": "Pool", "pluralName": "Pools", "shortName": "Pool", "icon": {"prefix": "https://ss3.4sqi.net/img/categories_v2/parks_outdoors/pool_", "suffix": ".png"}, "primary": true}], "photos": {"count": 0, "groups": []}}, "referralId": "e-0-4adcda7ef964a520be4721e3-59"}, {"reasons": {"count": 0, "items": [{"summary": "This spot is popular", "type": "general", "reasonName": "globalInteractionReason"}]}, "venue": {"id": "53ef966b498e57f6ca1f25f0", "name": "Gordon Restaurant & Records", "location": {"address": "Allerstr. 11", "lat": 52.474890245850915, "lng": 13.424141534856508, "labeledLatLngs": [{"label": "display", "lat": 52.474890245850915, "lng": 13.424141534856508}], "distance": 762, "postalCode": "12049", "cc": "DE", "city": "Berlin", "state": "Berlin", "country": "Deutschland", "formattedAddress": ["Allerstr. 11", "12049 Berlin", "Deutschland"]}, "categories": [{"id": "56aa371be4b08b9a8d573529", "name": "Israeli Restaurant", "pluralName": "Israeli Restaurants", "shortName": "Israeli", "icon": {"prefix": "https://ss3.4sqi.net/img/categories_v2/food/falafel_", "suffix": ".png"}, "primary": true}], "photos": {"count": 0, "groups": []}, "venuePage": {"id": "464134571"}}, "referralId": "e-0-53ef966b498e57f6ca1f25f0-60"}, {"reasons": {"count": 0, "items": [{"summary": "This spot is popular", "type": "general", "reasonName": "globalInteractionReason"}]}, "venue": {"id": "55df5ddb498e4344b8294ffa", "name": "Hackbert", "location": {"address": "Richardstr. 108", "lat": 52.4782836834271, "lng": 13.43894695727129, "labeledLatLngs": [{"label": "display", "lat": 52.4782836834271, "lng": 13.43894695727129}], "distance": 645, "postalCode": "12043", "cc": "DE", "city": "Berlin", "state": "Berlin", "country": "Deutschland", "formattedAddress": ["Richardstr. 108", "12043 Berlin", "Deutschland"]}, "categories": [{"id": "4bf58dd8d48988d16c941735", "name": "Burger Joint", "pluralName": "Burger Joints", "shortName": "Burgers", "icon": {"prefix": "https://ss3.4sqi.net/img/categories_v2/food/burger_", "suffix": ".png"}, "primary": true}], "photos": {"count": 0, "groups": []}}, "referralId": "e-0-55df5ddb498e4344b8294ffa-61"}, {"reasons": {"count": 0, "items": [{"summary": "This spot is popular", "type": "general", "reasonName": "globalInteractionReason"}]}, "venue": {"id": "52c863ca498e73da17e59cb9", "name": "Caligari", "location": {"address": "Kienitzerstr. 110", "lat": 52.475843, "lng": 13.423658, "labeledLatLngs": [{"label": "display", "lat": 52.475843, "lng": 13.423658}], "distance": 827, "postalCode": "12049", "cc": "DE", "city": "Berlin", "state": "Berlin", "country": "Deutschland", "formattedAddress": ["Kienitzerstr. 110", "12049 Berlin", "Deutschland"]}, "categories": [{"id": "4bf58dd8d48988d110941735", "name": "Italian Restaurant", "pluralName": "Italian Restaurants", "shortName": "Italian", "icon": {"prefix": "https://ss3.4sqi.net/img/categories_v2/food/italian_", "suffix": ".png"}, "primary": true}], "photos": {"count": 0, "groups": []}}, "referralId": "e-0-52c863ca498e73da17e59cb9-62"}, {"reasons": {"count": 0, "items": [{"summary": "This spot is popular", "type": "general", "reasonName": "globalInteractionReason"}]}, "venue": {"id": "51c9d8d2498e02a896db1de6", "name": "Falafel2go", "location": {"address": "Hermannstr. 89", "lat": 52.471698556699714, "lng": 13.428972377632144, "labeledLatLngs": [{"label": "display", "lat": 52.471698556699714, "lng": 13.428972377632144}], "distance": 431, "postalCode": "12051", "cc": "DE", "city": "Berlin", "state": "Berlin", "country": "Deutschland", "formattedAddress": ["Hermannstr. 89", "12051 Berlin", "Deutschland"]}, "categories": [{"id": "4bf58dd8d48988d10b941735", "name": "Falafel Restaurant", "pluralName": "Falafel Restaurants", "shortName": "Falafel", "icon": {"prefix": "https://ss3.4sqi.net/img/categories_v2/food/falafel_", "suffix": ".png"}, "primary": true}], "photos": {"count": 0, "groups": []}}, "referralId": "e-0-51c9d8d2498e02a896db1de6-63"}, {"reasons": {"count": 0, "items": [{"summary": "This spot is popular", "type": "general", "reasonName": "globalInteractionReason"}]}, "venue": {"id": "54327512498e648f00ca0f3b", "name": "Caffeggiando", "location": {"address": "Anzengruberstr. 19", "lat": 52.48067603707893, "lng": 13.440000066387604, "labeledLatLngs": [{"label": "display", "lat": 52.48067603707893, "lng": 13.440000066387604}], "distance": 917, "postalCode": "12043", "cc": "DE", "city": "Berlin", "state": "Berlin", "country": "Deutschland", "formattedAddress": ["Anzengruberstr. 19", "12043 Berlin", "Deutschland"]}, "categories": [{"id": "4bf58dd8d48988d1e0931735", "name": "Coffee Shop", "pluralName": "Coffee Shops", "shortName": "Coffee Shop", "icon": {"prefix": "https://ss3.4sqi.net/img/categories_v2/food/coffeeshop_", "suffix": ".png"}, "primary": true}], "photos": {"count": 0, "groups": []}}, "referralId": "e-0-54327512498e648f00ca0f3b-64"}, {"reasons": {"count": 0, "items": [{"summary": "This spot is popular", "type": "general", "reasonName": "globalInteractionReason"}]}, "venue": {"id": "549d71b1498e498dac698541", "name": "Zuckerbaby", "location": {"address": "Richardplatz 21", "lat": 52.47406674663551, "lng": 13.447139247387375, "labeledLatLngs": [{"label": "display", "lat": 52.47406674663551, "lng": 13.447139247387375}], "distance": 834, "postalCode": "12055", "cc": "DE", "city": "Berlin", "state": "Berlin", "country": "Deutschland", "formattedAddress": ["Richardplatz 21", "12055 Berlin", "Deutschland"]}, "categories": [{"id": "4bf58dd8d48988d16d941735", "name": "Caf\u00e9", "pluralName": "Caf\u00e9s", "shortName": "Caf\u00e9", "icon": {"prefix": "https://ss3.4sqi.net/img/categories_v2/food/cafe_", "suffix": ".png"}, "primary": true}], "photos": {"count": 0, "groups": []}}, "referralId": "e-0-549d71b1498e498dac698541-65"}, {"reasons": {"count": 0, "items": [{"summary": "This spot is popular", "type": "general", "reasonName": "globalInteractionReason"}]}, "venue": {"id": "5905e024a6fe4d0aa5c3e165", "name": "Eis de Rix", "location": {"address": "B\u00f6hmische Str. 48", "lat": 52.47324957385636, "lng": 13.448776677939097, "labeledLatLngs": [{"label": "display", "lat": 52.47324957385636, "lng": 13.448776677939097}], "distance": 937, "postalCode": "12055", "cc": "DE", "city": "Berlin", "state": "Berlin", "country": "Deutschland", "formattedAddress": ["B\u00f6hmische Str. 48", "12055 Berlin", "Deutschland"]}, "categories": [{"id": "4bf58dd8d48988d1c9941735", "name": "Ice Cream Shop", "pluralName": "Ice Cream Shops", "shortName": "Ice Cream", "icon": {"prefix": "https://ss3.4sqi.net/img/categories_v2/food/icecream_", "suffix": ".png"}, "primary": true}], "photos": {"count": 0, "groups": []}}, "referralId": "e-0-5905e024a6fe4d0aa5c3e165-66"}, {"reasons": {"count": 0, "items": [{"summary": "This spot is popular", "type": "general", "reasonName": "globalInteractionReason"}]}, "venue": {"id": "5525a85e498e29b842cf2f9b", "name": "L'Eustache", "location": {"address": "Weisestr. 49", "lat": 52.47665470504067, "lng": 13.424228930130086, "labeledLatLngs": [{"label": "display", "lat": 52.47665470504067, "lng": 13.424228930130086}], "distance": 832, "postalCode": "12049", "cc": "DE", "city": "Berlin", "state": "Berlin", "country": "Deutschland", "formattedAddress": ["Weisestr. 49", "12049 Berlin", "Deutschland"]}, "categories": [{"id": "4bf58dd8d48988d10c941735", "name": "French Restaurant", "pluralName": "French Restaurants", "shortName": "French", "icon": {"prefix": "https://ss3.4sqi.net/img/categories_v2/food/french_", "suffix": ".png"}, "primary": true}], "photos": {"count": 0, "groups": []}}, "referralId": "e-0-5525a85e498e29b842cf2f9b-67"}, {"reasons": {"count": 0, "items": [{"summary": "This spot is popular", "type": "general", "reasonName": "globalInteractionReason"}]}, "venue": {"id": "4b9e8ea9f964a520eaee36e3", "name": "Staalplaat", "location": {"address": "Kienitzer Stra\u00dfe 108", "crossStreet": "Weisestra\u00dfe", "lat": 52.475853785895985, "lng": 13.424348831176758, "labeledLatLngs": [{"label": "display", "lat": 52.475853785895985, "lng": 13.424348831176758}], "distance": 785, "postalCode": "12049", "cc": "DE", "city": "Berlin", "state": "Berlin", "country": "Deutschland", "formattedAddress": ["Kienitzer Stra\u00dfe 108 (Weisestra\u00dfe)", "12049 Berlin", "Deutschland"]}, "categories": [{"id": "4bf58dd8d48988d1fe941735", "name": "Music Store", "pluralName": "Music Stores", "shortName": "Music Store", "icon": {"prefix": "https://ss3.4sqi.net/img/categories_v2/shops/music_instruments_", "suffix": ".png"}, "primary": true}], "photos": {"count": 0, "groups": []}, "venuePage": {"id": "56146379"}}, "referralId": "e-0-4b9e8ea9f964a520eaee36e3-68"}, {"reasons": {"count": 0, "items": [{"summary": "This spot is popular", "type": "general", "reasonName": "globalInteractionReason"}]}, "venue": {"id": "4e56cc7945dd1627330f8a7a", "name": "Bruchberg", "location": {"address": "Okerstr. 5", "lat": 52.47418707398556, "lng": 13.426207851883365, "labeledLatLngs": [{"label": "display", "lat": 52.47418707398556, "lng": 13.426207851883365}], "distance": 607, "postalCode": "12049", "cc": "DE", "city": "Berlin", "state": "Berlin", "country": "Deutschland", "formattedAddress": ["Okerstr. 5", "12049 Berlin", "Deutschland"]}, "categories": [{"id": "4bf58dd8d48988d116941735", "name": "Bar", "pluralName": "Bars", "shortName": "Bar", "icon": {"prefix": "https://ss3.4sqi.net/img/categories_v2/nightlife/pub_", "suffix": ".png"}, "primary": true}], "photos": {"count": 0, "groups": []}}, "referralId": "e-0-4e56cc7945dd1627330f8a7a-69"}, {"reasons": {"count": 0, "items": [{"summary": "This spot is popular", "type": "general", "reasonName": "globalInteractionReason"}]}, "venue": {"id": "51447b44e4b0ec73205fbe05", "name": "P\u00eale-M\u00eale", "location": {"address": "Innstr. 26", "lat": 52.479504589221584, "lng": 13.441588028737131, "labeledLatLngs": [{"label": "display", "lat": 52.479504589221584, "lng": 13.441588028737131}], "distance": 850, "postalCode": "12043", "cc": "DE", "city": "Berlin", "state": "Berlin", "country": "Deutschland", "formattedAddress": ["Innstr. 26", "12043 Berlin", "Deutschland"]}, "categories": [{"id": "4bf58dd8d48988d1d3941735", "name": "Vegetarian / Vegan Restaurant", "pluralName": "Vegetarian / Vegan Restaurants", "shortName": "Vegetarian / Vegan", "icon": {"prefix": "https://ss3.4sqi.net/img/categories_v2/food/vegetarian_", "suffix": ".png"}, "primary": true}], "photos": {"count": 0, "groups": []}}, "referralId": "e-0-51447b44e4b0ec73205fbe05-70"}, {"reasons": {"count": 0, "items": [{"summary": "This spot is popular", "type": "general", "reasonName": "globalInteractionReason"}]}, "venue": {"id": "4c265d583703d13af243a536", "name": "Sowieso", "location": {"address": "Weisestr. 24", "lat": 52.475383271436584, "lng": 13.424472212791443, "labeledLatLngs": [{"label": "display", "lat": 52.475383271436584, "lng": 13.424472212791443}], "distance": 757, "postalCode": "12049", "cc": "DE", "city": "Berlin", "state": "Berlin", "country": "Deutschland", "formattedAddress": ["Weisestr. 24", "12049 Berlin", "Deutschland"]}, "categories": [{"id": "4bf58dd8d48988d1e7931735", "name": "Jazz Club", "pluralName": "Jazz Clubs", "shortName": "Jazz Club", "icon": {"prefix": "https://ss3.4sqi.net/img/categories_v2/arts_entertainment/musicvenue_jazzclub_", "suffix": ".png"}, "primary": true}], "photos": {"count": 0, "groups": []}}, "referralId": "e-0-4c265d583703d13af243a536-71"}, {"reasons": {"count": 0, "items": [{"summary": "This spot is popular", "type": "general", "reasonName": "globalInteractionReason"}]}, "venue": {"id": "532dcb6e11d2599de53e9e51", "name": "Balera Weinhandlung", "location": {"address": "Karl-Marx-Platz 6", "lat": 52.47355017754188, "lng": 13.441579341888428, "labeledLatLngs": [{"label": "display", "lat": 52.47355017754188, "lng": 13.441579341888428}], "distance": 452, "postalCode": "12043", "cc": "DE", "city": "Berlin", "state": "Berlin", "country": "Deutschland", "formattedAddress": ["Karl-Marx-Platz 6", "12043 Berlin", "Deutschland"]}, "categories": [{"id": "4bf58dd8d48988d119951735", "name": "Wine Shop", "pluralName": "Wine Shops", "shortName": "Wine Shop", "icon": {"prefix": "https://ss3.4sqi.net/img/categories_v2/shops/food_wineshop_", "suffix": ".png"}, "primary": true}], "photos": {"count": 0, "groups": []}}, "referralId": "e-0-532dcb6e11d2599de53e9e51-72"}, {"reasons": {"count": 0, "items": [{"summary": "This spot is popular", "type": "general", "reasonName": "globalInteractionReason"}]}, "venue": {"id": "53484a7111d2a904ff37ee82", "name": "Twinpigs", "location": {"address": "Boddinstr. 57a", "crossStreet": "Isarstr.", "lat": 52.4805332030826, "lng": 13.43186175232404, "labeledLatLngs": [{"label": "display", "lat": 52.4805332030826, "lng": 13.43186175232404}], "distance": 861, "postalCode": "12057", "cc": "DE", "neighborhood": "Neuk\u00f6lln, Berlin", "city": "Berlin", "state": "Berlin", "country": "Deutschland", "formattedAddress": ["Boddinstr. 57a (Isarstr.)", "12057 Berlin", "Deutschland"]}, "categories": [{"id": "4bf58dd8d48988d11e941735", "name": "Cocktail Bar", "pluralName": "Cocktail Bars", "shortName": "Cocktail", "icon": {"prefix": "https://ss3.4sqi.net/img/categories_v2/nightlife/cocktails_", "suffix": ".png"}, "primary": true}], "photos": {"count": 0, "groups": []}, "venuePage": {"id": "126342569"}}, "referralId": "e-0-53484a7111d2a904ff37ee82-73"}, {"reasons": {"count": 0, "items": [{"summary": "This spot is popular", "type": "general", "reasonName": "globalInteractionReason"}]}, "venue": {"id": "54e10a6a498e2dc6fb1a965e", "name": "Rotbart", "location": {"address": "B\u00f6hmische Str. 43", "lat": 52.4741492705725, "lng": 13.449253552968257, "labeledLatLngs": [{"label": "display", "lat": 52.4741492705725, "lng": 13.449253552968257}], "distance": 977, "postalCode": "12055", "cc": "DE", "city": "Berlin", "state": "Berlin", "country": "Deutschland", "formattedAddress": ["B\u00f6hmische Str. 43", "12055 Berlin", "Deutschland"]}, "categories": [{"id": "4bf58dd8d48988d116941735", "name": "Bar", "pluralName": "Bars", "shortName": "Bar", "icon": {"prefix": "https://ss3.4sqi.net/img/categories_v2/nightlife/pub_", "suffix": ".png"}, "primary": true}], "photos": {"count": 0, "groups": []}, "venuePage": {"id": "395407294"}}, "referralId": "e-0-54e10a6a498e2dc6fb1a965e-74"}, {"reasons": {"count": 0, "items": [{"summary": "This spot is popular", "type": "general", "reasonName": "globalInteractionReason"}]}, "venue": {"id": "4cb9d00143ec6dcbbfc09f31", "name": "Rollberger Brauerei", "location": {"address": "Am Sudhaus 3", "lat": 52.47928349262418, "lng": 13.43150028787002, "labeledLatLngs": [{"label": "display", "lat": 52.47928349262418, "lng": 13.43150028787002}], "distance": 735, "postalCode": "12053", "cc": "DE", "city": "Berlin", "state": "Berlin", "country": "Deutschland", "formattedAddress": ["Am Sudhaus 3", "12053 Berlin", "Deutschland"]}, "categories": [{"id": "50327c8591d4c4b30a586d5d", "name": "Brewery", "pluralName": "Breweries", "shortName": "Brewery", "icon": {"prefix": "https://ss3.4sqi.net/img/categories_v2/food/brewery_", "suffix": ".png"}, "primary": true}], "photos": {"count": 0, "groups": []}}, "referralId": "e-0-4cb9d00143ec6dcbbfc09f31-75"}, {"reasons": {"count": 0, "items": [{"summary": "This spot is popular", "type": "general", "reasonName": "globalInteractionReason"}]}, "venue": {"id": "5b42058a2b274a002cf417f1", "name": "Wilke", "location": {"address": "Boddinstr. 10", "crossStreet": "Isarstr.", "lat": 52.48067953612267, "lng": 13.431440591812134, "labeledLatLngs": [{"label": "display", "lat": 52.48067953612267, "lng": 13.431440591812134}], "distance": 885, "postalCode": "12053", "cc": "DE", "city": "Berlin", "state": "Berlin", "country": "Deutschland", "formattedAddress": ["Boddinstr. 10 (Isarstr.)", "12053 Berlin", "Deutschland"]}, "categories": [{"id": "4bf58dd8d48988d143941735", "name": "Breakfast Spot", "pluralName": "Breakfast Spots", "shortName": "Breakfast", "icon": {"prefix": "https://ss3.4sqi.net/img/categories_v2/food/breakfast_", "suffix": ".png"}, "primary": true}], "photos": {"count": 0, "groups": []}}, "referralId": "e-0-5b42058a2b274a002cf417f1-76"}, {"reasons": {"count": 0, "items": [{"summary": "This spot is popular", "type": "general", "reasonName": "globalInteractionReason"}]}, "venue": {"id": "4c260b48f1272d7f50c385c5", "name": "Froschk\u00f6nig", "location": {"address": "Weisestr. 17", "lat": 52.47696784551964, "lng": 13.424033070406335, "labeledLatLngs": [{"label": "display", "lat": 52.47696784551964, "lng": 13.424033070406335}], "distance": 861, "postalCode": "12049", "cc": "DE", "city": "Berlin", "state": "Berlin", "country": "Deutschland", "formattedAddress": ["Weisestr. 17", "12049 Berlin", "Deutschland"]}, "categories": [{"id": "4bf58dd8d48988d116941735", "name": "Bar", "pluralName": "Bars", "shortName": "Bar", "icon": {"prefix": "https://ss3.4sqi.net/img/categories_v2/nightlife/pub_", "suffix": ".png"}, "primary": true}], "photos": {"count": 0, "groups": []}, "venuePage": {"id": "45903295"}}, "referralId": "e-0-4c260b48f1272d7f50c385c5-77"}, {"reasons": {"count": 0, "items": [{"summary": "This spot is popular", "type": "general", "reasonName": "globalInteractionReason"}]}, "venue": {"id": "4f3ed697e4b0a9c4c8447491", "name": "Laidak", "location": {"address": "Boddinstr. 42-43", "lat": 52.480035853940564, "lng": 13.428568627950837, "labeledLatLngs": [{"label": "display", "lat": 52.480035853940564, "lng": 13.428568627950837}], "distance": 892, "postalCode": "12053", "cc": "DE", "city": "Berlin", "state": "Berlin", "country": "Deutschland", "formattedAddress": ["Boddinstr. 42-43", "12053 Berlin", "Deutschland"]}, "categories": [{"id": "4bf58dd8d48988d116941735", "name": "Bar", "pluralName": "Bars", "shortName": "Bar", "icon": {"prefix": "https://ss3.4sqi.net/img/categories_v2/nightlife/pub_", "suffix": ".png"}, "primary": true}], "photos": {"count": 0, "groups": []}}, "referralId": "e-0-4f3ed697e4b0a9c4c8447491-78"}, {"reasons": {"count": 0, "items": [{"summary": "This spot is popular", "type": "general", "reasonName": "globalInteractionReason"}]}, "venue": {"id": "4d570fe5611aa35dcc514939", "name": "Ungeheuer Neuk\u00f6lln", "location": {"address": "Emser Str. 23", "lat": 52.4690381331751, "lng": 13.434946875189306, "labeledLatLngs": [{"label": "display", "lat": 52.4690381331751, "lng": 13.434946875189306}], "distance": 443, "postalCode": "12051", "cc": "DE", "city": "Berlin", "state": "Berlin", "country": "Deutschland", "formattedAddress": ["Emser Str. 23", "12051 Berlin", "Deutschland"]}, "categories": [{"id": "4bf58dd8d48988d16d941735", "name": "Caf\u00e9", "pluralName": "Caf\u00e9s", "shortName": "Caf\u00e9", "icon": {"prefix": "https://ss3.4sqi.net/img/categories_v2/food/cafe_", "suffix": ".png"}, "primary": true}], "photos": {"count": 0, "groups": []}}, "referralId": "e-0-4d570fe5611aa35dcc514939-79"}, {"reasons": {"count": 0, "items": [{"summary": "This spot is popular", "type": "general", "reasonName": "globalInteractionReason"}]}, "venue": {"id": "4cf7f072dc40a35d05245054", "name": "Mae Charoen", "location": {"address": "Sonnenallee 134", "crossStreet": "Geygerstr.", "lat": 52.47970186394123, "lng": 13.444004335520644, "labeledLatLngs": [{"label": "display", "lat": 52.47970186394123, "lng": 13.444004335520644}], "distance": 963, "postalCode": "12059", "cc": "DE", "city": "Berlin", "state": "Berlin", "country": "Deutschland", "formattedAddress": ["Sonnenallee 134 (Geygerstr.)", "12059 Berlin", "Deutschland"]}, "categories": [{"id": "4bf58dd8d48988d149941735", "name": "Thai Restaurant", "pluralName": "Thai Restaurants", "shortName": "Thai", "icon": {"prefix": "https://ss3.4sqi.net/img/categories_v2/food/thai_", "suffix": ".png"}, "primary": true}], "photos": {"count": 0, "groups": []}}, "referralId": "e-0-4cf7f072dc40a35d05245054-80"}, {"reasons": {"count": 0, "items": [{"summary": "This spot is popular", "type": "general", "reasonName": "globalInteractionReason"}]}, "venue": {"id": "5b3b72c5de3bbf0039db8887", "name": "La Malo", "location": {"address": "Flughafenstr. 25", "crossStreet": "Isarstrasse", "lat": 52.48151, "lng": 13.430677, "labeledLatLngs": [{"label": "display", "lat": 52.48151, "lng": 13.430677}], "distance": 988, "postalCode": "12053", "cc": "DE", "city": "Berlin", "state": "Berlin", "country": "Deutschland", "formattedAddress": ["Flughafenstr. 25 (Isarstrasse)", "12053 Berlin", "Deutschland"]}, "categories": [{"id": "4bf58dd8d48988d1c4941735", "name": "Restaurant", "pluralName": "Restaurants", "shortName": "Restaurant", "icon": {"prefix": "https://ss3.4sqi.net/img/categories_v2/food/default_", "suffix": ".png"}, "primary": true}], "photos": {"count": 0, "groups": []}}, "referralId": "e-0-5b3b72c5de3bbf0039db8887-81"}, {"reasons": {"count": 0, "items": [{"summary": "This spot is popular", "type": "general", "reasonName": "globalInteractionReason"}]}, "venue": {"id": "50f184dfe4b058f4ca61ffb0", "name": "Pazzi X Pizza", "location": {"address": "Herrfurthstr. 8", "lat": 52.47722535449326, "lng": 13.423436563311506, "labeledLatLngs": [{"label": "display", "lat": 52.47722535449326, "lng": 13.423436563311506}], "distance": 910, "postalCode": "12049", "cc": "DE", "city": "Berlin", "state": "Berlin", "country": "Deutschland", "formattedAddress": ["Herrfurthstr. 8", "12049 Berlin", "Deutschland"]}, "categories": [{"id": "4bf58dd8d48988d1ca941735", "name": "Pizza Place", "pluralName": "Pizza Places", "shortName": "Pizza", "icon": {"prefix": "https://ss3.4sqi.net/img/categories_v2/food/pizza_", "suffix": ".png"}, "primary": true}], "photos": {"count": 0, "groups": []}}, "referralId": "e-0-50f184dfe4b058f4ca61ffb0-82"}, {"reasons": {"count": 0, "items": [{"summary": "This spot is popular", "type": "general", "reasonName": "globalInteractionReason"}]}, "venue": {"id": "5393767a498e4cf319ad408e", "name": "eismanufaktur Berlin", "location": {"address": "Karl-Marx-Platz 17", "lat": 52.474030108268366, "lng": 13.442685505412488, "labeledLatLngs": [{"label": "display", "lat": 52.474030108268366, "lng": 13.442685505412488}], "distance": 535, "postalCode": "12043", "cc": "DE", "city": "Berlin", "state": "Berlin", "country": "Deutschland", "formattedAddress": ["Karl-Marx-Platz 17", "12043 Berlin", "Deutschland"]}, "categories": [{"id": "4bf58dd8d48988d1c9941735", "name": "Ice Cream Shop", "pluralName": "Ice Cream Shops", "shortName": "Ice Cream", "icon": {"prefix": "https://ss3.4sqi.net/img/categories_v2/food/icecream_", "suffix": ".png"}, "primary": true}], "photos": {"count": 0, "groups": []}}, "referralId": "e-0-5393767a498e4cf319ad408e-83"}, {"reasons": {"count": 0, "items": [{"summary": "This spot is popular", "type": "general", "reasonName": "globalInteractionReason"}]}, "venue": {"id": "4d657cf2072a6ea839e2fd4d", "name": "Promenaden Eck", "location": {"address": "Schillerpromenade 11", "lat": 52.475630119772816, "lng": 13.422320422454211, "labeledLatLngs": [{"label": "display", "lat": 52.475630119772816, "lng": 13.422320422454211}], "distance": 904, "postalCode": "12049", "cc": "DE", "city": "Berlin", "state": "Berlin", "country": "Deutschland", "formattedAddress": ["Schillerpromenade 11", "12049 Berlin", "Deutschland"]}, "categories": [{"id": "4bf58dd8d48988d116941735", "name": "Bar", "pluralName": "Bars", "shortName": "Bar", "icon": {"prefix": "https://ss3.4sqi.net/img/categories_v2/nightlife/pub_", "suffix": ".png"}, "primary": true}], "photos": {"count": 0, "groups": []}}, "referralId": "e-0-4d657cf2072a6ea839e2fd4d-84"}, {"reasons": {"count": 0, "items": [{"summary": "This spot is popular", "type": "general", "reasonName": "globalInteractionReason"}]}, "venue": {"id": "56afdc27498ef991e976d4b6", "name": "Tennis", "location": {"address": "Reuterstra\u00dfe 95", "crossStreet": "Flughafenstra\u00dfe", "lat": 52.48092722634575, "lng": 13.429441063967715, "labeledLatLngs": [{"label": "display", "lat": 52.48092722634575, "lng": 13.429441063967715}], "distance": 956, "postalCode": "12053", "cc": "DE", "city": "Berlin", "state": "Berlin", "country": "Deutschland", "formattedAddress": ["Reuterstra\u00dfe 95 (Flughafenstra\u00dfe)", "12053 Berlin", "Deutschland"]}, "categories": [{"id": "4bf58dd8d48988d16d941735", "name": "Caf\u00e9", "pluralName": "Caf\u00e9s", "shortName": "Caf\u00e9", "icon": {"prefix": "https://ss3.4sqi.net/img/categories_v2/food/cafe_", "suffix": ".png"}, "primary": true}], "photos": {"count": 0, "groups": []}}, "referralId": "e-0-56afdc27498ef991e976d4b6-85"}, {"reasons": {"count": 0, "items": [{"summary": "This spot is popular", "type": "general", "reasonName": "globalInteractionReason"}]}, "venue": {"id": "4f6f2f26e4b0f577d3820807", "name": "Thomash\u00f6he", "location": {"address": "Thomasstra\u00dfe 27", "lat": 52.473747313419736, "lng": 13.437076700806657, "labeledLatLngs": [{"label": "display", "lat": 52.473747313419736, "lng": 13.437076700806657}], "distance": 164, "postalCode": "12045", "cc": "DE", "city": "Berlin", "state": "Berlin", "country": "Deutschland", "formattedAddress": ["Thomasstra\u00dfe 27", "12045 Berlin", "Deutschland"]}, "categories": [{"id": "4bf58dd8d48988d163941735", "name": "Park", "pluralName": "Parks", "shortName": "Park", "icon": {"prefix": "https://ss3.4sqi.net/img/categories_v2/parks_outdoors/park_", "suffix": ".png"}, "primary": true}], "photos": {"count": 0, "groups": []}}, "referralId": "e-0-4f6f2f26e4b0f577d3820807-86"}, {"reasons": {"count": 0, "items": [{"summary": "This spot is popular", "type": "general", "reasonName": "globalInteractionReason"}]}, "venue": {"id": "4d96dda70caaa143b90b83b3", "name": "Schillermarkt Herrfurthplatz", "location": {"address": "Herrfurthplatz", "lat": 52.477050340654095, "lng": 13.422782467238656, "labeledLatLngs": [{"label": "display", "lat": 52.477050340654095, "lng": 13.422782467238656}], "distance": 939, "postalCode": "12049", "cc": "DE", "city": "Berlin", "state": "Berlin", "country": "Deutschland", "formattedAddress": ["Herrfurthplatz", "12049 Berlin", "Deutschland"]}, "categories": [{"id": "4bf58dd8d48988d1fa941735", "name": "Farmers Market", "pluralName": "Farmers Markets", "shortName": "Farmer's Market", "icon": {"prefix": "https://ss3.4sqi.net/img/categories_v2/shops/food_farmersmarket_", "suffix": ".png"}, "primary": true}], "photos": {"count": 0, "groups": []}}, "referralId": "e-0-4d96dda70caaa143b90b83b3-87"}, {"reasons": {"count": 0, "items": [{"summary": "This spot is popular", "type": "general", "reasonName": "globalInteractionReason"}]}, "venue": {"id": "4db576304df05e5aaaf27d0f", "name": "Boddinplatz", "location": {"address": "Boddinstra\u00dfe", "lat": 52.48063966348003, "lng": 13.428910762787895, "labeledLatLngs": [{"label": "display", "lat": 52.48063966348003, "lng": 13.428910762787895}], "distance": 941, "postalCode": "12053", "cc": "DE", "city": "Berlin", "state": "Berlin", "country": "Deutschland", "formattedAddress": ["Boddinstra\u00dfe", "12053 Berlin", "Deutschland"]}, "categories": [{"id": "4bf58dd8d48988d164941735", "name": "Plaza", "pluralName": "Plazas", "shortName": "Plaza", "icon": {"prefix": "https://ss3.4sqi.net/img/categories_v2/parks_outdoors/plaza_", "suffix": ".png"}, "primary": true}], "photos": {"count": 0, "groups": []}}, "referralId": "e-0-4db576304df05e5aaaf27d0f-88"}, {"reasons": {"count": 0, "items": [{"summary": "This spot is popular", "type": "general", "reasonName": "globalInteractionReason"}]}, "venue": {"id": "4f359259e4b01f8cbd210011", "name": "Aller Eck", "location": {"lat": 52.47484222836367, "lng": 13.424786734415905, "labeledLatLngs": [{"label": "display", "lat": 52.47484222836367, "lng": 13.424786734415905}], "distance": 718, "cc": "DE", "city": "Berlin", "state": "Berlin", "country": "Deutschland", "formattedAddress": ["Berlin", "Deutschland"]}, "categories": [{"id": "4bf58dd8d48988d118941735", "name": "Dive Bar", "pluralName": "Dive Bars", "shortName": "Dive Bar", "icon": {"prefix": "https://ss3.4sqi.net/img/categories_v2/nightlife/divebar_", "suffix": ".png"}, "primary": true}], "photos": {"count": 0, "groups": []}}, "referralId": "e-0-4f359259e4b01f8cbd210011-89"}, {"reasons": {"count": 0, "items": [{"summary": "This spot is popular", "type": "general", "reasonName": "globalInteractionReason"}]}, "venue": {"id": "59f9baea8c812a14a8bf4ad7", "name": "Holy Coffee", "location": {"address": "Sonnenallee 132", "crossStreet": "Geygerstr.", "lat": 52.479833459184675, "lng": 13.443649838260455, "labeledLatLngs": [{"label": "display", "lat": 52.479833459184675, "lng": 13.443649838260455}], "distance": 960, "postalCode": "12059", "cc": "DE", "neighborhood": "Neuk\u00f6lln", "city": "Berlin", "state": "Berlin", "country": "Deutschland", "formattedAddress": ["Sonnenallee 132 (Geygerstr.)", "12059 Berlin", "Deutschland"]}, "categories": [{"id": "4bf58dd8d48988d1e0931735", "name": "Coffee Shop", "pluralName": "Coffee Shops", "shortName": "Coffee Shop", "icon": {"prefix": "https://ss3.4sqi.net/img/categories_v2/food/coffeeshop_", "suffix": ".png"}, "primary": true}], "photos": {"count": 0, "groups": []}}, "referralId": "e-0-59f9baea8c812a14a8bf4ad7-90"}, {"reasons": {"count": 0, "items": [{"summary": "This spot is popular", "type": "general", "reasonName": "globalInteractionReason"}]}, "venue": {"id": "554b6a3d498e26bc9cdf95af", "name": "denn's Biomarkt", "location": {"address": "Karl-Marx-Str. 234", "lat": 52.468407, "lng": 13.441289, "labeledLatLngs": [{"label": "display", "lat": 52.468407, "lng": 13.441289}], "distance": 669, "postalCode": "12055", "cc": "DE", "city": "Berlin", "state": "Berlin", "country": "Deutschland", "formattedAddress": ["Karl-Marx-Str. 234", "12055 Berlin", "Deutschland"]}, "categories": [{"id": "52f2ab2ebcbc57f1066b8b45", "name": "Organic Grocery", "pluralName": "Organic Groceries", "shortName": "Organic Grocery", "icon": {"prefix": "https://ss3.4sqi.net/img/categories_v2/shops/food_grocery_", "suffix": ".png"}, "primary": true}], "photos": {"count": 0, "groups": []}}, "referralId": "e-0-554b6a3d498e26bc9cdf95af-91"}, {"reasons": {"count": 0, "items": [{"summary": "This spot is popular", "type": "general", "reasonName": "globalInteractionReason"}]}, "venue": {"id": "4d9c8a3d7865a0930e0dd37a", "name": "Pho Phan", "location": {"address": "Hermannstr. 151", "lat": 52.465707, "lng": 13.432417, "labeledLatLngs": [{"label": "display", "lat": 52.465707, "lng": 13.432417}], "distance": 832, "postalCode": "12051", "cc": "DE", "neighborhood": "Neuk\u00f6lln, Berlin", "city": "Berlin", "state": "Berlin", "country": "Deutschland", "formattedAddress": ["Hermannstr. 151", "12051 Berlin", "Deutschland"]}, "categories": [{"id": "4bf58dd8d48988d14a941735", "name": "Vietnamese Restaurant", "pluralName": "Vietnamese Restaurants", "shortName": "Vietnamese", "icon": {"prefix": "https://ss3.4sqi.net/img/categories_v2/food/vietnamese_", "suffix": ".png"}, "primary": true}], "photos": {"count": 0, "groups": []}}, "referralId": "e-0-4d9c8a3d7865a0930e0dd37a-92"}, {"reasons": {"count": 0, "items": [{"summary": "This spot is popular", "type": "general", "reasonName": "globalInteractionReason"}]}, "venue": {"id": "58755b6401f0772704b6e0d9", "name": "Babbo Bar", "location": {"address": "Donaustr. 103", "crossStreet": "Erkstr.", "lat": 52.481695588044566, "lng": 13.436558246612549, "labeledLatLngs": [{"label": "display", "lat": 52.481695588044566, "lng": 13.436558246612549}], "distance": 971, "postalCode": "12043", "cc": "DE", "city": "Berlin", "state": "Berlin", "country": "Deutschland", "formattedAddress": ["Donaustr. 103 (Erkstr.)", "12043 Berlin", "Deutschland"]}, "categories": [{"id": "4bf58dd8d48988d110941735", "name": "Italian Restaurant", "pluralName": "Italian Restaurants", "shortName": "Italian", "icon": {"prefix": "https://ss3.4sqi.net/img/categories_v2/food/italian_", "suffix": ".png"}, "primary": true}], "photos": {"count": 0, "groups": []}}, "referralId": "e-0-58755b6401f0772704b6e0d9-93"}, {"reasons": {"count": 0, "items": [{"summary": "This spot is popular", "type": "general", "reasonName": "globalInteractionReason"}]}, "venue": {"id": "53a6ef81498e56d9917b270b", "name": "Lux", "location": {"address": "Herfurthstr. 9", "lat": 52.47722553179799, "lng": 13.423214181094338, "labeledLatLngs": [{"label": "display", "lat": 52.47722553179799, "lng": 13.423214181094338}], "distance": 923, "postalCode": "12049", "cc": "DE", "city": "Berlin", "state": "Berlin", "country": "Deutschland", "formattedAddress": ["Herfurthstr. 9", "12049 Berlin", "Deutschland"]}, "categories": [{"id": "4bf58dd8d48988d16d941735", "name": "Caf\u00e9", "pluralName": "Caf\u00e9s", "shortName": "Caf\u00e9", "icon": {"prefix": "https://ss3.4sqi.net/img/categories_v2/food/cafe_", "suffix": ".png"}, "primary": true}], "photos": {"count": 0, "groups": []}}, "referralId": "e-0-53a6ef81498e56d9917b270b-94"}, {"reasons": {"count": 0, "items": [{"summary": "This spot is popular", "type": "general", "reasonName": "globalInteractionReason"}]}, "venue": {"id": "5387a7bc498ef911b51bde2c", "name": "nuts & co", "location": {"address": "Hermannstr. 52", "lat": 52.47796823734902, "lng": 13.426093371865742, "labeledLatLngs": [{"label": "display", "lat": 52.47796823734902, "lng": 13.426093371865742}], "distance": 815, "postalCode": "12049", "cc": "DE", "city": "Berlin", "state": "Berlin", "country": "Deutschland", "formattedAddress": ["Hermannstr. 52", "12049 Berlin", "Deutschland"]}, "categories": [{"id": "4bf58dd8d48988d1f9941735", "name": "Food & Drink Shop", "pluralName": "Food & Drink Shops", "shortName": "Food & Drink", "icon": {"prefix": "https://ss3.4sqi.net/img/categories_v2/shops/foodanddrink_", "suffix": ".png"}, "primary": true}], "photos": {"count": 0, "groups": []}}, "referralId": "e-0-5387a7bc498ef911b51bde2c-95"}, {"reasons": {"count": 0, "items": [{"summary": "This spot is popular", "type": "general", "reasonName": "globalInteractionReason"}]}, "venue": {"id": "4c4c585442b4d13aed1df57f", "name": "Zitronencaf\u00e9", "location": {"address": "Schierker Str. 8", "lat": 52.47102854007952, "lng": 13.436944129396334, "labeledLatLngs": [{"label": "display", "lat": 52.47102854007952, "lng": 13.436944129396334}], "distance": 259, "postalCode": "12051", "cc": "DE", "city": "Berlin", "state": "Berlin", "country": "Deutschland", "formattedAddress": ["Schierker Str. 8", "12051 Berlin", "Deutschland"]}, "categories": [{"id": "4bf58dd8d48988d16d941735", "name": "Caf\u00e9", "pluralName": "Caf\u00e9s", "shortName": "Caf\u00e9", "icon": {"prefix": "https://ss3.4sqi.net/img/categories_v2/food/cafe_", "suffix": ".png"}, "primary": true}], "photos": {"count": 0, "groups": []}}, "referralId": "e-0-4c4c585442b4d13aed1df57f-96"}, {"reasons": {"count": 0, "items": [{"summary": "This spot is popular", "type": "general", "reasonName": "globalInteractionReason"}]}, "venue": {"id": "4f19e478e4b0850c8292791d", "name": "Balli Imbiss", "location": {"address": "Leinestrasse", "lat": 52.472630072640335, "lng": 13.428496051089214, "labeledLatLngs": [{"label": "display", "lat": 52.472630072640335, "lng": 13.428496051089214}], "distance": 440, "cc": "DE", "city": "Berlin", "state": "Berlin", "country": "Deutschland", "formattedAddress": ["Leinestrasse", "Berlin", "Deutschland"]}, "categories": [{"id": "4f04af1f2fb6e1c99f3db0bb", "name": "Turkish Restaurant", "pluralName": "Turkish Restaurants", "shortName": "Turkish", "icon": {"prefix": "https://ss3.4sqi.net/img/categories_v2/food/turkish_", "suffix": ".png"}, "primary": true}], "photos": {"count": 0, "groups": []}}, "referralId": "e-0-4f19e478e4b0850c8292791d-97"}, {"reasons": {"count": 0, "items": [{"summary": "This spot is popular", "type": "general", "reasonName": "globalInteractionReason"}]}, "venue": {"id": "5755c924498e7c81f84e757e", "name": "Deriva", "location": {"address": "Mainzer Stra\u00dfe 23", "lat": 52.48080956382029, "lng": 13.427834764008608, "labeledLatLngs": [{"label": "display", "lat": 52.48080956382029, "lng": 13.427834764008608}], "distance": 992, "postalCode": "12053", "cc": "DE", "city": "Berlin", "state": "Berlin", "country": "Deutschland", "formattedAddress": ["Mainzer Stra\u00dfe 23", "12053 Berlin", "Deutschland"]}, "categories": [{"id": "4bf58dd8d48988d116941735", "name": "Bar", "pluralName": "Bars", "shortName": "Bar", "icon": {"prefix": "https://ss3.4sqi.net/img/categories_v2/nightlife/pub_", "suffix": ".png"}, "primary": true}], "photos": {"count": 0, "groups": []}}, "referralId": "e-0-5755c924498e7c81f84e757e-98"}, {"reasons": {"count": 0, "items": [{"summary": "This spot is popular", "type": "general", "reasonName": "globalInteractionReason"}]}, "venue": {"id": "5999a5f158002c4ccec15a80", "name": "Lalibela", "location": {"lat": 52.47723, "lng": 13.425074, "labeledLatLngs": [{"label": "display", "lat": 52.47723, "lng": 13.425074}], "distance": 817, "cc": "DE", "city": "Berlin", "state": "Berlin", "country": "Deutschland", "formattedAddress": ["Berlin", "Deutschland"]}, "categories": [{"id": "4bf58dd8d48988d10a941735", "name": "Ethiopian Restaurant", "pluralName": "Ethiopian Restaurants", "shortName": "Ethiopian", "icon": {"prefix": "https://ss3.4sqi.net/img/categories_v2/food/ethiopian_", "suffix": ".png"}, "primary": true}], "photos": {"count": 0, "groups": []}}, "referralId": "e-0-5999a5f158002c4ccec15a80-99"}]