[{"reasons": {"count": 0, "items": [{"summary": "This spot is popular", "type": "general", "reasonName": "globalInteractionReason"}]}, "venue": {"id": "4c2113f313c00f47586785de", "name": "Lerchen und Eulen", "location": {"address": "P\u00fccklerstr. 33", "lat": 52.5022542722616, "lng": 13.430717849669797, "labeledLatLngs": [{"label": "display", "lat": 52.5022542722616, "lng": 13.430717849669797}], "distance": 190, "postalCode": "10997", "cc": "DE", "city": "Berlin", "state": "Berlin", "country": "Deutschland", "formattedAddress": ["P\u00fccklerstr. 33", "10997 Berlin", "Deutschland"]}, "categories": [{"id": "4bf58dd8d48988d116941735", "name": "Bar", "pluralName": "Bars", "shortName": "Bar", "icon": {"prefix": "https://ss3.4sqi.net/img/categories_v2/nightlife/pub_", "suffix": ".png"}, "primary": true}], "photos": {"count": 0, "groups": []}}, "referralId": "e-0-4c2113f313c00f47586785de-0"}, {"reasons": {"count": 0, "items": [{"summary": "This spot is popular", "type": "general", "reasonName": "globalInteractionReason"}]}, "venue": {"id": "4ca85d4ef47ea1434a587421", "name": "Markthalle Neun", "location": {"address": "Eisenbahnstr. 42 / 43", "lat": 52.502144327910116, "lng": 13.431606978315234, "labeledLatLngs": [{"label": "display", "lat": 52.502144327910116, "lng": 13.431606978315234}], "distance": 251, "postalCode": "10997", "cc": "DE", "neighborhood": "Kreuzberg", "city": "Berlin", "state": "Berlin", "country": "Deutschland", "formattedAddress": ["Eisenbahnstr. 42 / 43", "10997 Berlin", "Deutschland"]}, "categories": [{"id": "4bf58dd8d48988d120951735", "name": "Food Court", "pluralName": "Food Courts", "shortName": "Food Court", "icon": {"prefix": "https://ss3.4sqi.net/img/categories_v2/shops/food_foodcourt_", "suffix": ".png"}, "primary": true}], "photos": {"count": 0, "groups": []}}, "referralId": "e-0-4ca85d4ef47ea1434a587421-1"}, {"reasons": {"count": 0, "items": [{"summary": "This spot is popular", "type": "general", "reasonName": "globalInteractionReason"}]}, "venue": {"id": "511e4abce4b030d732c1e3b4", "name": "Heidenpeters", "location": {"address": "Eisenbahnstr. 42/43", "lat": 52.502048793920636, "lng": 13.43130168201405, "labeledLatLngs": [{"label": "display", "lat": 52.502048793920636, "lng": 13.43130168201405}], "distance": 232, "postalCode": "10997", "cc": "DE", "city": "Berlin", "state": "Berlin", "country": "Deutschland", "formattedAddress": ["Eisenbahnstr. 42/43", "10997 Berlin", "Deutschland"]}, "categories": [{"id": "50327c8591d4c4b30a586d5d", "name": "Brewery", "pluralName": "Breweries", "shortName": "Brewery", "icon": {"prefix": "https://ss3.4sqi.net/img/categories_v2/food/brewery_", "suffix": ".png"}, "primary": true}], "photos": {"count": 0, "groups": []}}, "referralId": "e-0-511e4abce4b030d732c1e3b4-2"}, {"reasons": {"count": 0, "items": [{"summary": "This spot is popular", "type": "general", "reasonName": "globalInteractionReason"}]}, "venue": {"id": "50f00789e4b06592ccc1faae", "name": "Big Stuff Smoked BBQ", "location": {"address": "Eisenbahnstr. 42/43", "lat": 52.502122392297785, "lng": 13.431800746997471, "labeledLatLngs": [{"label": "display", "lat": 52.502122392297785, "lng": 13.431800746997471}], "distance": 264, "postalCode": "10997", "cc": "DE", "city": "Berlin", "state": "Berlin", "country": "Deutschland", "formattedAddress": ["Eisenbahnstr. 42/43", "10997 Berlin", "Deutschland"]}, "categories": [{"id": "4bf58dd8d48988d1df931735", "name": "BBQ Joint", "pluralName": "BBQ Joints", "shortName": "BBQ", "icon": {"prefix": "https://ss3.4sqi.net/img/categories_v2/food/bbqalt_", "suffix": ".png"}, "primary": true}], "photos": {"count": 0, "groups": []}}, "referralId": "e-0-50f00789e4b06592ccc1faae-3"}, {"reasons": {"count": 0, "items": [{"summary": "This spot is popular", "type": "general", "reasonName": "globalInteractionReason"}]}, "venue": {"id": "55e87b80498e3ae4829c6b05", "name": "Rosa Canina", "location": {"address": "Eisenbahnstr. 42/43", "lat": 52.50214320176283, "lng": 13.43181912685543, "labeledLatLngs": [{"label": "display", "lat": 52.50214320176283, "lng": 13.43181912685543}], "distance": 265, "postalCode": "10997", "cc": "DE", "city": "Berlin", "state": "Berlin", "country": "Deutschland", "formattedAddress": ["Eisenbahnstr. 42/43", "10997 Berlin", "Deutschland"]}, "categories": [{"id": "4bf58dd8d48988d1c9941735", "name": "Ice Cream Shop", "pluralName": "Ice Cream Shops", "shortName": "Ice Cream", "icon": {"prefix": "https://ss3.4sqi.net/img/categories_v2/food/icecream_", "suffix": ".png"}, "primary": true}], "photos": {"count": 0, "groups": []}}, "referralId": "e-0-55e87b80498e3ae4829c6b05-4"}, {"reasons": {"count": 0, "items": [{"summary": "This spot is popular", "type": "general", "reasonName": "globalInteractionReason"}]}, "venue": {"id": "56bf2966cd1043d2f2179233", "name": "Mani in pasta", "location": {"address": "Eisenbahnstr. 42-43", "lat": 52.502166846709024, "lng": 13.431716511155079, "labeledLatLngs": [{"label": "display", "lat": 52.502166846709024, "lng": 13.431716511155079}], "distance": 258, "postalCode": "10997", "cc": "DE", "city": "Berlin", "state": "Berlin", "country": "Deutschland", "formattedAddress": ["Eisenbahnstr. 42-43", "10997 Berlin", "Deutschland"]}, "categories": [{"id": "55a5a1ebe4b013909087cb7f", "name": "Trattoria/Osteria", "pluralName": "Trattorias/Osterias", "shortName": "Trattoria/Osteria", "icon": {"prefix": "https://ss3.4sqi.net/img/categories_v2/food/italian_", "suffix": ".png"}, "primary": true}], "photos": {"count": 0, "groups": []}}, "referralId": "e-0-56bf2966cd1043d2f2179233-5"}, {"reasons": {"count": 0, "items": [{"summary": "This spot is popular", "type": "general", "reasonName": "globalInteractionReason"}]}, "venue": {"id": "520e197b049373d9c80985bf", "name": "Sironi - Il Pane di Milano", "location": {"address": "Eisenbahnstr. 42/43", "lat": 52.50225857529403, "lng": 13.431454417132157, "labeledLatLngs": [{"label": "display", "lat": 52.50225857529403, "lng": 13.431454417132157}], "distance": 240, "postalCode": "10997", "cc": "DE", "neighborhood": "Kreuzberg", "city": "Berlin", "state": "Berlin", "country": "Deutschland", "formattedAddress": ["Eisenbahnstr. 42/43", "10997 Berlin", "Deutschland"]}, "categories": [{"id": "4bf58dd8d48988d16a941735", "name": "Bakery", "pluralName": "Bakeries", "shortName": "Bakery", "icon": {"prefix": "https://ss3.4sqi.net/img/categories_v2/food/bakery_", "suffix": ".png"}, "primary": true}], "photos": {"count": 0, "groups": []}}, "referralId": "e-0-520e197b049373d9c80985bf-6"}, {"reasons": {"count": 0, "items": [{"summary": "This spot is popular", "type": "general", "reasonName": "globalInteractionReason"}]}, "venue": {"id": "59202a9e2a7ab62513214d44", "name": "La Piadina", "location": {"address": "Mariannenplatz 23", "lat": 52.50427481000133, "lng": 13.426255556377754, "labeledLatLngs": [{"label": "display", "lat": 52.50427481000133, "lng": 13.426255556377754}], "distance": 236, "postalCode": "10997", "cc": "DE", "neighborhood": "Kreuzberg", "city": "Berlin", "state": "Berlin", "country": "Deutschland", "formattedAddress": ["Mariannenplatz 23", "10997 Berlin", "Deutschland"]}, "categories": [{"id": "4bf58dd8d48988d110941735", "name": "Italian Restaurant", "pluralName": "Italian Restaurants", "shortName": "Italian", "icon": {"prefix": "https://ss3.4sqi.net/img/categories_v2/food/italian_", "suffix": ".png"}, "primary": true}], "photos": {"count": 0, "groups": []}}, "referralId": "e-0-59202a9e2a7ab62513214d44-7"}, {"reasons": {"count": 0, "items": [{"summary": "This spot is popular", "type": "general", "reasonName": "globalInteractionReason"}]}, "venue": {"id": "4adcda83f964a520b14821e3", "name": "Kunstquartier Bethanien", "location": {"address": "Mariannenplatz 2", "lat": 52.50386382060912, "lng": 13.424628078317806, "labeledLatLngs": [{"label": "display", "lat": 52.50386382060912, "lng": 13.424628078317806}], "distance": 275, "postalCode": "10997", "cc": "DE", "city": "Berlin", "state": "Berlin", "country": "Deutschland", "formattedAddress": ["Mariannenplatz 2", "10997 Berlin", "Deutschland"]}, "categories": [{"id": "4bf58dd8d48988d1e2931735", "name": "Art Gallery", "pluralName": "Art Galleries", "shortName": "Art Gallery", "icon": {"prefix": "https://ss3.4sqi.net/img/categories_v2/arts_entertainment/artgallery_", "suffix": ".png"}, "primary": true}], "photos": {"count": 0, "groups": []}}, "referralId": "e-0-4adcda83f964a520b14821e3-8"}, {"reasons": {"count": 0, "items": [{"summary": "This spot is popular", "type": "general", "reasonName": "globalInteractionReason"}]}, "venue": {"id": "4b0b3d8ff964a520452f23e3", "name": "Der Goldene Hahn", "location": {"address": "P\u00fccklerstr. 20", "lat": 52.502325186017565, "lng": 13.430560827255249, "labeledLatLngs": [{"label": "display", "lat": 52.502325186017565, "lng": 13.430560827255249}], "distance": 179, "postalCode": "10997", "cc": "DE", "neighborhood": "Kreuzberg", "city": "Berlin", "state": "Berlin", "country": "Deutschland", "formattedAddress": ["P\u00fccklerstr. 20", "10997 Berlin", "Deutschland"]}, "categories": [{"id": "4bf58dd8d48988d110941735", "name": "Italian Restaurant", "pluralName": "Italian Restaurants", "shortName": "Italian", "icon": {"prefix": "https://ss3.4sqi.net/img/categories_v2/food/italian_", "suffix": ".png"}, "primary": true}], "photos": {"count": 0, "groups": []}}, "referralId": "e-0-4b0b3d8ff964a520452f23e3-9"}, {"reasons": {"count": 0, "items": [{"summary": "This spot is popular", "type": "general", "reasonName": "globalInteractionReason"}]}, "venue": {"id": "4fca7dfee4b098b3ef48341b", "name": "V\u00f6gelchen", "location": {"address": "Eisenbahnstr. 6", "lat": 52.502007, "lng": 13.432472, "labeledLatLngs": [{"label": "display", "lat": 52.502007, "lng": 13.432472}], "distance": 311, "postalCode": "10997", "cc": "DE", "city": "Berlin", "state": "Berlin", "country": "Deutschland", "formattedAddress": ["Eisenbahnstr. 6", "10997 Berlin", "Deutschland"]}, "categories": [{"id": "4bf58dd8d48988d116941735", "name": "Bar", "pluralName": "Bars", "shortName": "Bar", "icon": {"prefix": "https://ss3.4sqi.net/img/categories_v2/nightlife/pub_", "suffix": ".png"}, "primary": true}], "photos": {"count": 0, "groups": []}}, "referralId": "e-0-4fca7dfee4b098b3ef48341b-10"}, {"reasons": {"count": 0, "items": [{"summary": "This spot is popular", "type": "general", "reasonName": "globalInteractionReason"}]}, "venue": {"id": "4d247c48f39ca143c21c76b8", "name": "Klas B\u00e4ckerei", "location": {"address": "Naunynstr. 2", "lat": 52.50036027321407, "lng": 13.427356903569757, "labeledLatLngs": [{"label": "display", "lat": 52.50036027321407, "lng": 13.427356903569757}], "distance": 231, "postalCode": "10997", "cc": "DE", "city": "Berlin", "state": "Berlin", "country": "Deutschland", "formattedAddress": ["Naunynstr. 2", "10997 Berlin", "Deutschland"]}, "categories": [{"id": "4bf58dd8d48988d16a941735", "name": "Bakery", "pluralName": "Bakeries", "shortName": "Bakery", "icon": {"prefix": "https://ss3.4sqi.net/img/categories_v2/food/bakery_", "suffix": ".png"}, "primary": true}], "photos": {"count": 0, "groups": []}}, "referralId": "e-0-4d247c48f39ca143c21c76b8-11"}, {"reasons": {"count": 0, "items": [{"summary": "This spot is popular", "type": "general", "reasonName": "globalInteractionReason"}]}, "venue": {"id": "512e2a77e4b02c71f7af4cff", "name": "Yellow Yoga", "location": {"address": "Mariannenstr. 48", "lat": 52.50068776436536, "lng": 13.423982212408939, "labeledLatLngs": [{"label": "display", "lat": 52.50068776436536, "lng": 13.423982212408939}], "distance": 328, "postalCode": "10997", "cc": "DE", "city": "Berlin", "state": "Berlin", "country": "Deutschland", "formattedAddress": ["Mariannenstr. 48", "10997 Berlin", "Deutschland"]}, "categories": [{"id": "4bf58dd8d48988d102941735", "name": "Yoga Studio", "pluralName": "Yoga Studios", "shortName": "Yoga Studio", "icon": {"prefix": "https://ss3.4sqi.net/img/categories_v2/shops/gym_yogastudio_", "suffix": ".png"}, "primary": true}], "photos": {"count": 0, "groups": []}}, "referralId": "e-0-512e2a77e4b02c71f7af4cff-12"}, {"reasons": {"count": 0, "items": [{"summary": "This spot is popular", "type": "general", "reasonName": "globalInteractionReason"}]}, "venue": {"id": "575409a4498ed2ddec1ec5a4", "name": "Heimweh", "location": {"address": "Skalitzer Str. 100", "lat": 52.4994122830782, "lng": 13.428425788879395, "labeledLatLngs": [{"label": "display", "lat": 52.4994122830782, "lng": 13.428425788879395}], "distance": 335, "postalCode": "10997", "cc": "DE", "city": "Berlin", "state": "Berlin", "country": "Deutschland", "formattedAddress": ["Skalitzer Str. 100", "10997 Berlin", "Deutschland"]}, "categories": [{"id": "56aa371be4b08b9a8d573535", "name": "Kumpir Restaurant", "pluralName": "Kumpir Restaurants", "shortName": "Kumpir", "icon": {"prefix": "https://ss3.4sqi.net/img/categories_v2/food/turkish_", "suffix": ".png"}, "primary": true}], "photos": {"count": 0, "groups": []}}, "referralId": "e-0-575409a4498ed2ddec1ec5a4-13"}, {"reasons": {"count": 0, "items": [{"summary": "This spot is popular", "type": "general", "reasonName": "globalInteractionReason"}]}, "venue": {"id": "5170200ce4b0b79e67d5e9f2", "name": "Street Food Thursday", "location": {"address": "Eisenbahnstr. 42/43", "lat": 52.50213982664957, "lng": 13.43166922334885, "labeledLatLngs": [{"label": "display", "lat": 52.50213982664957, "lng": 13.43166922334885}], "distance": 255, "postalCode": "10997", "cc": "DE", "city": "Berlin", "state": "Berlin", "country": "Deutschland", "formattedAddress": ["Eisenbahnstr. 42/43", "10997 Berlin", "Deutschland"]}, "categories": [{"id": "53e0feef498e5aac066fd8a9", "name": "Street Food Gathering", "pluralName": "Street Food Gatherings", "shortName": "Street Food Gathering", "icon": {"prefix": "https://ss3.4sqi.net/img/categories_v2/food/streetfood_", "suffix": ".png"}, "primary": true}], "photos": {"count": 0, "groups": []}}, "referralId": "e-0-5170200ce4b0b79e67d5e9f2-14"}, {"reasons": {"count": 0, "items": [{"summary": "This spot is popular", "type": "general", "reasonName": "globalInteractionReason"}]}, "venue": {"id": "4ce2d9bb00166ea867084988", "name": "Falafel in Berlin", "location": {"address": "Skalitzer Str. 102", "lat": 52.49931143322923, "lng": 13.427939011211153, "labeledLatLngs": [{"label": "display", "lat": 52.49931143322923, "lng": 13.427939011211153}], "distance": 344, "postalCode": "10999", "cc": "DE", "city": "Berlin", "state": "Berlin", "country": "Deutschland", "formattedAddress": ["Skalitzer Str. 102", "10999 Berlin", "Deutschland"]}, "categories": [{"id": "4bf58dd8d48988d10b941735", "name": "Falafel Restaurant", "pluralName": "Falafel Restaurants", "shortName": "Falafel", "icon": {"prefix": "https://ss3.4sqi.net/img/categories_v2/food/falafel_", "suffix": ".png"}, "primary": true}], "photos": {"count": 0, "groups": []}}, "referralId": "e-0-4ce2d9bb00166ea867084988-15"}, {"reasons": {"count": 0, "items": [{"summary": "This spot is popular", "type": "general", "reasonName": "globalInteractionReason"}]}, "venue": {"id": "4f291f99e4b0576e6d778492", "name": "Kunstraum Kreuzberg / Bethanien", "location": {"address": "Mariannenplatz 2", "lat": 52.50399420270191, "lng": 13.424389744004824, "labeledLatLngs": [{"label": "display", "lat": 52.50399420270191, "lng": 13.424389744004824}], "distance": 297, "postalCode": "10997", "cc": "DE", "city": "Berlin", "state": "Berlin", "country": "Deutschland", "formattedAddress": ["Mariannenplatz 2", "10997 Berlin", "Deutschland"]}, "categories": [{"id": "4bf58dd8d48988d1e2931735", "name": "Art Gallery", "pluralName": "Art Galleries", "shortName": "Art Gallery", "icon": {"prefix": "https://ss3.4sqi.net/img/categories_v2/arts_entertainment/artgallery_", "suffix": ".png"}, "primary": true}], "photos": {"count": 0, "groups": []}}, "referralId": "e-0-4f291f99e4b0576e6d778492-16"}, {"reasons": {"count": 0, "items": [{"summary": "This spot is popular", "type": "general", "reasonName": "globalInteractionReason"}]}, "venue": {"id": "57d95276498e7453bfe31143", "name": "Alte Milch", "location": {"address": "Eisenbahnstr. 42/43", "lat": 52.50202476100858, "lng": 13.431494235992432, "labeledLatLngs": [{"label": "display", "lat": 52.50202476100858, "lng": 13.431494235992432}], "distance": 245, "postalCode": "10997", "cc": "DE", "city": "Berlin", "state": "Berlin", "country": "Deutschland", "formattedAddress": ["Eisenbahnstr. 42/43", "10997 Berlin", "Deutschland"]}, "categories": [{"id": "4bf58dd8d48988d11e951735", "name": "Cheese Shop", "pluralName": "Cheese Shops", "shortName": "Cheese Shop", "icon": {"prefix": "https://ss3.4sqi.net/img/categories_v2/shops/food_cheese_", "suffix": ".png"}, "primary": true}], "photos": {"count": 0, "groups": []}}, "referralId": "e-0-57d95276498e7453bfe31143-17"}, {"reasons": {"count": 0, "items": [{"summary": "This spot is popular", "type": "general", "reasonName": "globalInteractionReason"}]}, "venue": {"id": "5054e573e4b084591572dd81", "name": "Villa Gallina", "location": {"address": "P\u00fccklerstra\u00dfe 20", "lat": 52.502289339789044, "lng": 13.430748390001538, "labeledLatLngs": [{"label": "display", "lat": 52.502289339789044, "lng": 13.430748390001538}], "distance": 192, "cc": "DE", "neighborhood": "Kreuzberg", "city": "Berlin", "state": "Berlin", "country": "Deutschland", "formattedAddress": ["P\u00fccklerstra\u00dfe 20", "Berlin", "Deutschland"]}, "categories": [{"id": "4bf58dd8d48988d123941735", "name": "Wine Bar", "pluralName": "Wine Bars", "shortName": "Wine Bar", "icon": {"prefix": "https://ss3.4sqi.net/img/categories_v2/food/winery_", "suffix": ".png"}, "primary": true}], "photos": {"count": 0, "groups": []}}, "referralId": "e-0-5054e573e4b084591572dd81-18"}, {"reasons": {"count": 0, "items": [{"summary": "This spot is popular", "type": "general", "reasonName": "globalInteractionReason"}]}, "venue": {"id": "53973a66498ecef18334af05", "name": "TeamEscape Berlin", "location": {"address": "Muskauer Str. 27", "lat": 52.50322086396874, "lng": 13.426420912775308, "labeledLatLngs": [{"label": "display", "lat": 52.50322086396874, "lng": 13.426420912775308}], "distance": 136, "postalCode": "10997", "cc": "DE", "city": "Berlin", "state": "Berlin", "country": "Deutschland", "formattedAddress": ["Muskauer Str. 27", "10997 Berlin", "Deutschland"]}, "categories": [{"id": "4bf58dd8d48988d182941735", "name": "Theme Park", "pluralName": "Theme Parks", "shortName": "Theme Park", "icon": {"prefix": "https://ss3.4sqi.net/img/categories_v2/arts_entertainment/themepark_", "suffix": ".png"}, "primary": true}], "photos": {"count": 0, "groups": []}}, "referralId": "e-0-53973a66498ecef18334af05-19"}, {"reasons": {"count": 0, "items": [{"summary": "This spot is popular", "type": "general", "reasonName": "globalInteractionReason"}]}, "venue": {"id": "5065f49ce4b057ca124bd002", "name": "Schwarze Traube", "location": {"address": "Wrangelstr. 24", "lat": 52.50230765102416, "lng": 13.432857005058205, "labeledLatLngs": [{"label": "display", "lat": 52.50230765102416, "lng": 13.432857005058205}], "distance": 334, "postalCode": "10997", "cc": "DE", "city": "Berlin", "state": "Berlin", "country": "Deutschland", "formattedAddress": ["Wrangelstr. 24", "10997 Berlin", "Deutschland"]}, "categories": [{"id": "4bf58dd8d48988d11e941735", "name": "Cocktail Bar", "pluralName": "Cocktail Bars", "shortName": "Cocktail", "icon": {"prefix": "https://ss3.4sqi.net/img/categories_v2/nightlife/cocktails_", "suffix": ".png"}, "primary": true}], "photos": {"count": 0, "groups": []}}, "referralId": "e-0-5065f49ce4b057ca124bd002-20"}, {"reasons": {"count": 0, "items": [{"summary": "This spot is popular", "type": "general", "reasonName": "globalInteractionReason"}]}, "venue": {"id": "4c45d1fbf0bdd13a317acbcc", "name": "Adana Grillhaus", "location": {"address": "Manteuffelstr. 86", "lat": 52.499641, "lng": 13.426887, "labeledLatLngs": [{"label": "display", "lat": 52.499641, "lng": 13.426887}], "distance": 315, "postalCode": "10997", "cc": "DE", "city": "Berlin", "state": "Berlin", "country": "Deutschland", "formattedAddress": ["Manteuffelstr. 86", "10997 Berlin", "Deutschland"]}, "categories": [{"id": "4f04af1f2fb6e1c99f3db0bb", "name": "Turkish Restaurant", "pluralName": "Turkish Restaurants", "shortName": "Turkish", "icon": {"prefix": "https://ss3.4sqi.net/img/categories_v2/food/turkish_", "suffix": ".png"}, "primary": true}], "photos": {"count": 0, "groups": []}}, "referralId": "e-0-4c45d1fbf0bdd13a317acbcc-21"}, {"reasons": {"count": 0, "items": [{"summary": "This spot is popular", "type": "general", "reasonName": "globalInteractionReason"}]}, "venue": {"id": "4c51b4049d642d7f2fe90ade", "name": "3 Schwestern", "location": {"address": "Mariannenplatz 2", "lat": 52.50408402750932, "lng": 13.42403193076895, "labeledLatLngs": [{"label": "display", "lat": 52.50408402750932, "lng": 13.42403193076895}], "distance": 322, "postalCode": "10997", "cc": "DE", "city": "Berlin", "state": "Berlin", "country": "Deutschland", "formattedAddress": ["Mariannenplatz 2", "10997 Berlin", "Deutschland"]}, "categories": [{"id": "4bf58dd8d48988d10d941735", "name": "German Restaurant", "pluralName": "German Restaurants", "shortName": "German", "icon": {"prefix": "https://ss3.4sqi.net/img/categories_v2/food/german_", "suffix": ".png"}, "primary": true}], "photos": {"count": 0, "groups": []}}, "referralId": "e-0-4c51b4049d642d7f2fe90ade-22"}, {"reasons": {"count": 0, "items": [{"summary": "This spot is popular", "type": "general", "reasonName": "globalInteractionReason"}]}, "venue": {"id": "4af49b4af964a52048f421e3", "name": "Mano Cafe", "location": {"address": "Skalitzer Str. 46A", "lat": 52.49912861276276, "lng": 13.430566300836764, "labeledLatLngs": [{"label": "display", "lat": 52.49912861276276, "lng": 13.430566300836764}], "distance": 406, "postalCode": "10997", "cc": "DE", "city": "Berlin", "state": "Berlin", "country": "Deutschland", "formattedAddress": ["Skalitzer Str. 46A", "10997 Berlin", "Deutschland"]}, "categories": [{"id": "4bf58dd8d48988d16d941735", "name": "Caf\u00e9", "pluralName": "Caf\u00e9s", "shortName": "Caf\u00e9", "icon": {"prefix": "https://ss3.4sqi.net/img/categories_v2/food/cafe_", "suffix": ".png"}, "primary": true}], "photos": {"count": 0, "groups": []}}, "referralId": "e-0-4af49b4af964a52048f421e3-23"}, {"reasons": {"count": 0, "items": [{"summary": "This spot is popular", "type": "general", "reasonName": "globalInteractionReason"}]}, "venue": {"id": "520f46f511d2c0d413d14d49", "name": "Kaffee 9", "location": {"address": "Eisenbahnstr. 42", "lat": 52.50194876234582, "lng": 13.431997040702443, "labeledLatLngs": [{"label": "display", "lat": 52.50194876234582, "lng": 13.431997040702443}], "distance": 280, "postalCode": "10997", "cc": "DE", "city": "Berlin", "state": "Berlin", "country": "Deutschland", "formattedAddress": ["Eisenbahnstr. 42", "10997 Berlin", "Deutschland"]}, "categories": [{"id": "4bf58dd8d48988d1e0931735", "name": "Coffee Shop", "pluralName": "Coffee Shops", "shortName": "Coffee Shop", "icon": {"prefix": "https://ss3.4sqi.net/img/categories_v2/food/coffeeshop_", "suffix": ".png"}, "primary": true}], "photos": {"count": 0, "groups": []}}, "referralId": "e-0-520f46f511d2c0d413d14d49-24"}, {"reasons": {"count": 0, "items": [{"summary": "This spot is popular", "type": "general", "reasonName": "globalInteractionReason"}]}, "venue": {"id": "4c1f6ca1bd9d9521a143983f", "name": "Core Tex", "location": {"address": "Oranienstr. 3", "crossStreet": "Manteuffelstr.", "lat": 52.49952268533067, "lng": 13.425441276148952, "labeledLatLngs": [{"label": "display", "lat": 52.49952268533067, "lng": 13.425441276148952}], "distance": 362, "postalCode": "10997", "cc": "DE", "city": "Berlin", "state": "Berlin", "country": "Deutschland", "formattedAddress": ["Oranienstr. 3 (Manteuffelstr.)", "10997 Berlin", "Deutschland"]}, "categories": [{"id": "4bf58dd8d48988d10d951735", "name": "Record Shop", "pluralName": "Record Shops", "shortName": "Record Shop", "icon": {"prefix": "https://ss3.4sqi.net/img/categories_v2/shops/record_shop_", "suffix": ".png"}, "primary": true}], "photos": {"count": 0, "groups": []}}, "referralId": "e-0-4c1f6ca1bd9d9521a143983f-25"}, {"reasons": {"count": 0, "items": [{"summary": "This spot is popular", "type": "general", "reasonName": "globalInteractionReason"}]}, "venue": {"id": "4b559ea1f964a5205be927e3", "name": "Baraka", "location": {"address": "Lausitzer Platz 6", "lat": 52.499789520779345, "lng": 13.430080979320989, "labeledLatLngs": [{"label": "display", "lat": 52.499789520779345, "lng": 13.430080979320989}], "distance": 326, "postalCode": "10997", "cc": "DE", "city": "Berlin", "state": "Berlin", "country": "Deutschland", "formattedAddress": ["Lausitzer Platz 6", "10997 Berlin", "Deutschland"]}, "categories": [{"id": "4bf58dd8d48988d1c3941735", "name": "Moroccan Restaurant", "pluralName": "Moroccan Restaurants", "shortName": "Moroccan", "icon": {"prefix": "https://ss3.4sqi.net/img/categories_v2/food/moroccan_", "suffix": ".png"}, "primary": true}], "photos": {"count": 0, "groups": []}}, "referralId": "e-0-4b559ea1f964a5205be927e3-26"}, {"reasons": {"count": 0, "items": [{"summary": "This spot is popular", "type": "general", "reasonName": "globalInteractionReason"}]}, "venue": {"id": "58d7d2f3373181214698eb78", "name": "Goldies", "location": {"address": "Oranienstr. 6", "lat": 52.49972062745528, "lng": 13.425050895419908, "labeledLatLngs": [{"label": "display", "lat": 52.49972062745528, "lng": 13.425050895419908}], "distance": 356, "postalCode": "10997", "cc": "DE", "city": "Berlin", "state": "Berlin", "country": "Deutschland", "formattedAddress": ["Oranienstr. 6", "10997 Berlin", "Deutschland"]}, "categories": [{"id": "4bf58dd8d48988d16e941735", "name": "Fast Food Restaurant", "pluralName": "Fast Food Restaurants", "shortName": "Fast Food", "icon": {"prefix": "https://ss3.4sqi.net/img/categories_v2/food/fastfood_", "suffix": ".png"}, "primary": true}], "photos": {"count": 0, "groups": []}}, "referralId": "e-0-58d7d2f3373181214698eb78-27"}, {"reasons": {"count": 0, "items": [{"summary": "This spot is popular", "type": "general", "reasonName": "globalInteractionReason"}]}, "venue": {"id": "4adcda8df964a520484a21e3", "name": "Mariannenplatz", "location": {"address": "Mariannenstr.", "crossStreet": "Waldemarstr.", "lat": 52.503611177804984, "lng": 13.425244903774, "labeledLatLngs": [{"label": "display", "lat": 52.503611177804984, "lng": 13.425244903774}], "distance": 225, "postalCode": "10997", "cc": "DE", "city": "Berlin", "state": "Berlin", "country": "Deutschland", "formattedAddress": ["Mariannenstr. (Waldemarstr.)", "10997 Berlin", "Deutschland"]}, "categories": [{"id": "4bf58dd8d48988d164941735", "name": "Plaza", "pluralName": "Plazas", "shortName": "Plaza", "icon": {"prefix": "https://ss3.4sqi.net/img/categories_v2/parks_outdoors/plaza_", "suffix": ".png"}, "primary": true}], "photos": {"count": 0, "groups": []}}, "referralId": "e-0-4adcda8df964a520484a21e3-28"}, {"reasons": {"count": 0, "items": [{"summary": "This spot is popular", "type": "general", "reasonName": "globalInteractionReason"}]}, "venue": {"id": "4dce6d1de4cd130e1665f670", "name": "Weinhandlung Suff", "location": {"address": "Oranienstr. 200", "lat": 52.49999862931955, "lng": 13.424138144510813, "labeledLatLngs": [{"label": "display", "lat": 52.49999862931955, "lng": 13.424138144510813}], "distance": 370, "postalCode": "10999", "cc": "DE", "city": "Berlin", "state": "Berlin", "country": "Deutschland", "formattedAddress": ["Oranienstr. 200", "10999 Berlin", "Deutschland"]}, "categories": [{"id": "4bf58dd8d48988d119951735", "name": "Wine Shop", "pluralName": "Wine Shops", "shortName": "Wine Shop", "icon": {"prefix": "https://ss3.4sqi.net/img/categories_v2/shops/food_wineshop_", "suffix": ".png"}, "primary": true}], "photos": {"count": 0, "groups": []}}, "referralId": "e-0-4dce6d1de4cd130e1665f670-29"}, {"reasons": {"count": 0, "items": [{"summary": "This spot is popular", "type": "general", "reasonName": "globalInteractionReason"}]}, "venue": {"id": "4e3d6febd4c058f9dc04b56a", "name": "Mariona", "location": {"address": "Skalitzer Str. 94b", "lat": 52.49956140872608, "lng": 13.432568694630026, "labeledLatLngs": [{"label": "display", "lat": 52.49956140872608, "lng": 13.432568694630026}], "distance": 446, "postalCode": "10997", "cc": "DE", "city": "Berlin", "state": "Berlin", "country": "Deutschland", "formattedAddress": ["Skalitzer Str. 94b", "10997 Berlin", "Deutschland"]}, "categories": [{"id": "4bf58dd8d48988d150941735", "name": "Spanish Restaurant", "pluralName": "Spanish Restaurants", "shortName": "Spanish", "icon": {"prefix": "https://ss3.4sqi.net/img/categories_v2/food/spanish_", "suffix": ".png"}, "primary": true}], "photos": {"count": 0, "groups": []}}, "referralId": "e-0-4e3d6febd4c058f9dc04b56a-30"}, {"reasons": {"count": 0, "items": [{"summary": "This spot is popular", "type": "general", "reasonName": "globalInteractionReason"}]}, "venue": {"id": "4e14415b14951daa08a875b0", "name": "Trattoria Marechiaro", "location": {"address": "Wrangelstr. 17", "crossStreet": "Manteufelstr.", "lat": 52.50339465642714, "lng": 13.429992504903142, "labeledLatLngs": [{"label": "display", "lat": 52.50339465642714, "lng": 13.429992504903142}], "distance": 178, "postalCode": "10997", "cc": "DE", "city": "Berlin", "state": "Berlin", "country": "Deutschland", "formattedAddress": ["Wrangelstr. 17 (Manteufelstr.)", "10997 Berlin", "Deutschland"]}, "categories": [{"id": "55a5a1ebe4b013909087cb7f", "name": "Trattoria/Osteria", "pluralName": "Trattorias/Osterias", "shortName": "Trattoria/Osteria", "icon": {"prefix": "https://ss3.4sqi.net/img/categories_v2/food/italian_", "suffix": ".png"}, "primary": true}], "photos": {"count": 0, "groups": []}}, "referralId": "e-0-4e14415b14951daa08a875b0-31"}, {"reasons": {"count": 0, "items": [{"summary": "This spot is popular", "type": "general", "reasonName": "globalInteractionReason"}]}, "venue": {"id": "4c127e1477cea5939d26cd60", "name": "Caf\u00e9 Quitte", "location": {"address": "Wiener Str. 62", "lat": 52.498255, "lng": 13.430397, "labeledLatLngs": [{"label": "display", "lat": 52.498255, "lng": 13.430397}], "distance": 491, "postalCode": "10999", "cc": "DE", "neighborhood": "Wiener Kiez", "city": "Berlin", "state": "Berlin", "country": "Deutschland", "formattedAddress": ["Wiener Str. 62", "10999 Berlin", "Deutschland"]}, "categories": [{"id": "4bf58dd8d48988d16d941735", "name": "Caf\u00e9", "pluralName": "Caf\u00e9s", "shortName": "Caf\u00e9", "icon": {"prefix": "https://ss3.4sqi.net/img/categories_v2/food/cafe_", "suffix": ".png"}, "primary": true}], "photos": {"count": 0, "groups": []}}, "referralId": "e-0-4c127e1477cea5939d26cd60-32"}, {"reasons": {"count": 0, "items": [{"summary": "This spot is popular", "type": "general", "reasonName": "globalInteractionReason"}]}, "venue": {"id": "4adcda8ff964a5202d4b21e3", "name": "Modern Graphics", "location": {"address": "Oranienstr. 22", "lat": 52.5007477848316, "lng": 13.42146455721488, "labeledLatLngs": [{"label": "display", "lat": 52.5007477848316, "lng": 13.42146455721488}], "distance": 474, "postalCode": "10999", "cc": "DE", "city": "Berlin", "state": "Berlin", "country": "Deutschland", "formattedAddress": ["Oranienstr. 22", "10999 Berlin", "Deutschland"]}, "categories": [{"id": "52f2ab2ebcbc57f1066b8b18", "name": "Comic Shop", "pluralName": "Comic Shops", "shortName": "Comic Shop", "icon": {"prefix": "https://ss3.4sqi.net/img/categories_v2/shops/comic_", "suffix": ".png"}, "primary": true}], "photos": {"count": 0, "groups": []}}, "referralId": "e-0-4adcda8ff964a5202d4b21e3-33"}, {"reasons": {"count": 0, "items": [{"summary": "This spot is popular", "type": "general", "reasonName": "globalInteractionReason"}]}, "venue": {"id": "4cf95af334c1a093ae95390e", "name": "Mercan", "location": {"address": "Wiener Str. 10", "lat": 52.49858932037706, "lng": 13.427953720092773, "labeledLatLngs": [{"label": "display", "lat": 52.49858932037706, "lng": 13.427953720092773}], "distance": 425, "postalCode": "10999", "cc": "DE", "city": "Berlin", "state": "Berlin", "country": "Deutschland", "formattedAddress": ["Wiener Str. 10", "10999 Berlin", "Deutschland"]}, "categories": [{"id": "4f04af1f2fb6e1c99f3db0bb", "name": "Turkish Restaurant", "pluralName": "Turkish Restaurants", "shortName": "Turkish", "icon": {"prefix": "https://ss3.4sqi.net/img/categories_v2/food/turkish_", "suffix": ".png"}, "primary": true}], "photos": {"count": 0, "groups": []}}, "referralId": "e-0-4cf95af334c1a093ae95390e-34"}, {"reasons": {"count": 0, "items": [{"summary": "This spot is popular", "type": "general", "reasonName": "globalInteractionReason"}]}, "venue": {"id": "503dd222e4b0ae1ab4f5de84", "name": "Kiezeklein", "location": {"address": "Mariannenstr. 7", "crossStreet": "Heinrichplatz", "lat": 52.50072571606996, "lng": 13.423410212142574, "labeledLatLngs": [{"label": "display", "lat": 52.50072571606996, "lng": 13.423410212142574}], "distance": 358, "postalCode": "10997", "cc": "DE", "city": "Berlin", "state": "Berlin", "country": "Deutschland", "formattedAddress": ["Mariannenstr. 7 (Heinrichplatz)", "10997 Berlin", "Deutschland"]}, "categories": [{"id": "4bf58dd8d48988d16d941735", "name": "Caf\u00e9", "pluralName": "Caf\u00e9s", "shortName": "Caf\u00e9", "icon": {"prefix": "https://ss3.4sqi.net/img/categories_v2/food/cafe_", "suffix": ".png"}, "primary": true}], "photos": {"count": 0, "groups": []}}, "referralId": "e-0-503dd222e4b0ae1ab4f5de84-35"}, {"reasons": {"count": 0, "items": [{"summary": "This spot is popular", "type": "general", "reasonName": "globalInteractionReason"}]}, "venue": {"id": "59fce17d464d6567ed3ddf1e", "name": "Kumpel & Keule Speisewirtschaft", "location": {"address": "Skalitzer Str. 97", "lat": 52.49943958028325, "lng": 13.429346349943199, "labeledLatLngs": [{"label": "display", "lat": 52.49943958028325, "lng": 13.429346349943199}], "distance": 344, "postalCode": "10997", "cc": "DE", "neighborhood": "Kreuzberg", "city": "Berlin", "state": "Berlin", "country": "Deutschland", "formattedAddress": ["Skalitzer Str. 97", "10997 Berlin", "Deutschland"]}, "categories": [{"id": "4bf58dd8d48988d10d941735", "name": "German Restaurant", "pluralName": "German Restaurants", "shortName": "German", "icon": {"prefix": "https://ss3.4sqi.net/img/categories_v2/food/german_", "suffix": ".png"}, "primary": true}], "photos": {"count": 0, "groups": []}}, "referralId": "e-0-59fce17d464d6567ed3ddf1e-36"}, {"reasons": {"count": 0, "items": [{"summary": "This spot is popular", "type": "general", "reasonName": "globalInteractionReason"}]}, "venue": {"id": "535aa1f4498ebdff16f510c3", "name": "Critical Mass Berlin", "location": {"address": "Heinrichplatz", "crossStreet": "Oranienstr.", "lat": 52.500362917727834, "lng": 13.422938039015179, "labeledLatLngs": [{"label": "display", "lat": 52.500362917727834, "lng": 13.422938039015179}], "distance": 407, "postalCode": "10997", "cc": "DE", "city": "Berlin", "state": "Berlin", "country": "Deutschland", "formattedAddress": ["Heinrichplatz (Oranienstr.)", "10997 Berlin", "Deutschland"]}, "categories": [{"id": "56aa371be4b08b9a8d57355e", "name": "Bike Trail", "pluralName": "Bike Trails", "shortName": "Bike Trail", "icon": {"prefix": "https://ss3.4sqi.net/img/categories_v2/parks_outdoors/hikingtrail_", "suffix": ".png"}, "primary": true}], "photos": {"count": 0, "groups": []}, "venuePage": {"id": "119902210"}}, "referralId": "e-0-535aa1f4498ebdff16f510c3-37"}, {"reasons": {"count": 0, "items": [{"summary": "This spot is popular", "type": "general", "reasonName": "globalInteractionReason"}]}, "venue": {"id": "535270d011d256c67ca83301", "name": "Kaffeekirsche", "location": {"address": "Adalbertstr. 23", "crossStreet": "Waldemarstr.", "lat": 52.503056531388985, "lng": 13.420549025126215, "labeledLatLngs": [{"label": "display", "lat": 52.503056531388985, "lng": 13.420549025126215}], "distance": 504, "postalCode": "10997", "cc": "DE", "city": "Berlin", "state": "Berlin", "country": "Deutschland", "formattedAddress": ["Adalbertstr. 23 (Waldemarstr.)", "10997 Berlin", "Deutschland"]}, "categories": [{"id": "4bf58dd8d48988d1e0931735", "name": "Coffee Shop", "pluralName": "Coffee Shops", "shortName": "Coffee Shop", "icon": {"prefix": "https://ss3.4sqi.net/img/categories_v2/food/coffeeshop_", "suffix": ".png"}, "primary": true}], "photos": {"count": 0, "groups": []}}, "referralId": "e-0-535270d011d256c67ca83301-38"}, {"reasons": {"count": 0, "items": [{"summary": "This spot is popular", "type": "general", "reasonName": "globalInteractionReason"}]}, "venue": {"id": "5207c37411d27cd9e7c52703", "name": "Co'm \u00c1", "location": {"address": "Oranienstr. 191", "crossStreet": "Heinrichplatz", "lat": 52.500278, "lng": 13.422589, "labeledLatLngs": [{"label": "display", "lat": 52.500278, "lng": 13.422589}], "distance": 432, "postalCode": "10999", "cc": "DE", "city": "Berlin", "state": "Berlin", "country": "Deutschland", "formattedAddress": ["Oranienstr. 191 (Heinrichplatz)", "10999 Berlin", "Deutschland"]}, "categories": [{"id": "4bf58dd8d48988d1d2941735", "name": "Sushi Restaurant", "pluralName": "Sushi Restaurants", "shortName": "Sushi", "icon": {"prefix": "https://ss3.4sqi.net/img/categories_v2/food/sushi_", "suffix": ".png"}, "primary": true}], "photos": {"count": 0, "groups": []}}, "referralId": "e-0-5207c37411d27cd9e7c52703-39"}, {"reasons": {"count": 0, "items": [{"summary": "This spot is popular", "type": "general", "reasonName": "globalInteractionReason"}]}, "venue": {"id": "55eb124d498efde4131db55e", "name": "Bonanza Roastery", "location": {"address": "Adalbertstr. 70", "lat": 52.504155208906184, "lng": 13.4201276518078, "labeledLatLngs": [{"label": "display", "lat": 52.504155208906184, "lng": 13.4201276518078}], "distance": 562, "postalCode": "10997", "cc": "DE", "neighborhood": "Kreuzberg", "city": "Berlin", "state": "Berlin", "country": "Deutschland", "formattedAddress": ["Adalbertstr. 70", "10997 Berlin", "Deutschland"]}, "categories": [{"id": "4bf58dd8d48988d1e0931735", "name": "Coffee Shop", "pluralName": "Coffee Shops", "shortName": "Coffee Shop", "icon": {"prefix": "https://ss3.4sqi.net/img/categories_v2/food/coffeeshop_", "suffix": ".png"}, "primary": true}], "photos": {"count": 0, "groups": []}}, "referralId": "e-0-55eb124d498efde4131db55e-40"}, {"reasons": {"count": 0, "items": [{"summary": "This spot is popular", "type": "general", "reasonName": "globalInteractionReason"}]}, "venue": {"id": "4f4bd4e8e4b007d3924671bc", "name": "Long March Canteen", "location": {"address": "Wrangelstr. 20", "lat": 52.5029748160723, "lng": 13.431128390018003, "labeledLatLngs": [{"label": "display", "lat": 52.5029748160723, "lng": 13.431128390018003}], "distance": 226, "postalCode": "10997", "cc": "DE", "city": "Berlin", "state": "Berlin", "country": "Deutschland", "formattedAddress": ["Wrangelstr. 20", "10997 Berlin", "Deutschland"]}, "categories": [{"id": "52af3a7c3cf9994f4e043bed", "name": "Cantonese Restaurant", "pluralName": "Cantonese Restaurants", "shortName": "Cantonese", "icon": {"prefix": "https://ss3.4sqi.net/img/categories_v2/food/asian_", "suffix": ".png"}, "primary": true}], "photos": {"count": 0, "groups": []}}, "referralId": "e-0-4f4bd4e8e4b007d3924671bc-41"}, {"reasons": {"count": 0, "items": [{"summary": "This spot is popular", "type": "general", "reasonName": "globalInteractionReason"}]}, "venue": {"id": "4efc34df9911cd89d0b03936", "name": "Jivamukti Yoga", "location": {"address": "Oranienstr. 25", "lat": 52.50141179143049, "lng": 13.42099908295822, "labeledLatLngs": [{"label": "display", "lat": 52.50141179143049, "lng": 13.42099908295822}], "distance": 481, "postalCode": "10999", "cc": "DE", "city": "Berlin", "state": "Berlin", "country": "Deutschland", "formattedAddress": ["Oranienstr. 25", "10999 Berlin", "Deutschland"]}, "categories": [{"id": "4bf58dd8d48988d102941735", "name": "Yoga Studio", "pluralName": "Yoga Studios", "shortName": "Yoga Studio", "icon": {"prefix": "https://ss3.4sqi.net/img/categories_v2/shops/gym_yogastudio_", "suffix": ".png"}, "primary": true}], "photos": {"count": 0, "groups": []}}, "referralId": "e-0-4efc34df9911cd89d0b03936-42"}, {"reasons": {"count": 0, "items": [{"summary": "This spot is popular", "type": "general", "reasonName": "globalInteractionReason"}]}, "venue": {"id": "51cbed91498ea42f02b1600a", "name": "Bravo Bravko Kuchenwerkstatt", "location": {"address": "Lausitzer Str. 47", "lat": 52.497678, "lng": 13.429397, "labeledLatLngs": [{"label": "display", "lat": 52.497678, "lng": 13.429397}], "distance": 535, "postalCode": "10999", "cc": "DE", "city": "Berlin", "state": "Berlin", "country": "Deutschland", "formattedAddress": ["Lausitzer Str. 47", "10999 Berlin", "Deutschland"]}, "categories": [{"id": "5744ccdfe4b0c0459246b4e2", "name": "Pastry Shop", "pluralName": "Pastry Shops", "shortName": "Pastry", "icon": {"prefix": "https://ss3.4sqi.net/img/categories_v2/food/dessert_", "suffix": ".png"}, "primary": true}], "photos": {"count": 0, "groups": []}}, "referralId": "e-0-51cbed91498ea42f02b1600a-43"}, {"reasons": {"count": 0, "items": [{"summary": "This spot is popular", "type": "general", "reasonName": "globalInteractionReason"}]}, "venue": {"id": "4b524a05f964a520277527e3", "name": "Rissani", "location": {"address": "Spreewaldplatz 4", "lat": 52.498658935046706, "lng": 13.43138806228964, "labeledLatLngs": [{"label": "display", "lat": 52.498658935046706, "lng": 13.43138806228964}], "distance": 478, "postalCode": "10999", "cc": "DE", "city": "Berlin", "state": "Berlin", "country": "Deutschland", "formattedAddress": ["Spreewaldplatz 4", "10999 Berlin", "Deutschland"]}, "categories": [{"id": "4bf58dd8d48988d115941735", "name": "Middle Eastern Restaurant", "pluralName": "Middle Eastern Restaurants", "shortName": "Middle Eastern", "icon": {"prefix": "https://ss3.4sqi.net/img/categories_v2/food/middleeastern_", "suffix": ".png"}, "primary": true}], "photos": {"count": 0, "groups": []}}, "referralId": "e-0-4b524a05f964a520277527e3-44"}, {"reasons": {"count": 0, "items": [{"summary": "This spot is popular", "type": "general", "reasonName": "globalInteractionReason"}]}, "venue": {"id": "4c0fed11b93cc9b620ef55e0", "name": "Tanne B", "location": {"address": "Eisenbahnstr. 48", "lat": 52.50096863828578, "lng": 13.43125467051463, "labeledLatLngs": [{"label": "display", "lat": 52.50096863828578, "lng": 13.43125467051463}], "distance": 277, "postalCode": "10997", "cc": "DE", "city": "Berlin", "state": "Berlin", "country": "Deutschland", "formattedAddress": ["Eisenbahnstr. 48", "10997 Berlin", "Deutschland"]}, "categories": [{"id": "4bf58dd8d48988d1c9941735", "name": "Ice Cream Shop", "pluralName": "Ice Cream Shops", "shortName": "Ice Cream", "icon": {"prefix": "https://ss3.4sqi.net/img/categories_v2/food/icecream_", "suffix": ".png"}, "primary": true}], "photos": {"count": 0, "groups": []}}, "referralId": "e-0-4c0fed11b93cc9b620ef55e0-45"}, {"reasons": {"count": 0, "items": [{"summary": "This spot is popular", "type": "general", "reasonName": "globalInteractionReason"}]}, "venue": {"id": "4ee0e38bf9ab28df8269bd38", "name": "H\u00fchnerhaus 36", "location": {"address": "Skalitzer Str. 95", "crossStreet": "Lausitzer Platz", "lat": 52.499852, "lng": 13.432076, "labeledLatLngs": [{"label": "display", "lat": 52.499852, "lng": 13.432076}], "distance": 400, "postalCode": "10997", "cc": "DE", "city": "Berlin", "state": "Berlin", "country": "Deutschland", "formattedAddress": ["Skalitzer Str. 95 (Lausitzer Platz)", "10997 Berlin", "Deutschland"]}, "categories": [{"id": "4d4ae6fc7a7b7dea34424761", "name": "Fried Chicken Joint", "pluralName": "Fried Chicken Joints", "shortName": "Fried Chicken", "icon": {"prefix": "https://ss3.4sqi.net/img/categories_v2/food/friedchicken_", "suffix": ".png"}, "primary": true}], "photos": {"count": 0, "groups": []}}, "referralId": "e-0-4ee0e38bf9ab28df8269bd38-46"}, {"reasons": {"count": 0, "items": [{"summary": "This spot is popular", "type": "general", "reasonName": "globalInteractionReason"}]}, "venue": {"id": "50f55c5ee4b04f6ad02f9785", "name": "Companion Coffee", "location": {"address": "Oranienstr. 24", "lat": 52.50114772533567, "lng": 13.421061728053246, "labeledLatLngs": [{"label": "display", "lat": 52.50114772533567, "lng": 13.421061728053246}], "distance": 485, "postalCode": "10999", "cc": "DE", "city": "Berlin", "state": "Berlin", "country": "Deutschland", "formattedAddress": ["Oranienstr. 24", "10999 Berlin", "Deutschland"]}, "categories": [{"id": "4bf58dd8d48988d1e0931735", "name": "Coffee Shop", "pluralName": "Coffee Shops", "shortName": "Coffee Shop", "icon": {"prefix": "https://ss3.4sqi.net/img/categories_v2/food/coffeeshop_", "suffix": ".png"}, "primary": true}], "photos": {"count": 0, "groups": []}}, "referralId": "e-0-50f55c5ee4b04f6ad02f9785-47"}, {"reasons": {"count": 0, "items": [{"summary": "This spot is popular", "type": "general", "reasonName": "globalInteractionReason"}]}, "venue": {"id": "4c6bdd5d96eaa593b04b23df", "name": "Alimentari e Vini", "location": {"address": "Skalitzer Str. 23", "crossStreet": "Mariannenstr.", "lat": 52.49907160759681, "lng": 13.421805946941532, "labeledLatLngs": [{"label": "display", "lat": 52.49907160759681, "lng": 13.421805946941532}], "distance": 556, "postalCode": "10999", "cc": "DE", "city": "Berlin", "state": "Berlin", "country": "Deutschland", "formattedAddress": ["Skalitzer Str. 23 (Mariannenstr.)", "10999 Berlin", "Deutschland"]}, "categories": [{"id": "4bf58dd8d48988d1f5941735", "name": "Gourmet Shop", "pluralName": "Gourmet Shops", "shortName": "Gourmet", "icon": {"prefix": "https://ss3.4sqi.net/img/categories_v2/shops/food_gourmet_", "suffix": ".png"}, "primary": true}], "photos": {"count": 0, "groups": []}}, "referralId": "e-0-4c6bdd5d96eaa593b04b23df-48"}, {"reasons": {"count": 0, "items": [{"summary": "This spot is popular", "type": "general", "reasonName": "globalInteractionReason"}]}, "venue": {"id": "4b5a0315f964a5209ba728e3", "name": "Miss Saigon", "location": {"address": "Skalitzer Str. 38", "crossStreet": "Manteuffelstr.", "lat": 52.498700355926196, "lng": 13.426462411880491, "labeledLatLngs": [{"label": "display", "lat": 52.498700355926196, "lng": 13.426462411880491}], "distance": 424, "postalCode": "10999", "cc": "DE", "city": "Berlin", "state": "Berlin", "country": "Deutschland", "formattedAddress": ["Skalitzer Str. 38 (Manteuffelstr.)", "10999 Berlin", "Deutschland"]}, "categories": [{"id": "4bf58dd8d48988d14a941735", "name": "Vietnamese Restaurant", "pluralName": "Vietnamese Restaurants", "shortName": "Vietnamese", "icon": {"prefix": "https://ss3.4sqi.net/img/categories_v2/food/vietnamese_", "suffix": ".png"}, "primary": true}], "photos": {"count": 0, "groups": []}}, "referralId": "e-0-4b5a0315f964a5209ba728e3-49"}, {"reasons": {"count": 0, "items": [{"summary": "This spot is popular", "type": "general", "reasonName": "globalInteractionReason"}]}, "venue": {"id": "5cb4817151950e002c28dd35", "name": "Little Long", "location": {"address": "Wiener Str. 60", "lat": 52.498138, "lng": 13.430794, "labeledLatLngs": [{"label": "display", "lat": 52.498138, "lng": 13.430794}], "distance": 513, "postalCode": "10999", "cc": "DE", "city": "Berlin", "state": "Berlin", "country": "Deutschland", "formattedAddress": ["Wiener Str. 60", "10999 Berlin", "Deutschland"]}, "categories": [{"id": "4bf58dd8d48988d111941735", "name": "Japanese Restaurant", "pluralName": "Japanese Restaurants", "shortName": "Japanese", "icon": {"prefix": "https://ss3.4sqi.net/img/categories_v2/food/japanese_", "suffix": ".png"}, "primary": true}], "photos": {"count": 0, "groups": []}}, "referralId": "e-0-5cb4817151950e002c28dd35-50"}, {"reasons": {"count": 0, "items": [{"summary": "This spot is popular", "type": "general", "reasonName": "globalInteractionReason"}]}, "venue": {"id": "4b15892af964a52052ae23e3", "name": "Kimchi Princess", "location": {"address": "Skalitzer Str. 36", "crossStreet": "Manteuffelstr.", "lat": 52.498602383397404, "lng": 13.425877690315247, "labeledLatLngs": [{"label": "display", "lat": 52.498602383397404, "lng": 13.425877690315247}], "distance": 445, "postalCode": "10999", "cc": "DE", "city": "Berlin", "state": "Berlin", "country": "Deutschland", "formattedAddress": ["Skalitzer Str. 36 (Manteuffelstr.)", "10999 Berlin", "Deutschland"]}, "categories": [{"id": "4bf58dd8d48988d113941735", "name": "Korean Restaurant", "pluralName": "Korean Restaurants", "shortName": "Korean", "icon": {"prefix": "https://ss3.4sqi.net/img/categories_v2/food/korean_", "suffix": ".png"}, "primary": true}], "photos": {"count": 0, "groups": []}}, "referralId": "e-0-4b15892af964a52052ae23e3-51"}, {"reasons": {"count": 0, "items": [{"summary": "This spot is popular", "type": "general", "reasonName": "globalInteractionReason"}]}, "venue": {"id": "504256d8e4b0f30041f398f0", "name": "Restaurant Richard", "location": {"address": "K\u00f6penicker Str. 174", "lat": 52.50431281903661, "lng": 13.435404582066509, "labeledLatLngs": [{"label": "display", "lat": 52.50431281903661, "lng": 13.435404582066509}], "distance": 549, "postalCode": "10997", "cc": "DE", "city": "Berlin", "state": "Berlin", "country": "Deutschland", "formattedAddress": ["K\u00f6penicker Str. 174", "10997 Berlin", "Deutschland"]}, "categories": [{"id": "4bf58dd8d48988d10c941735", "name": "French Restaurant", "pluralName": "French Restaurants", "shortName": "French", "icon": {"prefix": "https://ss3.4sqi.net/img/categories_v2/food/french_", "suffix": ".png"}, "primary": true}], "photos": {"count": 0, "groups": []}}, "referralId": "e-0-504256d8e4b0f30041f398f0-52"}, {"reasons": {"count": 0, "items": [{"summary": "This spot is popular", "type": "general", "reasonName": "globalInteractionReason"}]}, "venue": {"id": "53b6681c498e83df9081de40", "name": "platz doch!", "location": {"address": "Manteuffelstr. 48", "lat": 52.49835677561526, "lng": 13.425496261247554, "labeledLatLngs": [{"label": "display", "lat": 52.49835677561526, "lng": 13.425496261247554}], "distance": 479, "postalCode": "10999", "cc": "DE", "city": "Berlin", "state": "Berlin", "country": "Deutschland", "formattedAddress": ["Manteuffelstr. 48", "10999 Berlin", "Deutschland"]}, "categories": [{"id": "4bf58dd8d48988d109941735", "name": "Eastern European Restaurant", "pluralName": "Eastern European Restaurants", "shortName": "Eastern European", "icon": {"prefix": "https://ss3.4sqi.net/img/categories_v2/food/default_", "suffix": ".png"}, "primary": true}], "photos": {"count": 0, "groups": []}}, "referralId": "e-0-53b6681c498e83df9081de40-53"}, {"reasons": {"count": 0, "items": [{"summary": "This spot is popular", "type": "general", "reasonName": "globalInteractionReason"}]}, "venue": {"id": "4adcda75f964a5209f4521e3", "name": "SO36", "location": {"address": "Oranienstr. 190", "crossStreet": "Heinrichplatz", "lat": 52.500010256337525, "lng": 13.421936313164833, "labeledLatLngs": [{"label": "display", "lat": 52.500010256337525, "lng": 13.421936313164833}], "distance": 485, "postalCode": "10999", "cc": "DE", "city": "Berlin", "state": "Berlin", "country": "Deutschland", "formattedAddress": ["Oranienstr. 190 (Heinrichplatz)", "10999 Berlin", "Deutschland"]}, "categories": [{"id": "4bf58dd8d48988d1e5931735", "name": "Music Venue", "pluralName": "Music Venues", "shortName": "Music Venue", "icon": {"prefix": "https://ss3.4sqi.net/img/categories_v2/arts_entertainment/musicvenue_", "suffix": ".png"}, "primary": true}], "photos": {"count": 0, "groups": []}}, "referralId": "e-0-4adcda75f964a5209f4521e3-54"}, {"reasons": {"count": 0, "items": [{"summary": "This spot is popular", "type": "general", "reasonName": "globalInteractionReason"}]}, "venue": {"id": "4adcda85f964a520054921e3", "name": "Jolesch", "location": {"address": "Muskauer Str. 1", "lat": 52.5007774, "lng": 13.434039100000064, "labeledLatLngs": [{"label": "display", "lat": 52.5007774, "lng": 13.434039100000064}], "distance": 452, "postalCode": "10997", "cc": "DE", "city": "Berlin", "state": "Berlin", "country": "Deutschland", "formattedAddress": ["Muskauer Str. 1", "10997 Berlin", "Deutschland"]}, "categories": [{"id": "52e81612bcbc57f1066b7a01", "name": "Austrian Restaurant", "pluralName": "Austrian Restaurants", "shortName": "Austrian", "icon": {"prefix": "https://ss3.4sqi.net/img/categories_v2/food/austrian_", "suffix": ".png"}, "primary": true}], "photos": {"count": 0, "groups": []}}, "referralId": "e-0-4adcda85f964a520054921e3-55"}, {"reasons": {"count": 0, "items": [{"summary": "This spot is popular", "type": "general", "reasonName": "globalInteractionReason"}]}, "venue": {"id": "5a145be31755627b933c5ed7", "name": "\u00d6z Adana Grillhaus", "location": {"address": "Oranienstra\u00dfe 2", "lat": 52.499586, "lng": 13.425877, "labeledLatLngs": [{"label": "display", "lat": 52.499586, "lng": 13.425877}], "distance": 343, "postalCode": "10997", "cc": "DE", "city": "Berlin", "state": "Berlin", "country": "Deutschland", "formattedAddress": ["Oranienstra\u00dfe 2", "10997 Berlin", "Deutschland"]}, "categories": [{"id": "4bf58dd8d48988d1cc941735", "name": "Steakhouse", "pluralName": "Steakhouses", "shortName": "Steakhouse", "icon": {"prefix": "https://ss3.4sqi.net/img/categories_v2/food/steakhouse_", "suffix": ".png"}, "primary": true}], "photos": {"count": 0, "groups": []}}, "referralId": "e-0-5a145be31755627b933c5ed7-56"}, {"reasons": {"count": 0, "items": [{"summary": "This spot is popular", "type": "general", "reasonName": "globalInteractionReason"}]}, "venue": {"id": "5502d1a8498e0ef4622876d7", "name": "Basmah", "location": {"address": "Reichenberger Str. 26", "crossStreet": "Mariannenstr.", "lat": 52.498265837662, "lng": 13.421194016491617, "labeledLatLngs": [{"label": "display", "lat": 52.498265837662, "lng": 13.421194016491617}], "distance": 648, "postalCode": "10999", "cc": "DE", "city": "Berlin", "state": "Berlin", "country": "Deutschland", "formattedAddress": ["Reichenberger Str. 26 (Mariannenstr.)", "10999 Berlin", "Deutschland"]}, "categories": [{"id": "4bf58dd8d48988d1c8941735", "name": "African Restaurant", "pluralName": "African Restaurants", "shortName": "African", "icon": {"prefix": "https://ss3.4sqi.net/img/categories_v2/food/african_", "suffix": ".png"}, "primary": true}], "photos": {"count": 0, "groups": []}}, "referralId": "e-0-5502d1a8498e0ef4622876d7-57"}, {"reasons": {"count": 0, "items": [{"summary": "This spot is popular", "type": "general", "reasonName": "globalInteractionReason"}]}, "venue": {"id": "57f41481498ecea54191341b", "name": "Adana Grillhaus 2", "location": {"address": "Skalitzer Str. 105", "lat": 52.499356478129876, "lng": 13.427354928509715, "labeledLatLngs": [{"label": "display", "lat": 52.499356478129876, "lng": 13.427354928509715}], "distance": 341, "postalCode": "10997", "cc": "DE", "city": "Berlin", "state": "Berlin", "country": "Deutschland", "formattedAddress": ["Skalitzer Str. 105", "10997 Berlin", "Deutschland"]}, "categories": [{"id": "4f04af1f2fb6e1c99f3db0bb", "name": "Turkish Restaurant", "pluralName": "Turkish Restaurants", "shortName": "Turkish", "icon": {"prefix": "https://ss3.4sqi.net/img/categories_v2/food/turkish_", "suffix": ".png"}, "primary": true}], "photos": {"count": 0, "groups": []}}, "referralId": "e-0-57f41481498ecea54191341b-58"}, {"reasons": {"count": 0, "items": [{"summary": "This spot is popular", "type": "general", "reasonName": "globalInteractionReason"}]}, "venue": {"id": "5a80e70366fc654af7fc4a8e", "name": "Biererei Bar & Vintage Cellar", "location": {"address": "Oranienstr. 185", "lat": 52.500666291859176, "lng": 13.421092629432678, "labeledLatLngs": [{"label": "display", "lat": 52.500666291859176, "lng": 13.421092629432678}], "distance": 501, "postalCode": "10999", "cc": "DE", "city": "Berlin", "state": "Berlin", "country": "Deutschland", "formattedAddress": ["Oranienstr. 185", "10999 Berlin", "Deutschland"]}, "categories": [{"id": "56aa371ce4b08b9a8d57356c", "name": "Beer Bar", "pluralName": "Beer Bars", "shortName": "Beer Bar", "icon": {"prefix": "https://ss3.4sqi.net/img/categories_v2/nightlife/pub_", "suffix": ".png"}, "primary": true}], "photos": {"count": 0, "groups": []}, "venuePage": {"id": "558131054"}}, "referralId": "e-0-5a80e70366fc654af7fc4a8e-59"}, {"reasons": {"count": 0, "items": [{"summary": "This spot is popular", "type": "general", "reasonName": "globalInteractionReason"}]}, "venue": {"id": "4b1e303cf964a520c41724e3", "name": "Koka 36 Konzertkasse", "location": {"address": "Oranienstr. 29", "lat": 52.501266, "lng": 13.419853, "labeledLatLngs": [{"label": "display", "lat": 52.501266, "lng": 13.419853}], "distance": 561, "postalCode": "10999", "cc": "DE", "city": "Berlin", "state": "Berlin", "country": "Deutschland", "formattedAddress": ["Oranienstr. 29", "10999 Berlin", "Deutschland"]}, "categories": [{"id": "4bf58dd8d48988d1f1931735", "name": "General Entertainment", "pluralName": "General Entertainment", "shortName": "Entertainment", "icon": {"prefix": "https://ss3.4sqi.net/img/categories_v2/arts_entertainment/default_", "suffix": ".png"}, "primary": true}], "photos": {"count": 0, "groups": []}, "venuePage": {"id": "387911655"}}, "referralId": "e-0-4b1e303cf964a520c41724e3-60"}, {"reasons": {"count": 0, "items": [{"summary": "This spot is popular", "type": "general", "reasonName": "globalInteractionReason"}]}, "venue": {"id": "533f2312498e8f3f28149c1f", "name": "Die Apotheken Bar", "location": {"address": "Mariannenplatz 6", "lat": 52.501728217086125, "lng": 13.424118466440877, "labeledLatLngs": [{"label": "display", "lat": 52.501728217086125, "lng": 13.424118466440877}], "distance": 268, "postalCode": "10997", "cc": "DE", "city": "Berlin", "state": "Berlin", "country": "Deutschland", "formattedAddress": ["Mariannenplatz 6", "10997 Berlin", "Deutschland"]}, "categories": [{"id": "4bf58dd8d48988d116941735", "name": "Bar", "pluralName": "Bars", "shortName": "Bar", "icon": {"prefix": "https://ss3.4sqi.net/img/categories_v2/nightlife/pub_", "suffix": ".png"}, "primary": true}], "photos": {"count": 0, "groups": []}}, "referralId": "e-0-533f2312498e8f3f28149c1f-61"}, {"reasons": {"count": 0, "items": [{"summary": "This spot is popular", "type": "general", "reasonName": "globalInteractionReason"}]}, "venue": {"id": "4adcda76f964a520b64521e3", "name": "Roses", "location": {"address": "Oranienstr. 187", "lat": 52.5006330832766, "lng": 13.421721274013976, "labeledLatLngs": [{"label": "display", "lat": 52.5006330832766, "lng": 13.421721274013976}], "distance": 464, "postalCode": "10999", "cc": "DE", "city": "Berlin", "state": "Berlin", "country": "Deutschland", "formattedAddress": ["Oranienstr. 187", "10999 Berlin", "Deutschland"]}, "categories": [{"id": "4bf58dd8d48988d1d8941735", "name": "Gay Bar", "pluralName": "Gay Bars", "shortName": "Gay Bar", "icon": {"prefix": "https://ss3.4sqi.net/img/categories_v2/nightlife/gaybar_", "suffix": ".png"}, "primary": true}], "photos": {"count": 0, "groups": []}}, "referralId": "e-0-4adcda76f964a520b64521e3-62"}, {"reasons": {"count": 0, "items": [{"summary": "This spot is popular", "type": "general", "reasonName": "globalInteractionReason"}]}, "venue": {"id": "51e81096498e6b71591d4db4", "name": "Salumeria Lamuri", "location": {"address": "K\u00f6penicker Str.183", "lat": 52.50309729215354, "lng": 13.438077108747732, "labeledLatLngs": [{"label": "display", "lat": 52.50309729215354, "lng": 13.438077108747732}], "distance": 692, "postalCode": "10997", "cc": "DE", "city": "Berlin", "state": "Berlin", "country": "Deutschland", "formattedAddress": ["K\u00f6penicker Str.183", "10997 Berlin", "Deutschland"]}, "categories": [{"id": "4bf58dd8d48988d110941735", "name": "Italian Restaurant", "pluralName": "Italian Restaurants", "shortName": "Italian", "icon": {"prefix": "https://ss3.4sqi.net/img/categories_v2/food/italian_", "suffix": ".png"}, "primary": true}], "photos": {"count": 0, "groups": []}}, "referralId": "e-0-51e81096498e6b71591d4db4-63"}, {"reasons": {"count": 0, "items": [{"summary": "This spot is popular", "type": "general", "reasonName": "globalInteractionReason"}]}, "venue": {"id": "4c3f19230e0d0f47ab6c167f", "name": "Nachtigall Imbiss", "location": {"address": "Ohlauer Str. 10", "lat": 52.496771, "lng": 13.431313, "labeledLatLngs": [{"label": "display", "lat": 52.496771, "lng": 13.431313}], "distance": 668, "postalCode": "10999", "cc": "DE", "neighborhood": "Kreuzberg", "city": "Berlin", "state": "Berlin", "country": "Deutschland", "formattedAddress": ["Ohlauer Str. 10", "10999 Berlin", "Deutschland"]}, "categories": [{"id": "58daa1558bbb0b01f18ec1cd", "name": "Lebanese Restaurant", "pluralName": "Lebanese Restaurants", "shortName": "Lebanese", "icon": {"prefix": "https://ss3.4sqi.net/img/categories_v2/food/middleeastern_", "suffix": ".png"}, "primary": true}], "photos": {"count": 0, "groups": []}}, "referralId": "e-0-4c3f19230e0d0f47ab6c167f-64"}, {"reasons": {"count": 0, "items": [{"summary": "This spot is popular", "type": "general", "reasonName": "globalInteractionReason"}]}, "venue": {"id": "4f14a875e4b00420579c9e13", "name": "John Muir", "location": {"address": "Skalitzer Str. 51", "crossStreet": "G\u00f6rlitzer Str.", "lat": 52.499689457200915, "lng": 13.433965729603512, "labeledLatLngs": [{"label": "display", "lat": 52.499689457200915, "lng": 13.433965729603512}], "distance": 509, "postalCode": "10997", "cc": "DE", "city": "Berlin", "state": "Berlin", "country": "Deutschland", "formattedAddress": ["Skalitzer Str. 51 (G\u00f6rlitzer Str.)", "10997 Berlin", "Deutschland"]}, "categories": [{"id": "4bf58dd8d48988d11e941735", "name": "Cocktail Bar", "pluralName": "Cocktail Bars", "shortName": "Cocktail", "icon": {"prefix": "https://ss3.4sqi.net/img/categories_v2/nightlife/cocktails_", "suffix": ".png"}, "primary": true}], "photos": {"count": 0, "groups": []}}, "referralId": "e-0-4f14a875e4b00420579c9e13-65"}, {"reasons": {"count": 0, "items": [{"summary": "This spot is popular", "type": "general", "reasonName": "globalInteractionReason"}]}, "venue": {"id": "4cd4748494848cfaddc1dfb1", "name": "Voo Store", "location": {"address": "Oranienstr. 24", "lat": 52.50116203054585, "lng": 13.421170687928225, "labeledLatLngs": [{"label": "display", "lat": 52.50116203054585, "lng": 13.421170687928225}], "distance": 477, "postalCode": "10999", "cc": "DE", "city": "Berlin", "state": "Berlin", "country": "Deutschland", "formattedAddress": ["Oranienstr. 24", "10999 Berlin", "Deutschland"]}, "categories": [{"id": "4bf58dd8d48988d104951735", "name": "Boutique", "pluralName": "Boutiques", "shortName": "Boutique", "icon": {"prefix": "https://ss3.4sqi.net/img/categories_v2/shops/apparel_boutique_", "suffix": ".png"}, "primary": true}], "photos": {"count": 0, "groups": []}, "venuePage": {"id": "76417376"}}, "referralId": "e-0-4cd4748494848cfaddc1dfb1-66"}, {"reasons": {"count": 0, "items": [{"summary": "This spot is popular", "type": "general", "reasonName": "globalInteractionReason"}]}, "venue": {"id": "4ed936cae5fa78b16cb3a807", "name": "Filmkunstbar Fitzcarraldo", "location": {"address": "Reichenberger Str. 133", "crossStreet": "Lausitzer Str.", "lat": 52.49601010480827, "lng": 13.4290043022693, "labeledLatLngs": [{"label": "display", "lat": 52.49601010480827, "lng": 13.4290043022693}], "distance": 715, "postalCode": "10999", "cc": "DE", "city": "Berlin", "state": "Berlin", "country": "Deutschland", "formattedAddress": ["Reichenberger Str. 133 (Lausitzer Str.)", "10999 Berlin", "Deutschland"]}, "categories": [{"id": "4bf58dd8d48988d116941735", "name": "Bar", "pluralName": "Bars", "shortName": "Bar", "icon": {"prefix": "https://ss3.4sqi.net/img/categories_v2/nightlife/pub_", "suffix": ".png"}, "primary": true}], "photos": {"count": 0, "groups": []}}, "referralId": "e-0-4ed936cae5fa78b16cb3a807-67"}, {"reasons": {"count": 0, "items": [{"summary": "This spot is popular", "type": "general", "reasonName": "globalInteractionReason"}]}, "venue": {"id": "576e799d498edf505ef9a03e", "name": "Sahara Sudanesische Spezialit\u00e4ten", "location": {"address": "Eisenbahnstr. 44", "crossStreet": "Wrangelstr", "lat": 52.50181909291424, "lng": 13.431945139922854, "labeledLatLngs": [{"label": "display", "lat": 52.50181909291424, "lng": 13.431945139922854}], "distance": 280, "postalCode": "10997", "cc": "DE", "city": "Berlin", "state": "Berlin", "country": "Deutschland", "formattedAddress": ["Eisenbahnstr. 44 (Wrangelstr)", "10997 Berlin", "Deutschland"]}, "categories": [{"id": "4bf58dd8d48988d1c8941735", "name": "African Restaurant", "pluralName": "African Restaurants", "shortName": "African", "icon": {"prefix": "https://ss3.4sqi.net/img/categories_v2/food/african_", "suffix": ".png"}, "primary": true}], "photos": {"count": 0, "groups": []}}, "referralId": "e-0-576e799d498edf505ef9a03e-68"}, {"reasons": {"count": 0, "items": [{"summary": "This spot is popular", "type": "general", "reasonName": "globalInteractionReason"}]}, "venue": {"id": "56efcb8a498ebcce4dbe0c63", "name": "The Visit Coffee Roastery", "location": {"address": "Adalbertstr. 9", "lat": 52.500594, "lng": 13.419473, "labeledLatLngs": [{"label": "display", "lat": 52.500594, "lng": 13.419473}], "distance": 606, "postalCode": "10999", "cc": "DE", "city": "Berlin", "state": "Berlin", "country": "Deutschland", "formattedAddress": ["Adalbertstr. 9", "10999 Berlin", "Deutschland"]}, "categories": [{"id": "4bf58dd8d48988d1e0931735", "name": "Coffee Shop", "pluralName": "Coffee Shops", "shortName": "Coffee Shop", "icon": {"prefix": "https://ss3.4sqi.net/img/categories_v2/food/coffeeshop_", "suffix": ".png"}, "primary": true}], "photos": {"count": 0, "groups": []}}, "referralId": "e-0-56efcb8a498ebcce4dbe0c63-69"}, {"reasons": {"count": 0, "items": [{"summary": "This spot is popular", "type": "general", "reasonName": "globalInteractionReason"}]}, "venue": {"id": "54fedd81498ef2ecce877931", "name": "Panther", "location": {"address": "Waldemarstra\u00dfe 119", "lat": 52.50086, "lng": 13.4298, "labeledLatLngs": [{"label": "display", "lat": 52.50086, "lng": 13.4298}], "distance": 214, "postalCode": "10997", "cc": "DE", "city": "Berlin", "state": "Berlin", "country": "Deutschland", "formattedAddress": ["Waldemarstra\u00dfe 119", "10997 Berlin", "Deutschland"]}, "categories": [{"id": "4bf58dd8d48988d10d941735", "name": "German Restaurant", "pluralName": "German Restaurants", "shortName": "German", "icon": {"prefix": "https://ss3.4sqi.net/img/categories_v2/food/german_", "suffix": ".png"}, "primary": true}], "photos": {"count": 0, "groups": []}}, "referralId": "e-0-54fedd81498ef2ecce877931-70"}, {"reasons": {"count": 0, "items": [{"summary": "This spot is popular", "type": "general", "reasonName": "globalInteractionReason"}]}, "venue": {"id": "4b7f3a91f964a520cb2030e3", "name": "Multilayerladen", "location": {"address": "Adalbertstr. 4", "lat": 52.49983988915345, "lng": 13.41871461701686, "labeledLatLngs": [{"label": "display", "lat": 52.49983988915345, "lng": 13.41871461701686}], "distance": 686, "postalCode": "10999", "cc": "DE", "city": "Berlin", "state": "Berlin", "country": "Deutschland", "formattedAddress": ["Adalbertstr. 4", "10999 Berlin", "Deutschland"]}, "categories": [{"id": "4bf58dd8d48988d121941735", "name": "Lounge", "pluralName": "Lounges", "shortName": "Lounge", "icon": {"prefix": "https://ss3.4sqi.net/img/categories_v2/nightlife/default_", "suffix": ".png"}, "primary": true}], "photos": {"count": 0, "groups": []}}, "referralId": "e-0-4b7f3a91f964a520cb2030e3-71"}, {"reasons": {"count": 0, "items": [{"summary": "This spot is popular", "type": "general", "reasonName": "globalInteractionReason"}]}, "venue": {"id": "4adcda79f964a520b44621e3", "name": "Luzia", "location": {"address": "Oranienstr. 34", "lat": 52.50160763417674, "lng": 13.418269755829378, "labeledLatLngs": [{"label": "display", "lat": 52.50160763417674, "lng": 13.418269755829378}], "distance": 659, "postalCode": "10999", "cc": "DE", "city": "Berlin", "state": "Berlin", "country": "Deutschland", "formattedAddress": ["Oranienstr. 34", "10999 Berlin", "Deutschland"]}, "categories": [{"id": "4bf58dd8d48988d116941735", "name": "Bar", "pluralName": "Bars", "shortName": "Bar", "icon": {"prefix": "https://ss3.4sqi.net/img/categories_v2/nightlife/pub_", "suffix": ".png"}, "primary": true}], "photos": {"count": 0, "groups": []}}, "referralId": "e-0-4adcda79f964a520b44621e3-72"}, {"reasons": {"count": 0, "items": [{"summary": "This spot is popular", "type": "general", "reasonName": "globalInteractionReason"}]}, "venue": {"id": "564b7b33498ef828c4eaa4f5", "name": "Feger", "location": {"address": "Oranienstr. 183", "lat": 52.50094547539226, "lng": 13.42069456013024, "labeledLatLngs": [{"label": "display", "lat": 52.50094547539226, "lng": 13.42069456013024}], "distance": 515, "postalCode": "10999", "cc": "DE", "city": "Berlin", "state": "Berlin", "country": "Deutschland", "formattedAddress": ["Oranienstr. 183", "10999 Berlin", "Deutschland"]}, "categories": [{"id": "4bf58dd8d48988d118941735", "name": "Dive Bar", "pluralName": "Dive Bars", "shortName": "Dive Bar", "icon": {"prefix": "https://ss3.4sqi.net/img/categories_v2/nightlife/divebar_", "suffix": ".png"}, "primary": true}], "photos": {"count": 0, "groups": []}}, "referralId": "e-0-564b7b33498ef828c4eaa4f5-73"}, {"reasons": {"count": 0, "items": [{"summary": "This spot is popular", "type": "general", "reasonName": "globalInteractionReason"}]}, "venue": {"id": "55f7e40b498ee90313fc2a49", "name": "Burgermeister", "location": {"address": "Skalitzer Str. 136", "crossStreet": "Kottbusser Tor", "lat": 52.499464, "lng": 13.418647, "labeledLatLngs": [{"label": "display", "lat": 52.499464, "lng": 13.418647}], "distance": 708, "postalCode": "10999", "cc": "DE", "city": "Berlin", "state": "Berlin", "country": "Deutschland", "formattedAddress": ["Skalitzer Str. 136 (Kottbusser Tor)", "10999 Berlin", "Deutschland"]}, "categories": [{"id": "4bf58dd8d48988d16c941735", "name": "Burger Joint", "pluralName": "Burger Joints", "shortName": "Burgers", "icon": {"prefix": "https://ss3.4sqi.net/img/categories_v2/food/burger_", "suffix": ".png"}, "primary": true}], "photos": {"count": 0, "groups": []}}, "referralId": "e-0-55f7e40b498ee90313fc2a49-74"}, {"reasons": {"count": 0, "items": [{"summary": "This spot is popular", "type": "general", "reasonName": "globalInteractionReason"}]}, "venue": {"id": "4b8d235cf964a520d0e932e3", "name": "BIO COMPANY", "location": {"address": "Skalitzer Str. 127", "lat": 52.49936824807244, "lng": 13.420995937201187, "labeledLatLngs": [{"label": "display", "lat": 52.49936824807244, "lng": 13.420995937201187}], "distance": 578, "postalCode": "10999", "cc": "DE", "city": "Berlin", "state": "Berlin", "country": "Deutschland", "formattedAddress": ["Skalitzer Str. 127", "10999 Berlin", "Deutschland"]}, "categories": [{"id": "52f2ab2ebcbc57f1066b8b45", "name": "Organic Grocery", "pluralName": "Organic Groceries", "shortName": "Organic Grocery", "icon": {"prefix": "https://ss3.4sqi.net/img/categories_v2/shops/food_grocery_", "suffix": ".png"}, "primary": true}], "photos": {"count": 0, "groups": []}, "venuePage": {"id": "463175349"}}, "referralId": "e-0-4b8d235cf964a520d0e932e3-75"}, {"reasons": {"count": 0, "items": [{"summary": "This spot is popular", "type": "general", "reasonName": "globalInteractionReason"}]}, "venue": {"id": "57a8cf0a498e5a583a21daae", "name": "Duo Sicilian Ice Cream", "location": {"address": "Skalitzer Str. 82", "lat": 52.500581059463194, "lng": 13.438824605836999, "labeledLatLngs": [{"label": "display", "lat": 52.500581059463194, "lng": 13.438824605836999}], "distance": 766, "postalCode": "10997", "cc": "DE", "neighborhood": "Kreuzberg", "city": "Berlin", "state": "Berlin", "country": "Deutschland", "formattedAddress": ["Skalitzer Str. 82", "10997 Berlin", "Deutschland"]}, "categories": [{"id": "4bf58dd8d48988d1c9941735", "name": "Ice Cream Shop", "pluralName": "Ice Cream Shops", "shortName": "Ice Cream", "icon": {"prefix": "https://ss3.4sqi.net/img/categories_v2/food/icecream_", "suffix": ".png"}, "primary": true}], "photos": {"count": 0, "groups": []}}, "referralId": "e-0-57a8cf0a498e5a583a21daae-76"}, {"reasons": {"count": 0, "items": [{"summary": "This spot is popular", "type": "general", "reasonName": "globalInteractionReason"}]}, "venue": {"id": "4ff2ce66e4b015c75abb5fc6", "name": "Mundvoll", "location": {"address": "Waldemarstr. 48", "crossStreet": "Adalbertstr.", "lat": 52.50317155009048, "lng": 13.4206525259368, "labeledLatLngs": [{"label": "display", "lat": 52.50317155009048, "lng": 13.4206525259368}], "distance": 499, "postalCode": "10997", "cc": "DE", "neighborhood": "Kreuzberg", "city": "Berlin", "state": "Berlin", "country": "Deutschland", "formattedAddress": ["Waldemarstr. 48 (Adalbertstr.)", "10997 Berlin", "Deutschland"]}, "categories": [{"id": "52e81612bcbc57f1066b79f1", "name": "Bistro", "pluralName": "Bistros", "shortName": "Bistro", "icon": {"prefix": "https://ss3.4sqi.net/img/categories_v2/food/default_", "suffix": ".png"}, "primary": true}], "photos": {"count": 0, "groups": []}}, "referralId": "e-0-4ff2ce66e4b015c75abb5fc6-77"}, {"reasons": {"count": 0, "items": [{"summary": "This spot is popular", "type": "general", "reasonName": "globalInteractionReason"}]}, "venue": {"id": "4c262f37f1272d7f150b86c5", "name": "Taka Fish House", "location": {"address": "Adalbertstr. 97", "lat": 52.49992973763225, "lng": 13.418096121513056, "labeledLatLngs": [{"label": "display", "lat": 52.49992973763225, "lng": 13.418096121513056}], "distance": 720, "postalCode": "10999", "cc": "DE", "city": "Berlin", "state": "Berlin", "country": "Deutschland", "formattedAddress": ["Adalbertstr. 97", "10999 Berlin", "Deutschland"]}, "categories": [{"id": "4bf58dd8d48988d1ce941735", "name": "Seafood Restaurant", "pluralName": "Seafood Restaurants", "shortName": "Seafood", "icon": {"prefix": "https://ss3.4sqi.net/img/categories_v2/food/seafood_", "suffix": ".png"}, "primary": true}], "photos": {"count": 0, "groups": []}}, "referralId": "e-0-4c262f37f1272d7f150b86c5-78"}, {"reasons": {"count": 0, "items": [{"summary": "This spot is popular", "type": "general", "reasonName": "globalInteractionReason"}]}, "venue": {"id": "4bb363a7eb3e9521ce09cb0a", "name": "Schneidersladen", "location": {"address": "Skalitzerstr. 135A", "lat": 52.499243631116194, "lng": 13.418799493592871, "labeledLatLngs": [{"label": "display", "lat": 52.499243631116194, "lng": 13.418799493592871}], "distance": 711, "postalCode": "10999", "cc": "DE", "city": "Berlin", "state": "Berlin", "country": "Deutschland", "formattedAddress": ["Skalitzerstr. 135A", "10999 Berlin", "Deutschland"]}, "categories": [{"id": "4bf58dd8d48988d1fe941735", "name": "Music Store", "pluralName": "Music Stores", "shortName": "Music Store", "icon": {"prefix": "https://ss3.4sqi.net/img/categories_v2/shops/music_instruments_", "suffix": ".png"}, "primary": true}], "photos": {"count": 0, "groups": []}}, "referralId": "e-0-4bb363a7eb3e9521ce09cb0a-79"}, {"reasons": {"count": 0, "items": [{"summary": "This spot is popular", "type": "general", "reasonName": "globalInteractionReason"}]}, "venue": {"id": "4b5608a4f964a520ebfc27e3", "name": "Kvartira Nr. 62", "location": {"address": "L\u00fcbbener Str. 18", "lat": 52.49990607474777, "lng": 13.437773963752973, "labeledLatLngs": [{"label": "display", "lat": 52.49990607474777, "lng": 13.437773963752973}], "distance": 723, "postalCode": "10997", "cc": "DE", "city": "Berlin", "state": "Berlin", "country": "Deutschland", "formattedAddress": ["L\u00fcbbener Str. 18", "10997 Berlin", "Deutschland"]}, "categories": [{"id": "4bf58dd8d48988d116941735", "name": "Bar", "pluralName": "Bars", "shortName": "Bar", "icon": {"prefix": "https://ss3.4sqi.net/img/categories_v2/nightlife/pub_", "suffix": ".png"}, "primary": true}], "photos": {"count": 0, "groups": []}}, "referralId": "e-0-4b5608a4f964a520ebfc27e3-80"}, {"reasons": {"count": 0, "items": [{"summary": "This spot is popular", "type": "general", "reasonName": "globalInteractionReason"}]}, "venue": {"id": "540fed9c498e751683adb151", "name": "Nano Kaffee", "location": {"address": "Dresdener Str. 14", "lat": 52.50083112028404, "lng": 13.417041244390662, "labeledLatLngs": [{"label": "display", "lat": 52.50083112028404, "lng": 13.417041244390662}], "distance": 757, "postalCode": "10999", "cc": "DE", "neighborhood": "Kreuzberg", "city": "Berlin", "state": "Berlin", "country": "Deutschland", "formattedAddress": ["Dresdener Str. 14", "10999 Berlin", "Deutschland"]}, "categories": [{"id": "4bf58dd8d48988d1e0931735", "name": "Coffee Shop", "pluralName": "Coffee Shops", "shortName": "Coffee Shop", "icon": {"prefix": "https://ss3.4sqi.net/img/categories_v2/food/coffeeshop_", "suffix": ".png"}, "primary": true}], "photos": {"count": 0, "groups": []}}, "referralId": "e-0-540fed9c498e751683adb151-81"}, {"reasons": {"count": 0, "items": [{"summary": "This spot is popular", "type": "general", "reasonName": "globalInteractionReason"}]}, "venue": {"id": "4d5ec4d95b276dcbea9ffec5", "name": "De Noantri", "location": {"address": "G\u00f6rlitzer Str. 63", "lat": 52.498214, "lng": 13.436039, "labeledLatLngs": [{"label": "display", "lat": 52.498214, "lng": 13.436039}], "distance": 721, "postalCode": "10997", "cc": "DE", "city": "Berlin", "state": "Berlin", "country": "Deutschland", "formattedAddress": ["G\u00f6rlitzer Str. 63", "10997 Berlin", "Deutschland"]}, "categories": [{"id": "4bf58dd8d48988d110941735", "name": "Italian Restaurant", "pluralName": "Italian Restaurants", "shortName": "Italian", "icon": {"prefix": "https://ss3.4sqi.net/img/categories_v2/food/italian_", "suffix": ".png"}, "primary": true}], "photos": {"count": 0, "groups": []}}, "referralId": "e-0-4d5ec4d95b276dcbea9ffec5-82"}, {"reasons": {"count": 0, "items": [{"summary": "This spot is popular", "type": "general", "reasonName": "globalInteractionReason"}]}, "venue": {"id": "53624597498ef2d026e98dd0", "name": "Angry Chicken", "location": {"address": "Oranienstr. 16", "crossStreet": "Mariannenstr.", "lat": 52.500556, "lng": 13.422855, "labeledLatLngs": [{"label": "display", "lat": 52.500556, "lng": 13.422855}], "distance": 400, "postalCode": "10999", "cc": "DE", "city": "Berlin", "state": "Berlin", "country": "Deutschland", "formattedAddress": ["Oranienstr. 16 (Mariannenstr.)", "10999 Berlin", "Deutschland"]}, "categories": [{"id": "4bf58dd8d48988d113941735", "name": "Korean Restaurant", "pluralName": "Korean Restaurants", "shortName": "Korean", "icon": {"prefix": "https://ss3.4sqi.net/img/categories_v2/food/korean_", "suffix": ".png"}, "primary": true}], "photos": {"count": 0, "groups": []}, "venuePage": {"id": "587405792"}}, "referralId": "e-0-53624597498ef2d026e98dd0-83"}, {"reasons": {"count": 0, "items": [{"summary": "This spot is popular", "type": "general", "reasonName": "globalInteractionReason"}]}, "venue": {"id": "57e26fe6498efd7cdc8316f7", "name": "The Panda Noodle", "location": {"address": "Lausitzer Platz 12", "lat": 52.50080083709904, "lng": 13.431405690122542, "labeledLatLngs": [{"label": "display", "lat": 52.50080083709904, "lng": 13.431405690122542}], "distance": 296, "postalCode": "10997", "cc": "DE", "neighborhood": "Kreuzberg", "city": "Berlin", "state": "Berlin", "country": "Deutschland", "formattedAddress": ["Lausitzer Platz 12", "10997 Berlin", "Deutschland"]}, "categories": [{"id": "4bf58dd8d48988d1d1941735", "name": "Noodle House", "pluralName": "Noodle Houses", "shortName": "Noodles", "icon": {"prefix": "https://ss3.4sqi.net/img/categories_v2/food/ramen_", "suffix": ".png"}, "primary": true}], "photos": {"count": 0, "groups": []}}, "referralId": "e-0-57e26fe6498efd7cdc8316f7-84"}, {"reasons": {"count": 0, "items": [{"summary": "This spot is popular", "type": "general", "reasonName": "globalInteractionReason"}]}, "venue": {"id": "4adf6564f964a5203f7a21e3", "name": "Hard Wax", "location": {"address": "Paul-Lincke-Ufer 44a", "crossStreet": "2.HH, Aufgang A, 3.OG", "lat": 52.49688456292147, "lng": 13.421258926391602, "labeledLatLngs": [{"label": "display", "lat": 52.49688456292147, "lng": 13.421258926391602}], "distance": 762, "postalCode": "10999", "cc": "DE", "city": "Berlin", "state": "Berlin", "country": "Deutschland", "formattedAddress": ["Paul-Lincke-Ufer 44a (2.HH, Aufgang A, 3.OG)", "10999 Berlin", "Deutschland"]}, "categories": [{"id": "4bf58dd8d48988d10d951735", "name": "Record Shop", "pluralName": "Record Shops", "shortName": "Record Shop", "icon": {"prefix": "https://ss3.4sqi.net/img/categories_v2/shops/record_shop_", "suffix": ".png"}, "primary": true}], "photos": {"count": 0, "groups": []}}, "referralId": "e-0-4adf6564f964a5203f7a21e3-85"}, {"reasons": {"count": 0, "items": [{"summary": "This spot is popular", "type": "general", "reasonName": "globalInteractionReason"}]}, "venue": {"id": "4adcda7ef964a520d34721e3", "name": "Kinderbauernhof am Mauerplatz", "location": {"address": "Adalbertstr. 70", "crossStreet": "Bethaniendamm", "lat": 52.50497667424454, "lng": 13.420599102973938, "labeledLatLngs": [{"label": "display", "lat": 52.50497667424454, "lng": 13.420599102973938}], "distance": 572, "postalCode": "10999", "cc": "DE", "city": "Berlin", "state": "Berlin", "country": "Deutschland", "formattedAddress": ["Adalbertstr. 70 (Bethaniendamm)", "10999 Berlin", "Deutschland"]}, "categories": [{"id": "4bf58dd8d48988d15b941735", "name": "Farm", "pluralName": "Farms", "shortName": "Farm", "icon": {"prefix": "https://ss3.4sqi.net/img/categories_v2/parks_outdoors/farm_", "suffix": ".png"}, "primary": true}], "photos": {"count": 0, "groups": []}}, "referralId": "e-0-4adcda7ef964a520d34721e3-86"}, {"reasons": {"count": 0, "items": [{"summary": "This spot is popular", "type": "general", "reasonName": "globalInteractionReason"}]}, "venue": {"id": "51e6828b498efc97c0aedac5", "name": "Tekbir Imbiss", "location": {"address": "Skalitzer str 23", "crossStreet": "Mariannenstr", "lat": 52.499135646661905, "lng": 13.421624017064808, "labeledLatLngs": [{"label": "display", "lat": 52.499135646661905, "lng": 13.421624017064808}], "distance": 560, "cc": "DE", "city": "Berlin", "state": "Berlin", "country": "Deutschland", "formattedAddress": ["Skalitzer str 23 (Mariannenstr)", "Berlin", "Deutschland"]}, "categories": [{"id": "4f04af1f2fb6e1c99f3db0bb", "name": "Turkish Restaurant", "pluralName": "Turkish Restaurants", "shortName": "Turkish", "icon": {"prefix": "https://ss3.4sqi.net/img/categories_v2/food/turkish_", "suffix": ".png"}, "primary": true}], "photos": {"count": 0, "groups": []}}, "referralId": "e-0-51e6828b498efc97c0aedac5-87"}, {"reasons": {"count": 0, "items": [{"summary": "This spot is popular", "type": "general", "reasonName": "globalInteractionReason"}]}, "venue": {"id": "54a97032498e16e13fcd0906", "name": "ZOLA", "location": {"address": "Paul-Lincke-Ufer 39-40", "lat": 52.4962034999391, "lng": 13.422346111556184, "labeledLatLngs": [{"label": "display", "lat": 52.4962034999391, "lng": 13.422346111556184}], "distance": 787, "postalCode": "10999", "cc": "DE", "city": "Berlin", "state": "Berlin", "country": "Deutschland", "formattedAddress": ["Paul-Lincke-Ufer 39-40", "10999 Berlin", "Deutschland"]}, "categories": [{"id": "4bf58dd8d48988d1ca941735", "name": "Pizza Place", "pluralName": "Pizza Places", "shortName": "Pizza", "icon": {"prefix": "https://ss3.4sqi.net/img/categories_v2/food/pizza_", "suffix": ".png"}, "primary": true}], "photos": {"count": 0, "groups": []}}, "referralId": "e-0-54a97032498e16e13fcd0906-88"}, {"reasons": {"count": 0, "items": [{"summary": "This spot is popular", "type": "general", "reasonName": "globalInteractionReason"}]}, "venue": {"id": "4adcda88f964a520764921e3", "name": "Maroush", "location": {"address": "Adalbertstr. 93", "lat": 52.50093770064716, "lng": 13.4190620805529, "labeledLatLngs": [{"label": "display", "lat": 52.50093770064716, "lng": 13.4190620805529}], "distance": 622, "postalCode": "10999", "cc": "DE", "city": "Berlin", "state": "Berlin", "country": "Deutschland", "formattedAddress": ["Adalbertstr. 93", "10999 Berlin", "Deutschland"]}, "categories": [{"id": "4bf58dd8d48988d115941735", "name": "Middle Eastern Restaurant", "pluralName": "Middle Eastern Restaurants", "shortName": "Middle Eastern", "icon": {"prefix": "https://ss3.4sqi.net/img/categories_v2/food/middleeastern_", "suffix": ".png"}, "primary": true}], "photos": {"count": 0, "groups": []}}, "referralId": "e-0-4adcda88f964a520764921e3-89"}, {"reasons": {"count": 0, "items": [{"summary": "This spot is popular", "type": "general", "reasonName": "globalInteractionReason"}]}, "venue": {"id": "4a986649f964a520cf2b20e3", "name": "K\u00f6pi", "location": {"address": "K\u00f6penicker Str. 137", "lat": 52.50797536643233, "lng": 13.426304946004793, "labeledLatLngs": [{"label": "display", "lat": 52.50797536643233, "lng": 13.426304946004793}], "distance": 629, "postalCode": "10179", "cc": "DE", "city": "Berlin", "state": "Berlin", "country": "Deutschland", "formattedAddress": ["K\u00f6penicker Str. 137", "10179 Berlin", "Deutschland"]}, "categories": [{"id": "4bf58dd8d48988d1e9931735", "name": "Rock Club", "pluralName": "Rock Clubs", "shortName": "Rock Club", "icon": {"prefix": "https://ss3.4sqi.net/img/categories_v2/arts_entertainment/musicvenue_rockclub_", "suffix": ".png"}, "primary": true}], "photos": {"count": 0, "groups": []}}, "referralId": "e-0-4a986649f964a520cf2b20e3-90"}, {"reasons": {"count": 0, "items": [{"summary": "This spot is popular", "type": "general", "reasonName": "globalInteractionReason"}]}, "venue": {"id": "4b7ed423f964a520890230e3", "name": "Babylon", "location": {"address": "Dresdener Str. 126", "lat": 52.50064513495082, "lng": 13.417128187942264, "labeledLatLngs": [{"label": "display", "lat": 52.50064513495082, "lng": 13.417128187942264}], "distance": 757, "postalCode": "10999", "cc": "DE", "neighborhood": "Kreuzberg", "city": "Berlin", "state": "Berlin", "country": "Deutschland", "formattedAddress": ["Dresdener Str. 126", "10999 Berlin", "Deutschland"]}, "categories": [{"id": "4bf58dd8d48988d17e941735", "name": "Indie Movie Theater", "pluralName": "Indie Movie Theaters", "shortName": "Indie Movies", "icon": {"prefix": "https://ss3.4sqi.net/img/categories_v2/arts_entertainment/movietheater_", "suffix": ".png"}, "primary": true}], "photos": {"count": 0, "groups": []}}, "referralId": "e-0-4b7ed423f964a520890230e3-91"}, {"reasons": {"count": 0, "items": [{"summary": "This spot is popular", "type": "general", "reasonName": "globalInteractionReason"}]}, "venue": {"id": "4b3750e7f964a520674025e3", "name": "Smyrna Kuruyemis", "location": {"address": "Oranienstr. 27", "lat": 52.50114121116478, "lng": 13.419900585486152, "labeledLatLngs": [{"label": "display", "lat": 52.50114121116478, "lng": 13.419900585486152}], "distance": 561, "postalCode": "10999", "cc": "DE", "city": "Berlin", "state": "Berlin", "country": "Deutschland", "formattedAddress": ["Oranienstr. 27", "10999 Berlin", "Deutschland"]}, "categories": [{"id": "4bf58dd8d48988d1c4941735", "name": "Restaurant", "pluralName": "Restaurants", "shortName": "Restaurant", "icon": {"prefix": "https://ss3.4sqi.net/img/categories_v2/food/default_", "suffix": ".png"}, "primary": true}], "photos": {"count": 0, "groups": []}}, "referralId": "e-0-4b3750e7f964a520674025e3-92"}, {"reasons": {"count": 0, "items": [{"summary": "This spot is popular", "type": "general", "reasonName": "globalInteractionReason"}]}, "venue": {"id": "553a2ec1498eca7b1751e6f8", "name": "Butterbrot", "location": {"address": "Oranienstr. 168", "lat": 52.501656, "lng": 13.417417, "labeledLatLngs": [{"label": "display", "lat": 52.501656, "lng": 13.417417}], "distance": 716, "postalCode": "10999", "cc": "DE", "city": "Berlin", "state": "Berlin", "country": "Deutschland", "formattedAddress": ["Oranienstr. 168", "10999 Berlin", "Deutschland"]}, "categories": [{"id": "4bf58dd8d48988d16d941735", "name": "Caf\u00e9", "pluralName": "Caf\u00e9s", "shortName": "Caf\u00e9", "icon": {"prefix": "https://ss3.4sqi.net/img/categories_v2/food/cafe_", "suffix": ".png"}, "primary": true}], "photos": {"count": 0, "groups": []}}, "referralId": "e-0-553a2ec1498eca7b1751e6f8-93"}, {"reasons": {"count": 0, "items": [{"summary": "This spot is popular", "type": "general", "reasonName": "globalInteractionReason"}]}, "venue": {"id": "57792aa9498e6337fe693eb6", "name": "Beach at YAAM", "location": {"address": "An der Schillingbr\u00fccke 3", "lat": 52.50897872147215, "lng": 13.431305476134444, "labeledLatLngs": [{"label": "display", "lat": 52.50897872147215, "lng": 13.431305476134444}], "distance": 766, "postalCode": "10243", "cc": "DE", "city": "Berlin", "state": "Berlin", "country": "Deutschland", "formattedAddress": ["An der Schillingbr\u00fccke 3", "10243 Berlin", "Deutschland"]}, "categories": [{"id": "52e81612bcbc57f1066b7a0d", "name": "Beach Bar", "pluralName": "Beach Bars", "shortName": "Beach Bar", "icon": {"prefix": "https://ss3.4sqi.net/img/categories_v2/nightlife/default_", "suffix": ".png"}, "primary": true}], "photos": {"count": 0, "groups": []}}, "referralId": "e-0-57792aa9498e6337fe693eb6-94"}, {"reasons": {"count": 0, "items": [{"summary": "This spot is popular", "type": "general", "reasonName": "globalInteractionReason"}]}, "venue": {"id": "4bdb2418c79cc9286b5481e9", "name": "Habibi", "location": {"address": "Oranienstr. 30", "lat": 52.501375174863725, "lng": 13.418990261584005, "labeledLatLngs": [{"label": "display", "lat": 52.501375174863725, "lng": 13.418990261584005}], "distance": 615, "postalCode": "10999", "cc": "DE", "city": "Berlin", "state": "Berlin", "country": "Deutschland", "formattedAddress": ["Oranienstr. 30", "10999 Berlin", "Deutschland"]}, "categories": [{"id": "4bf58dd8d48988d115941735", "name": "Middle Eastern Restaurant", "pluralName": "Middle Eastern Restaurants", "shortName": "Middle Eastern", "icon": {"prefix": "https://ss3.4sqi.net/img/categories_v2/food/middleeastern_", "suffix": ".png"}, "primary": true}], "photos": {"count": 0, "groups": []}}, "referralId": "e-0-4bdb2418c79cc9286b5481e9-95"}, {"reasons": {"count": 0, "items": [{"summary": "This spot is popular", "type": "general", "reasonName": "globalInteractionReason"}]}, "venue": {"id": "51d3f1e2498e15ad7aa4c00e", "name": "Concierge Coffee", "location": {"address": "Paul-Lincke-Ufer 39/40", "lat": 52.49607704120797, "lng": 13.422148954474327, "labeledLatLngs": [{"label": "display", "lat": 52.49607704120797, "lng": 13.422148954474327}], "distance": 805, "postalCode": "10999", "cc": "DE", "city": "Berlin", "state": "Berlin", "country": "Deutschland", "formattedAddress": ["Paul-Lincke-Ufer 39/40", "10999 Berlin", "Deutschland"]}, "categories": [{"id": "4bf58dd8d48988d1e0931735", "name": "Coffee Shop", "pluralName": "Coffee Shops", "shortName": "Coffee Shop", "icon": {"prefix": "https://ss3.4sqi.net/img/categories_v2/food/coffeeshop_", "suffix": ".png"}, "primary": true}], "photos": {"count": 0, "groups": []}}, "referralId": "e-0-51d3f1e2498e15ad7aa4c00e-96"}, {"reasons": {"count": 0, "items": [{"summary": "This spot is popular", "type": "general", "reasonName": "globalInteractionReason"}]}, "venue": {"id": "4adcda77f964a520254621e3", "name": "Die Henne", "location": {"address": "Leuschnerdamm 25", "crossStreet": "Waldemarstr.", "lat": 52.504211725677145, "lng": 13.417590759880886, "labeledLatLngs": [{"label": "display", "lat": 52.504211725677145, "lng": 13.417590759880886}], "distance": 728, "postalCode": "10999", "cc": "DE", "city": "Berlin", "state": "Berlin", "country": "Deutschland", "formattedAddress": ["Leuschnerdamm 25 (Waldemarstr.)", "10999 Berlin", "Deutschland"]}, "categories": [{"id": "4bf58dd8d48988d10d941735", "name": "German Restaurant", "pluralName": "German Restaurants", "shortName": "German", "icon": {"prefix": "https://ss3.4sqi.net/img/categories_v2/food/german_", "suffix": ".png"}, "primary": true}], "photos": {"count": 0, "groups": []}}, "referralId": "e-0-4adcda77f964a520254621e3-97"}, {"reasons": {"count": 0, "items": [{"summary": "This spot is popular", "type": "general", "reasonName": "globalInteractionReason"}]}, "venue": {"id": "57ca9752498e22fc8f3ce61e", "name": "Caf\u00e9 Mugrabi", "location": {"address": "G\u00f6rlitzer Str. 58", "crossStreet": "Sorauer Str.", "lat": 52.49770362044022, "lng": 13.43741654590141, "labeledLatLngs": [{"label": "display", "lat": 52.49770362044022, "lng": 13.43741654590141}], "distance": 829, "postalCode": "10997", "cc": "DE", "city": "Berlin", "state": "Berlin", "country": "Deutschland", "formattedAddress": ["G\u00f6rlitzer Str. 58 (Sorauer Str.)", "10997 Berlin", "Deutschland"]}, "categories": [{"id": "4bf58dd8d48988d143941735", "name": "Breakfast Spot", "pluralName": "Breakfast Spots", "shortName": "Breakfast", "icon": {"prefix": "https://ss3.4sqi.net/img/categories_v2/food/breakfast_", "suffix": ".png"}, "primary": true}], "photos": {"count": 0, "groups": []}}, "referralId": "e-0-57ca9752498e22fc8f3ce61e-98"}, {"reasons": {"count": 0, "items": [{"summary": "This spot is popular", "type": "general", "reasonName": "globalInteractionReason"}]}, "venue": {"id": "4be1ab18edbb0f479f40a615", "name": "Santa Maria", "location": {"address": "Oranienstr. 170", "lat": 52.50171776543595, "lng": 13.417892329736027, "labeledLatLngs": [{"label": "display", "lat": 52.50171776543595, "lng": 13.417892329736027}], "distance": 683, "postalCode": "10999", "cc": "DE", "neighborhood": "Kreuzberg", "city": "Berlin", "state": "Berlin", "country": "Deutschland", "formattedAddress": ["Oranienstr. 170", "10999 Berlin", "Deutschland"]}, "categories": [{"id": "4bf58dd8d48988d1c1941735", "name": "Mexican Restaurant", "pluralName": "Mexican Restaurants", "shortName": "Mexican", "icon": {"prefix": "https://ss3.4sqi.net/img/categories_v2/food/mexican_", "suffix": ".png"}, "primary": true}], "photos": {"count": 0, "groups": []}, "venuePage": {"id": "83976540"}}, "referralId": "e-0-4be1ab18edbb0f479f40a615-99"}]