[{"reasons": {"count": 0, "items": [{"summary": "This spot is popular", "type": "general", "reasonName": "globalInteractionReason"}]}, "venue": {"id": "4cff9e5675d3236a9a2ce6f7", "name": "Volkspark Wuhlheide", "location": {"address": "An der Wuhlheide", "crossStreet": "Treskowallee", "lat": 52.46839031081682, "lng": 13.52191686630249, "labeledLatLngs": [{"label": "display", "lat": 52.46839031081682, "lng": 13.52191686630249}], "distance": 489, "postalCode": "12459", "cc": "DE", "city": "Berlin", "state": "Berlin", "country": "Deutschland", "formattedAddress": ["An der Wuhlheide (Treskowallee)", "12459 Berlin", "Deutschland"]}, "categories": [{"id": "52e81612bcbc57f1066b7a23", "name": "Forest", "pluralName": "Forests", "shortName": "Forest", "icon": {"prefix": "https://ss3.4sqi.net/img/categories_v2/parks_outdoors/default_", "suffix": ".png"}, "primary": true}], "photos": {"count": 0, "groups": []}}, "referralId": "e-0-4cff9e5675d3236a9a2ce6f7-0"}, {"reasons": {"count": 0, "items": [{"summary": "This spot is popular", "type": "general", "reasonName": "globalInteractionReason"}]}, "venue": {"id": "51b487df498ebc589e5f2b91", "name": "Caf\u00e9 Schoeneweile", "location": {"address": "Reinbeckstr. 9", "lat": 52.460454983273635, "lng": 13.518551967977501, "labeledLatLngs": [{"label": "display", "lat": 52.460454983273635, "lng": 13.518551967977501}], "distance": 811, "postalCode": "12459", "cc": "DE", "city": "Berlin", "state": "Berlin", "country": "Deutschland", "formattedAddress": ["Reinbeckstr. 9", "12459 Berlin", "Deutschland"]}, "categories": [{"id": "4bf58dd8d48988d16d941735", "name": "Caf\u00e9", "pluralName": "Caf\u00e9s", "shortName": "Caf\u00e9", "icon": {"prefix": "https://ss3.4sqi.net/img/categories_v2/food/cafe_", "suffix": ".png"}, "primary": true}], "photos": {"count": 0, "groups": []}}, "referralId": "e-0-51b487df498ebc589e5f2b91-1"}, {"reasons": {"count": 0, "items": [{"summary": "This spot is popular", "type": "general", "reasonName": "globalInteractionReason"}]}, "venue": {"id": "591719126a595071942cf4f6", "name": "Manifattura Del Gusto", "location": {"address": "Rathenaustrasse 21", "lat": 52.45983, "lng": 13.52872, "labeledLatLngs": [{"label": "display", "lat": 52.45983, "lng": 13.52872}], "distance": 632, "cc": "DE", "city": "Berlin", "state": "Berlin", "country": "Deutschland", "formattedAddress": ["Rathenaustrasse 21", "Berlin", "Deutschland"]}, "categories": [{"id": "4bf58dd8d48988d1ca941735", "name": "Pizza Place", "pluralName": "Pizza Places", "shortName": "Pizza", "icon": {"prefix": "https://ss3.4sqi.net/img/categories_v2/food/pizza_", "suffix": ".png"}, "primary": true}], "photos": {"count": 0, "groups": []}}, "referralId": "e-0-591719126a595071942cf4f6-2"}, {"reasons": {"count": 0, "items": [{"summary": "This spot is popular", "type": "general", "reasonName": "globalInteractionReason"}]}, "venue": {"id": "4ced9c5028abb60cdbffb809", "name": "Espressobar Lal\u00fc", "location": {"address": "Wilhelminenhofstr. 53", "lat": 52.4586815061615, "lng": 13.526242762810138, "labeledLatLngs": [{"label": "display", "lat": 52.4586815061615, "lng": 13.526242762810138}], "distance": 756, "postalCode": "12459", "cc": "DE", "city": "Berlin", "state": "Berlin", "country": "Deutschland", "formattedAddress": ["Wilhelminenhofstr. 53", "12459 Berlin", "Deutschland"]}, "categories": [{"id": "4bf58dd8d48988d16d941735", "name": "Caf\u00e9", "pluralName": "Caf\u00e9s", "shortName": "Caf\u00e9", "icon": {"prefix": "https://ss3.4sqi.net/img/categories_v2/food/cafe_", "suffix": ".png"}, "primary": true}], "photos": {"count": 0, "groups": []}}, "referralId": "e-0-4ced9c5028abb60cdbffb809-3"}, {"reasons": {"count": 0, "items": [{"summary": "This spot is popular", "type": "general", "reasonName": "globalInteractionReason"}]}, "venue": {"id": "4f9d2f55e4b020e610455412", "name": "Industriesalon Sch\u00f6neweide", "location": {"address": "Reinbeckstr. 9", "lat": 52.46014415937159, "lng": 13.518073518342757, "labeledLatLngs": [{"label": "display", "lat": 52.46014415937159, "lng": 13.518073518342757}], "distance": 858, "postalCode": "12459", "cc": "DE", "city": "Berlin", "state": "Berlin", "country": "Deutschland", "formattedAddress": ["Reinbeckstr. 9", "12459 Berlin", "Deutschland"]}, "categories": [{"id": "4bf58dd8d48988d190941735", "name": "History Museum", "pluralName": "History Museums", "shortName": "History Museum", "icon": {"prefix": "https://ss3.4sqi.net/img/categories_v2/arts_entertainment/museum_history_", "suffix": ".png"}, "primary": true}], "photos": {"count": 0, "groups": []}}, "referralId": "e-0-4f9d2f55e4b020e610455412-4"}, {"reasons": {"count": 0, "items": [{"summary": "This spot is popular", "type": "general", "reasonName": "globalInteractionReason"}]}, "venue": {"id": "52d7a2a2498e2d82c4c5a744", "name": "Leons Backshop", "location": {"address": "Wilhelminenhofstr. 17", "lat": 52.46216875994742, "lng": 13.51555525730594, "labeledLatLngs": [{"label": "display", "lat": 52.46216875994742, "lng": 13.51555525730594}], "distance": 874, "postalCode": "12459", "cc": "DE", "city": "Berlin", "state": "Berlin", "country": "Deutschland", "formattedAddress": ["Wilhelminenhofstr. 17", "12459 Berlin", "Deutschland"]}, "categories": [{"id": "4bf58dd8d48988d16a941735", "name": "Bakery", "pluralName": "Bakeries", "shortName": "Bakery", "icon": {"prefix": "https://ss3.4sqi.net/img/categories_v2/food/bakery_", "suffix": ".png"}, "primary": true}], "photos": {"count": 0, "groups": []}}, "referralId": "e-0-52d7a2a2498e2d82c4c5a744-5"}, {"reasons": {"count": 0, "items": [{"summary": "This spot is popular", "type": "general", "reasonName": "globalInteractionReason"}]}, "venue": {"id": "53be9d9a498e22ea93742e0f", "name": "Lecker Burger", "location": {"address": "Wilhelminenenhifstr. 83-85", "lat": 52.461605575631545, "lng": 13.517054681380504, "labeledLatLngs": [{"label": "display", "lat": 52.461605575631545, "lng": 13.517054681380504}], "distance": 814, "postalCode": "12459", "cc": "DE", "city": "Berlin", "state": "Berlin", "country": "Deutschland", "formattedAddress": ["Wilhelminenenhifstr. 83-85", "12459 Berlin", "Deutschland"]}, "categories": [{"id": "4bf58dd8d48988d16c941735", "name": "Burger Joint", "pluralName": "Burger Joints", "shortName": "Burgers", "icon": {"prefix": "https://ss3.4sqi.net/img/categories_v2/food/burger_", "suffix": ".png"}, "primary": true}], "photos": {"count": 0, "groups": []}}, "referralId": "e-0-53be9d9a498e22ea93742e0f-6"}, {"reasons": {"count": 0, "items": [{"summary": "This spot is popular", "type": "general", "reasonName": "globalInteractionReason"}]}, "venue": {"id": "59aed9676f0aa256da752a66", "name": "Bobsek Burger", "location": {"address": "Wilhelminenhofstr. 24", "crossStreet": "Reinbeckstr.", "lat": 52.461212, "lng": 13.519009, "labeledLatLngs": [{"label": "display", "lat": 52.461212, "lng": 13.519009}], "distance": 732, "postalCode": "12459", "cc": "DE", "city": "Berlin", "state": "Berlin", "country": "Deutschland", "formattedAddress": ["Wilhelminenhofstr. 24 (Reinbeckstr.)", "12459 Berlin", "Deutschland"]}, "categories": [{"id": "4bf58dd8d48988d16c941735", "name": "Burger Joint", "pluralName": "Burger Joints", "shortName": "Burgers", "icon": {"prefix": "https://ss3.4sqi.net/img/categories_v2/food/burger_", "suffix": ".png"}, "primary": true}], "photos": {"count": 0, "groups": []}}, "referralId": "e-0-59aed9676f0aa256da752a66-7"}, {"reasons": {"count": 0, "items": [{"summary": "This spot is popular", "type": "general", "reasonName": "globalInteractionReason"}]}, "venue": {"id": "4dc6a31d887717c88040bb9a", "name": "Modellpark Berlin-Brandenburg", "location": {"address": "An der Wuhlheide 81", "crossStreet": "Eichgestell", "lat": 52.46788050014081, "lng": 13.527603149414062, "labeledLatLngs": [{"label": "display", "lat": 52.46788050014081, "lng": 13.527603149414062}], "distance": 271, "postalCode": "12459", "cc": "DE", "city": "Berlin", "state": "Berlin", "country": "Deutschland", "formattedAddress": ["An der Wuhlheide 81 (Eichgestell)", "12459 Berlin", "Deutschland"]}, "categories": [{"id": "4bf58dd8d48988d182941735", "name": "Theme Park", "pluralName": "Theme Parks", "shortName": "Theme Park", "icon": {"prefix": "https://ss3.4sqi.net/img/categories_v2/arts_entertainment/themepark_", "suffix": ".png"}, "primary": true}], "photos": {"count": 0, "groups": []}}, "referralId": "e-0-4dc6a31d887717c88040bb9a-8"}, {"reasons": {"count": 0, "items": [{"summary": "This spot is popular", "type": "general", "reasonName": "globalInteractionReason"}]}, "venue": {"id": "5b1136e6628c83002c40e088", "name": "Imbiss Rissani", "location": {"address": "Firlstra\u00dfe 38", "lat": 52.461109, "lng": 13.521332, "labeledLatLngs": [{"label": "display", "lat": 52.461109, "lng": 13.521332}], "distance": 628, "postalCode": "12459", "cc": "DE", "country": "Deutschland", "formattedAddress": ["Firlstra\u00dfe 38", "12459", "Deutschland"]}, "categories": [{"id": "4bf58dd8d48988d10b941735", "name": "Falafel Restaurant", "pluralName": "Falafel Restaurants", "shortName": "Falafel", "icon": {"prefix": "https://ss3.4sqi.net/img/categories_v2/food/falafel_", "suffix": ".png"}, "primary": true}], "photos": {"count": 0, "groups": []}}, "referralId": "e-0-5b1136e6628c83002c40e088-9"}, {"reasons": {"count": 0, "items": [{"summary": "This spot is popular", "type": "general", "reasonName": "globalInteractionReason"}]}, "venue": {"id": "4c2b32ec8ef52d7f3eef30ba", "name": "Sommerbad Wuhlheide", "location": {"address": "Treskowallee 211", "crossStreet": "An der Wuhlheide", "lat": 52.470722186385046, "lng": 13.520655300066673, "labeledLatLngs": [{"label": "display", "lat": 52.470722186385046, "lng": 13.520655300066673}], "distance": 738, "postalCode": "12459", "cc": "DE", "city": "Berlin", "state": "Berlin", "country": "Deutschland", "formattedAddress": ["Treskowallee 211 (An der Wuhlheide)", "12459 Berlin", "Deutschland"]}, "categories": [{"id": "4bf58dd8d48988d15e941735", "name": "Pool", "pluralName": "Pools", "shortName": "Pool", "icon": {"prefix": "https://ss3.4sqi.net/img/categories_v2/parks_outdoors/pool_", "suffix": ".png"}, "primary": true}], "photos": {"count": 0, "groups": []}}, "referralId": "e-0-4c2b32ec8ef52d7f3eef30ba-10"}, {"reasons": {"count": 0, "items": [{"summary": "This spot is popular", "type": "general", "reasonName": "globalInteractionReason"}]}, "venue": {"id": "4ced30d828abb60ce383b609", "name": "Thang Long", "location": {"address": "Wilhelminenhofstr. 32", "lat": 52.46146066939253, "lng": 13.518297056524057, "labeledLatLngs": [{"label": "display", "lat": 52.46146066939253, "lng": 13.518297056524057}], "distance": 753, "postalCode": "12459", "cc": "DE", "city": "Berlin", "state": "Berlin", "country": "Deutschland", "formattedAddress": ["Wilhelminenhofstr. 32", "12459 Berlin", "Deutschland"]}, "categories": [{"id": "4bf58dd8d48988d142941735", "name": "Asian Restaurant", "pluralName": "Asian Restaurants", "shortName": "Asian", "icon": {"prefix": "https://ss3.4sqi.net/img/categories_v2/food/asian_", "suffix": ".png"}, "primary": true}], "photos": {"count": 0, "groups": []}}, "referralId": "e-0-4ced30d828abb60ce383b609-11"}, {"reasons": {"count": 0, "items": [{"summary": "This spot is popular", "type": "general", "reasonName": "globalInteractionReason"}]}, "venue": {"id": "522c58d211d2025fb0467191", "name": "Griechischer Park", "location": {"lat": 52.46398538903117, "lng": 13.519041051839272, "labeledLatLngs": [{"label": "display", "lat": 52.46398538903117, "lng": 13.519041051839272}], "distance": 581, "cc": "DE", "country": "Deutschland", "formattedAddress": ["Deutschland"]}, "categories": [{"id": "4bf58dd8d48988d163941735", "name": "Park", "pluralName": "Parks", "shortName": "Park", "icon": {"prefix": "https://ss3.4sqi.net/img/categories_v2/parks_outdoors/park_", "suffix": ".png"}, "primary": true}], "photos": {"count": 0, "groups": []}}, "referralId": "e-0-522c58d211d2025fb0467191-12"}, {"reasons": {"count": 0, "items": [{"summary": "This spot is popular", "type": "general", "reasonName": "globalInteractionReason"}]}, "venue": {"id": "53a6f7d1498e7989b0bf236b", "name": "Islandpferdezentrum Berlin", "location": {"address": "An der Pferderennbahn", "lat": 52.47121164814423, "lng": 13.529007429980975, "labeledLatLngs": [{"label": "display", "lat": 52.47121164814423, "lng": 13.529007429980975}], "distance": 652, "postalCode": "10318", "cc": "DE", "city": "Berlin", "state": "Berlin", "country": "Deutschland", "formattedAddress": ["An der Pferderennbahn", "10318 Berlin", "Deutschland"]}, "categories": [{"id": "4eb1baf03b7b2c5b1d4306ca", "name": "Stables", "pluralName": "Stables", "shortName": "Stables", "icon": {"prefix": "https://ss3.4sqi.net/img/categories_v2/parks_outdoors/stable_", "suffix": ".png"}, "primary": true}], "photos": {"count": 0, "groups": []}}, "referralId": "e-0-53a6f7d1498e7989b0bf236b-13"}, {"reasons": {"count": 0, "items": [{"summary": "This spot is popular", "type": "general", "reasonName": "globalInteractionReason"}]}, "venue": {"id": "4e1c236d18a8c65001f8be95", "name": "Lidl", "location": {"address": "Wilhelminenhofstr. 83-85", "lat": 52.4614389, "lng": 13.5174632, "labeledLatLngs": [{"label": "display", "lat": 52.4614389, "lng": 13.5174632}], "distance": 800, "postalCode": "12459", "cc": "DE", "city": "Berlin", "state": "Berlin", "country": "Deutschland", "formattedAddress": ["Wilhelminenhofstr. 83-85", "12459 Berlin-Treptow-K\u00f6penick", "Deutschland"]}, "categories": [{"id": "52f2ab2ebcbc57f1066b8b46", "name": "Supermarket", "pluralName": "Supermarkets", "shortName": "Supermarket", "icon": {"prefix": "https://ss3.4sqi.net/img/categories_v2/shops/food_grocery_", "suffix": ".png"}, "primary": true}], "photos": {"count": 0, "groups": []}, "venuePage": {"id": "579578802"}}, "referralId": "e-0-4e1c236d18a8c65001f8be95-14"}, {"reasons": {"count": 0, "items": [{"summary": "This spot is popular", "type": "general", "reasonName": "globalInteractionReason"}]}, "venue": {"id": "520a1c5311d227a4143ae925", "name": "Efes D\u00f6ner", "location": {"address": "Wilhelminenhofstra\u00dfe", "lat": 52.46108288971536, "lng": 13.51984249045561, "labeledLatLngs": [{"label": "display", "lat": 52.46108288971536, "lng": 13.51984249045561}], "distance": 699, "postalCode": "12559", "cc": "DE", "city": "Berlin", "state": "Berlin", "country": "Deutschland", "formattedAddress": ["Wilhelminenhofstra\u00dfe", "12559 Berlin", "Deutschland"]}, "categories": [{"id": "5283c7b4e4b094cb91ec88d8", "name": "Doner Restaurant", "pluralName": "Doner Restaurants", "shortName": "Doner", "icon": {"prefix": "https://ss3.4sqi.net/img/categories_v2/food/turkish_", "suffix": ".png"}, "primary": true}], "photos": {"count": 0, "groups": []}}, "referralId": "e-0-520a1c5311d227a4143ae925-15"}, {"reasons": {"count": 0, "items": [{"summary": "This spot is popular", "type": "general", "reasonName": "globalInteractionReason"}]}, "venue": {"id": "4be29e54d27a20a1d3e88f5b", "name": "H Rathenaustra\u00dfe / HTW", "location": {"address": "Wilhelminenhofstr.", "crossStreet": "Rathenaustr.", "lat": 52.45885121715621, "lng": 13.525812001682743, "labeledLatLngs": [{"label": "display", "lat": 52.45885121715621, "lng": 13.525812001682743}], "distance": 740, "postalCode": "12459", "cc": "DE", "city": "Berlin", "state": "Berlin", "country": "Deutschland", "formattedAddress": ["Wilhelminenhofstr. (Rathenaustr.)", "12459 Berlin", "Deutschland"]}, "categories": [{"id": "52f2ab2ebcbc57f1066b8b51", "name": "Tram Station", "pluralName": "Tram Stations", "shortName": "Tram", "icon": {"prefix": "https://ss3.4sqi.net/img/categories_v2/travel/trainstation_", "suffix": ".png"}, "primary": true}], "photos": {"count": 0, "groups": []}}, "referralId": "e-0-4be29e54d27a20a1d3e88f5b-16"}, {"reasons": {"count": 0, "items": [{"summary": "This spot is popular", "type": "general", "reasonName": "globalInteractionReason"}]}, "venue": {"id": "4f460dade4b0288c75818c45", "name": "Netto Marken-Discount", "location": {"address": "An der Wuhlheide 154", "lat": 52.45932205, "lng": 13.53626009, "labeledLatLngs": [{"label": "display", "lat": 52.45932205, "lng": 13.53626009}], "distance": 914, "postalCode": "12459", "cc": "DE", "city": "Berlin", "state": "Berlin", "country": "Deutschland", "formattedAddress": ["An der Wuhlheide 154", "12459 Berlin", "Deutschland"]}, "categories": [{"id": "52f2ab2ebcbc57f1066b8b46", "name": "Supermarket", "pluralName": "Supermarkets", "shortName": "Supermarket", "icon": {"prefix": "https://ss3.4sqi.net/img/categories_v2/shops/food_grocery_", "suffix": ".png"}, "primary": true}], "photos": {"count": 0, "groups": []}, "venuePage": {"id": "538780487"}}, "referralId": "e-0-4f460dade4b0288c75818c45-17"}, {"reasons": {"count": 0, "items": [{"summary": "This spot is popular", "type": "general", "reasonName": "globalInteractionReason"}]}, "venue": {"id": "507dacbee4b0eb5f048f3469", "name": "H Treskowallee / Volkspark Wuhlheide", "location": {"address": "Treskowallee", "lat": 52.47094907904943, "lng": 13.517029881477356, "labeledLatLngs": [{"label": "display", "lat": 52.47094907904943, "lng": 13.517029881477356}], "distance": 925, "postalCode": "12459", "cc": "DE", "city": "Berlin", "state": "Berlin", "country": "Deutschland", "formattedAddress": ["Treskowallee", "12459 Berlin", "Deutschland"]}, "categories": [{"id": "52f2ab2ebcbc57f1066b8b51", "name": "Tram Station", "pluralName": "Tram Stations", "shortName": "Tram", "icon": {"prefix": "https://ss3.4sqi.net/img/categories_v2/travel/trainstation_", "suffix": ".png"}, "primary": true}], "photos": {"count": 0, "groups": []}}, "referralId": "e-0-507dacbee4b0eb5f048f3469-18"}, {"reasons": {"count": 0, "items": [{"summary": "This spot is popular", "type": "general", "reasonName": "globalInteractionReason"}]}, "venue": {"id": "4eac33f5be7b42d001641f70", "name": "Gl\u00fccksstern", "location": {"address": "Wilhelminenhofstra\u00dfe 17", "lat": 52.46215366998276, "lng": 13.51470023892814, "labeledLatLngs": [{"label": "display", "lat": 52.46215366998276, "lng": 13.51470023892814}], "distance": 927, "postalCode": "12459", "cc": "DE", "city": "Berlin", "state": "Berlin", "country": "Deutschland", "formattedAddress": ["Wilhelminenhofstra\u00dfe 17", "12459 Berlin", "Deutschland"]}, "categories": [{"id": "4bf58dd8d48988d145941735", "name": "Chinese Restaurant", "pluralName": "Chinese Restaurants", "shortName": "Chinese", "icon": {"prefix": "https://ss3.4sqi.net/img/categories_v2/food/asian_", "suffix": ".png"}, "primary": true}], "photos": {"count": 0, "groups": []}}, "referralId": "e-0-4eac33f5be7b42d001641f70-19"}, {"reasons": {"count": 0, "items": [{"summary": "This spot is popular", "type": "general", "reasonName": "globalInteractionReason"}]}, "venue": {"id": "586d3b85c0df76124ed0b1ae", "name": "Ingenieurb\u00fcro Kulke Mess- u. Elektrotechnik", "location": {"address": "Edisonstr. 32", "lat": 52.46774809999999, "lng": 13.51378699999998, "labeledLatLngs": [{"label": "display", "lat": 52.46774809999999, "lng": 13.51378699999998}], "distance": 949, "postalCode": "12459", "cc": "DE", "city": "Berlin", "state": "Berlin", "country": "Deutschland", "formattedAddress": ["Edisonstr. 32", "12459 Berlin", "Deutschland"]}, "categories": [{"id": "5454144b498ec1f095bff2f2", "name": "Construction & Landscaping", "pluralName": "Construction & Landscaping", "shortName": "Construction", "icon": {"prefix": "https://ss3.4sqi.net/img/categories_v2/shops/realestate_", "suffix": ".png"}, "primary": true}], "photos": {"count": 0, "groups": []}, "venuePage": {"id": "383311078"}}, "referralId": "e-0-586d3b85c0df76124ed0b1ae-20"}, {"reasons": {"count": 0, "items": [{"summary": "This spot is popular", "type": "general", "reasonName": "globalInteractionReason"}]}, "venue": {"id": "4e9695380aafdb60e08927f9", "name": "Edison Backshop", "location": {"address": "Edisonstr. 61", "lat": 52.46293241541969, "lng": 13.513779044151306, "labeledLatLngs": [{"label": "display", "lat": 52.46293241541969, "lng": 13.513779044151306}], "distance": 956, "postalCode": "12459", "cc": "DE", "city": "Berlin", "state": "Berlin", "country": "Deutschland", "formattedAddress": ["Edisonstr. 61", "12459 Berlin", "Deutschland"]}, "categories": [{"id": "4bf58dd8d48988d16a941735", "name": "Bakery", "pluralName": "Bakeries", "shortName": "Bakery", "icon": {"prefix": "https://ss3.4sqi.net/img/categories_v2/food/bakery_", "suffix": ".png"}, "primary": true}], "photos": {"count": 0, "groups": []}}, "referralId": "e-0-4e9695380aafdb60e08927f9-21"}, {"reasons": {"count": 0, "items": [{"summary": "This spot is popular", "type": "general", "reasonName": "globalInteractionReason"}]}, "venue": {"id": "4bc6416951b376b046441b6f", "name": "H Rummelsburger Stra\u00dfe / Edisonstra\u00dfe", "location": {"address": "Edisonstr.", "crossStreet": "Rummelsburger Str.", "lat": 52.468025460879, "lng": 13.513689075523159, "labeledLatLngs": [{"label": "display", "lat": 52.468025460879, "lng": 13.513689075523159}], "distance": 964, "postalCode": "12459", "cc": "DE", "city": "Berlin", "state": "Berlin", "country": "Deutschland", "formattedAddress": ["Edisonstr. (Rummelsburger Str.)", "12459 Berlin", "Deutschland"]}, "categories": [{"id": "52f2ab2ebcbc57f1066b8b51", "name": "Tram Station", "pluralName": "Tram Stations", "shortName": "Tram", "icon": {"prefix": "https://ss3.4sqi.net/img/categories_v2/travel/trainstation_", "suffix": ".png"}, "primary": true}], "photos": {"count": 0, "groups": []}}, "referralId": "e-0-4bc6416951b376b046441b6f-22"}, {"reasons": {"count": 0, "items": [{"summary": "This spot is popular", "type": "general", "reasonName": "globalInteractionReason"}]}, "venue": {"id": "52518fae498efba36f03cd70", "name": "Edison Bistro", "location": {"address": "Edisonstr. 36 b", "lat": 52.46738508334826, "lng": 13.513372932405561, "labeledLatLngs": [{"label": "display", "lat": 52.46738508334826, "lng": 13.513372932405561}], "distance": 966, "postalCode": "12459", "cc": "DE", "city": "Berlin", "state": "Berlin", "country": "Deutschland", "formattedAddress": ["Edisonstr. 36 b", "12459 Berlin", "Deutschland"]}, "categories": [{"id": "5283c7b4e4b094cb91ec88d8", "name": "Doner Restaurant", "pluralName": "Doner Restaurants", "shortName": "Doner", "icon": {"prefix": "https://ss3.4sqi.net/img/categories_v2/food/turkish_", "suffix": ".png"}, "primary": true}], "photos": {"count": 0, "groups": []}}, "referralId": "e-0-52518fae498efba36f03cd70-23"}, {"reasons": {"count": 0, "items": [{"summary": "This spot is popular", "type": "general", "reasonName": "globalInteractionReason"}]}, "venue": {"id": "54deb70f498e3c529ad8b51e", "name": "Tabakwaren, Zeitschriften & Lotto Berjawi", "location": {"address": "Edisonstr. 60", "lat": 52.461966852713836, "lng": 13.513851034297339, "labeledLatLngs": [{"label": "display", "lat": 52.461966852713836, "lng": 13.513851034297339}], "distance": 989, "postalCode": "12459", "cc": "DE", "city": "Berlin", "state": "Berlin", "country": "Deutschland", "formattedAddress": ["Edisonstr. 60", "12459 Berlin", "Deutschland"]}, "categories": [{"id": "4bf58dd8d48988d1ff941735", "name": "Miscellaneous Shop", "pluralName": "Miscellaneous Shops", "shortName": "Shop", "icon": {"prefix": "https://ss3.4sqi.net/img/categories_v2/shops/default_", "suffix": ".png"}, "primary": true}], "photos": {"count": 0, "groups": []}}, "referralId": "e-0-54deb70f498e3c529ad8b51e-24"}]