[{"reasons": {"count": 0, "items": [{"summary": "This spot is popular", "type": "general", "reasonName": "globalInteractionReason"}]}, "venue": {"id": "52f689c4498e8ef351cd09a6", "name": "El Pepe", "location": {"address": "Prinzenallee 25", "lat": 52.556840122173, "lng": 13.384965121663809, "labeledLatLngs": [{"label": "display", "lat": 52.556840122173, "lng": 13.384965121663809}], "distance": 196, "postalCode": "13359", "cc": "DE", "neighborhood": "Gesundbrunnen", "city": "Berlin", "state": "Berlin", "country": "Deutschland", "formattedAddress": ["Prinzenallee 25", "13359 Berlin", "Deutschland"]}, "categories": [{"id": "4bf58dd8d48988d1db931735", "name": "Tapas Restaurant", "pluralName": "Tapas Restaurants", "shortName": "Tapas", "icon": {"prefix": "https://ss3.4sqi.net/img/categories_v2/food/tapas_", "suffix": ".png"}, "primary": true}], "photos": {"count": 0, "groups": []}}, "referralId": "e-0-52f689c4498e8ef351cd09a6-0"}, {"reasons": {"count": 0, "items": [{"summary": "This spot is popular", "type": "general", "reasonName": "globalInteractionReason"}]}, "venue": {"id": "599091d54940bc65f08849a7", "name": "Rosa Parks Caf\u00e9", "location": {"address": "Soldiner Str. 32", "lat": 52.559296, "lng": 13.384547, "labeledLatLngs": [{"label": "display", "lat": 52.559296, "lng": 13.384547}], "distance": 153, "postalCode": "13359", "cc": "DE", "city": "Berlin", "state": "Berlin", "country": "Deutschland", "formattedAddress": ["Soldiner Str. 32", "13359 Berlin", "Deutschland"]}, "categories": [{"id": "4bf58dd8d48988d16d941735", "name": "Caf\u00e9", "pluralName": "Caf\u00e9s", "shortName": "Caf\u00e9", "icon": {"prefix": "https://ss3.4sqi.net/img/categories_v2/food/cafe_", "suffix": ".png"}, "primary": true}], "photos": {"count": 0, "groups": []}}, "referralId": "e-0-599091d54940bc65f08849a7-1"}, {"reasons": {"count": 0, "items": [{"summary": "This spot is popular", "type": "general", "reasonName": "globalInteractionReason"}]}, "venue": {"id": "4ce7e1fe948f224bf2caec5d", "name": "Kamine & Wein", "location": {"address": "Prinzenallee 58", "lat": 52.55785545040087, "lng": 13.385553359985352, "labeledLatLngs": [{"label": "display", "lat": 52.55785545040087, "lng": 13.385553359985352}], "distance": 79, "postalCode": "13359", "cc": "DE", "city": "Berlin", "state": "Berlin", "country": "Deutschland", "formattedAddress": ["Prinzenallee 58", "13359 Berlin", "Deutschland"]}, "categories": [{"id": "4bf58dd8d48988d119951735", "name": "Wine Shop", "pluralName": "Wine Shops", "shortName": "Wine Shop", "icon": {"prefix": "https://ss3.4sqi.net/img/categories_v2/shops/food_wineshop_", "suffix": ".png"}, "primary": true}], "photos": {"count": 0, "groups": []}}, "referralId": "e-0-4ce7e1fe948f224bf2caec5d-2"}, {"reasons": {"count": 0, "items": [{"summary": "This spot is popular", "type": "general", "reasonName": "globalInteractionReason"}]}, "venue": {"id": "4ef8e122f9ab2e6683351923", "name": "La fiamma", "location": {"address": "Prinzenallee 72-73", "crossStreet": "Osloer Str.", "lat": 52.555376693704716, "lng": 13.383651962348797, "labeledLatLngs": [{"label": "display", "lat": 52.555376693704716, "lng": 13.383651962348797}], "distance": 382, "cc": "DE", "city": "Berlin", "state": "Berlin", "country": "Deutschland", "formattedAddress": ["Prinzenallee 72-73 (Osloer Str.)", "Berlin", "Deutschland"]}, "categories": [{"id": "4bf58dd8d48988d1c0941735", "name": "Mediterranean Restaurant", "pluralName": "Mediterranean Restaurants", "shortName": "Mediterranean", "icon": {"prefix": "https://ss3.4sqi.net/img/categories_v2/food/mediterranean_", "suffix": ".png"}, "primary": true}], "photos": {"count": 0, "groups": []}}, "referralId": "e-0-4ef8e122f9ab2e6683351923-3"}, {"reasons": {"count": 0, "items": [{"summary": "This spot is popular", "type": "general", "reasonName": "globalInteractionReason"}]}, "venue": {"id": "522b1f9c93cd0d90555440fb", "name": "Hotel Big Mama", "location": {"address": "Koloniestr. 24", "lat": 52.558231724289875, "lng": 13.380219961018554, "labeledLatLngs": [{"label": "display", "lat": 52.558231724289875, "lng": 13.380219961018554}], "distance": 411, "postalCode": "13359", "cc": "DE", "neighborhood": "Gesundbrunnen", "city": "Berlin", "state": "Berlin", "country": "Deutschland", "formattedAddress": ["Koloniestr. 24", "13359 Berlin", "Deutschland"]}, "categories": [{"id": "4bf58dd8d48988d1fa931735", "name": "Hotel", "pluralName": "Hotels", "shortName": "Hotel", "icon": {"prefix": "https://ss3.4sqi.net/img/categories_v2/travel/hotel_", "suffix": ".png"}, "primary": true}], "photos": {"count": 0, "groups": []}}, "referralId": "e-0-522b1f9c93cd0d90555440fb-4"}, {"reasons": {"count": 0, "items": [{"summary": "This spot is popular", "type": "general", "reasonName": "globalInteractionReason"}]}, "venue": {"id": "56ee9427498e8a77df54b26d", "name": "Kakadu", "location": {"address": "Soldiner Str. 13", "lat": 52.557535, "lng": 13.390195, "labeledLatLngs": [{"label": "display", "lat": 52.557535, "lng": 13.390195}], "distance": 282, "postalCode": "13359", "cc": "DE", "city": "Berlin", "state": "Berlin", "country": "Deutschland", "formattedAddress": ["Soldiner Str. 13", "13359 Berlin", "Deutschland"]}, "categories": [{"id": "4bf58dd8d48988d143941735", "name": "Breakfast Spot", "pluralName": "Breakfast Spots", "shortName": "Breakfast", "icon": {"prefix": "https://ss3.4sqi.net/img/categories_v2/food/breakfast_", "suffix": ".png"}, "primary": true}], "photos": {"count": 0, "groups": []}}, "referralId": "e-0-56ee9427498e8a77df54b26d-5"}, {"reasons": {"count": 0, "items": [{"summary": "This spot is popular", "type": "general", "reasonName": "globalInteractionReason"}]}, "venue": {"id": "53e77dac498e03a758e9706b", "name": "Miss Ploff", "location": {"address": "Eulerstr. 9a", "crossStreet": "J\u00fclicher Str.", "lat": 52.55396129013737, "lng": 13.391898244448864, "labeledLatLngs": [{"label": "display", "lat": 52.55396129013737, "lng": 13.391898244448864}], "distance": 624, "postalCode": "13357", "cc": "DE", "city": "Berlin", "state": "Berlin", "country": "Deutschland", "formattedAddress": ["Eulerstr. 9a (J\u00fclicher Str.)", "13357 Berlin", "Deutschland"]}, "categories": [{"id": "4bf58dd8d48988d1e0931735", "name": "Coffee Shop", "pluralName": "Coffee Shops", "shortName": "Coffee Shop", "icon": {"prefix": "https://ss3.4sqi.net/img/categories_v2/food/coffeeshop_", "suffix": ".png"}, "primary": true}], "photos": {"count": 0, "groups": []}, "venuePage": {"id": "168411197"}}, "referralId": "e-0-53e77dac498e03a758e9706b-6"}, {"reasons": {"count": 0, "items": [{"summary": "This spot is popular", "type": "general", "reasonName": "globalInteractionReason"}]}, "venue": {"id": "4d552f17e7f1a1cd9c3ff7a4", "name": "Labyrinth Kindermuseum", "location": {"address": "Osloer Str. 12", "lat": 52.556103995068206, "lng": 13.385990841786834, "labeledLatLngs": [{"label": "display", "lat": 52.556103995068206, "lng": 13.385990841786834}], "distance": 258, "postalCode": "13359", "cc": "DE", "city": "Berlin", "state": "Berlin", "country": "Deutschland", "formattedAddress": ["Osloer Str. 12", "13359 Berlin", "Deutschland"]}, "categories": [{"id": "5744ccdfe4b0c0459246b4b5", "name": "Indoor Play Area", "pluralName": "Indoor Play Areas", "shortName": "Indoor Play Area", "icon": {"prefix": "https://ss3.4sqi.net/img/categories_v2/parks_outdoors/playground_", "suffix": ".png"}, "primary": true}], "photos": {"count": 0, "groups": []}}, "referralId": "e-0-4d552f17e7f1a1cd9c3ff7a4-7"}, {"reasons": {"count": 0, "items": [{"summary": "This spot is popular", "type": "general", "reasonName": "globalInteractionReason"}]}, "venue": {"id": "4beb27466295c9b6ce5c8708", "name": "Offside", "location": {"address": "J\u00fclicher Str. 4", "lat": 52.55326874947898, "lng": 13.39186254357669, "labeledLatLngs": [{"label": "display", "lat": 52.55326874947898, "lng": 13.39186254357669}], "distance": 686, "postalCode": "13357", "cc": "DE", "city": "Berlin", "state": "Berlin", "country": "Deutschland", "formattedAddress": ["J\u00fclicher Str. 4", "13357 Berlin", "Deutschland"]}, "categories": [{"id": "4bf58dd8d48988d122941735", "name": "Whisky Bar", "pluralName": "Whisky Bars", "shortName": "Whisky Bar", "icon": {"prefix": "https://ss3.4sqi.net/img/categories_v2/nightlife/whiskey_", "suffix": ".png"}, "primary": true}], "photos": {"count": 0, "groups": []}}, "referralId": "e-0-4beb27466295c9b6ce5c8708-8"}, {"reasons": {"count": 0, "items": [{"summary": "This spot is popular", "type": "general", "reasonName": "globalInteractionReason"}]}, "venue": {"id": "57092132498eaefd5f87a3d3", "name": "\u00d6rnek Lahmacun Evi", "location": {"address": "Prinzenallee 80-82", "lat": 52.554150873417804, "lng": 13.38297739462506, "labeledLatLngs": [{"label": "display", "lat": 52.554150873417804, "lng": 13.38297739462506}], "distance": 525, "postalCode": "13357", "cc": "DE", "city": "Berlin", "state": "Berlin", "country": "Deutschland", "formattedAddress": ["Prinzenallee 80-82", "13357 Berlin", "Deutschland"]}, "categories": [{"id": "530faca9bcbc57f1066bc2f2", "name": "Pide Place", "pluralName": "Pide Places", "shortName": "Pide", "icon": {"prefix": "https://ss3.4sqi.net/img/categories_v2/food/turkish_", "suffix": ".png"}, "primary": true}], "photos": {"count": 0, "groups": []}}, "referralId": "e-0-57092132498eaefd5f87a3d3-9"}, {"reasons": {"count": 0, "items": [{"summary": "This spot is popular", "type": "general", "reasonName": "globalInteractionReason"}]}, "venue": {"id": "4bb3418214cfd13a13c615ab", "name": "Curry & Chili", "location": {"address": "Osloer Str. 109", "crossStreet": "Prinzenallee", "lat": 52.5559099978985, "lng": 13.383992238345447, "labeledLatLngs": [{"label": "display", "lat": 52.5559099978985, "lng": 13.383992238345447}], "distance": 319, "postalCode": "13359", "cc": "DE", "city": "Berlin", "state": "Berlin", "country": "Deutschland", "formattedAddress": ["Osloer Str. 109 (Prinzenallee)", "13359 Berlin", "Deutschland"]}, "categories": [{"id": "4bf58dd8d48988d1c7941735", "name": "Snack Place", "pluralName": "Snack Places", "shortName": "Snacks", "icon": {"prefix": "https://ss3.4sqi.net/img/categories_v2/food/snacks_", "suffix": ".png"}, "primary": true}], "photos": {"count": 0, "groups": []}, "venuePage": {"id": "34313827"}}, "referralId": "e-0-4bb3418214cfd13a13c615ab-10"}, {"reasons": {"count": 0, "items": [{"summary": "This spot is popular", "type": "general", "reasonName": "globalInteractionReason"}]}, "venue": {"id": "55e2ec42498eae67c1bc4d32", "name": "Dilekerei", "location": {"address": "Eulerstr.11b", "crossStreet": "J\u00fclicher Stra\u00dfe", "lat": 52.554024, "lng": 13.3915615, "labeledLatLngs": [{"label": "display", "lat": 52.554024, "lng": 13.3915615}], "distance": 605, "postalCode": "13357", "cc": "DE", "neighborhood": "Gesundbrunnen", "city": "Berlin", "state": "Berlin", "country": "Deutschland", "formattedAddress": ["Eulerstr.11b (J\u00fclicher Stra\u00dfe)", "13357 Berlin", "Deutschland"]}, "categories": [{"id": "4bf58dd8d48988d16d941735", "name": "Caf\u00e9", "pluralName": "Caf\u00e9s", "shortName": "Caf\u00e9", "icon": {"prefix": "https://ss3.4sqi.net/img/categories_v2/food/cafe_", "suffix": ".png"}, "primary": true}], "photos": {"count": 0, "groups": []}, "venuePage": {"id": "138669046"}}, "referralId": "e-0-55e2ec42498eae67c1bc4d32-11"}, {"reasons": {"count": 0, "items": [{"summary": "This spot is popular", "type": "general", "reasonName": "globalInteractionReason"}]}, "venue": {"id": "4edb46bef5b9213989b884ee", "name": "Kugelbahn Wedding", "location": {"address": "Gr\u00fcntaler Stra\u00dfe 51", "lat": 52.55735654907218, "lng": 13.395629377695531, "labeledLatLngs": [{"label": "display", "lat": 52.55735654907218, "lng": 13.395629377695531}], "distance": 643, "postalCode": "13359", "cc": "DE", "city": "Berlin", "state": "Berlin", "country": "Deutschland", "formattedAddress": ["Gr\u00fcntaler Stra\u00dfe 51", "13359 Berlin", "Deutschland"]}, "categories": [{"id": "4bf58dd8d48988d171941735", "name": "Event Space", "pluralName": "Event Spaces", "shortName": "Event Space", "icon": {"prefix": "https://ss3.4sqi.net/img/categories_v2/building/eventspace_", "suffix": ".png"}, "primary": true}], "photos": {"count": 0, "groups": []}}, "referralId": "e-0-4edb46bef5b9213989b884ee-12"}, {"reasons": {"count": 0, "items": [{"summary": "This spot is popular", "type": "general", "reasonName": "globalInteractionReason"}]}, "venue": {"id": "535023b4498e2fd3be89d33d", "name": "DaGiorgio's", "location": {"address": "Gr\u00fcntaler Str. 11", "lat": 52.55233367160287, "lng": 13.386915693844443, "labeledLatLngs": [{"label": "display", "lat": 52.55233367160287, "lng": 13.386915693844443}], "distance": 678, "postalCode": "13357", "cc": "DE", "neighborhood": "Gesundbrunnen", "city": "Berlin", "state": "Berlin", "country": "Deutschland", "formattedAddress": ["Gr\u00fcntaler Str. 11", "13357 Berlin", "Deutschland"]}, "categories": [{"id": "4bf58dd8d48988d110941735", "name": "Italian Restaurant", "pluralName": "Italian Restaurants", "shortName": "Italian", "icon": {"prefix": "https://ss3.4sqi.net/img/categories_v2/food/italian_", "suffix": ".png"}, "primary": true}], "photos": {"count": 0, "groups": []}}, "referralId": "e-0-535023b4498e2fd3be89d33d-13"}, {"reasons": {"count": 0, "items": [{"summary": "This spot is popular", "type": "general", "reasonName": "globalInteractionReason"}]}, "venue": {"id": "4b705ad5f964a520d6142de3", "name": "Shalimar Restaurant", "location": {"address": "Bellermannstr. 17 A", "lat": 52.5523345102005, "lng": 13.387930512604543, "labeledLatLngs": [{"label": "display", "lat": 52.5523345102005, "lng": 13.387930512604543}], "distance": 686, "postalCode": "13357", "cc": "DE", "city": "Berlin", "state": "Berlin", "country": "Deutschland", "formattedAddress": ["Bellermannstr. 17 A", "13357 Berlin", "Deutschland"]}, "categories": [{"id": "52e81612bcbc57f1066b79f8", "name": "Pakistani Restaurant", "pluralName": "Pakistani Restaurants", "shortName": "Pakistani", "icon": {"prefix": "https://ss3.4sqi.net/img/categories_v2/food/default_", "suffix": ".png"}, "primary": true}], "photos": {"count": 0, "groups": []}, "venuePage": {"id": "149172102"}}, "referralId": "e-0-4b705ad5f964a520d6142de3-14"}, {"reasons": {"count": 0, "items": [{"summary": "This spot is popular", "type": "general", "reasonName": "globalInteractionReason"}]}, "venue": {"id": "4d603686ef378cfa048d7aa6", "name": "F-Bar", "location": {"address": "Gr\u00fcntaler Str. 9", "lat": 52.55190846583408, "lng": 13.386492881397304, "labeledLatLngs": [{"label": "display", "lat": 52.55190846583408, "lng": 13.386492881397304}], "distance": 724, "postalCode": "13357", "cc": "DE", "city": "Berlin", "state": "Berlin", "country": "Deutschland", "formattedAddress": ["Gr\u00fcntaler Str. 9", "13357 Berlin", "Deutschland"]}, "categories": [{"id": "4bf58dd8d48988d118941735", "name": "Dive Bar", "pluralName": "Dive Bars", "shortName": "Dive Bar", "icon": {"prefix": "https://ss3.4sqi.net/img/categories_v2/nightlife/divebar_", "suffix": ".png"}, "primary": true}], "photos": {"count": 0, "groups": []}}, "referralId": "e-0-4d603686ef378cfa048d7aa6-15"}, {"reasons": {"count": 0, "items": [{"summary": "This spot is popular", "type": "general", "reasonName": "globalInteractionReason"}]}, "venue": {"id": "514e02b7e4b0c56a35535ff0", "name": "Il Milanese del Tacco", "location": {"address": "Stettiner Str. 63", "lat": 52.5517715972638, "lng": 13.3841072406509, "labeledLatLngs": [{"label": "display", "lat": 52.5517715972638, "lng": 13.3841072406509}], "distance": 754, "postalCode": "13357", "cc": "DE", "city": "Berlin", "state": "Berlin", "country": "Deutschland", "formattedAddress": ["Stettiner Str. 63", "13357 Berlin", "Deutschland"]}, "categories": [{"id": "4bf58dd8d48988d1f5941735", "name": "Gourmet Shop", "pluralName": "Gourmet Shops", "shortName": "Gourmet", "icon": {"prefix": "https://ss3.4sqi.net/img/categories_v2/shops/food_gourmet_", "suffix": ".png"}, "primary": true}], "photos": {"count": 0, "groups": []}}, "referralId": "e-0-514e02b7e4b0c56a35535ff0-16"}, {"reasons": {"count": 0, "items": [{"summary": "This spot is popular", "type": "general", "reasonName": "globalInteractionReason"}]}, "venue": {"id": "5464f565498e19366a337faa", "name": "Kunstgalerie Wilma", "location": {"address": "Badstr. 38", "lat": 52.55325655862451, "lng": 13.378619336219222, "labeledLatLngs": [{"label": "display", "lat": 52.55325655862451, "lng": 13.378619336219222}], "distance": 774, "postalCode": "13357", "cc": "DE", "neighborhood": "Gesundbrunnen", "city": "Berlin", "state": "Berlin", "country": "Deutschland", "formattedAddress": ["Badstr. 38", "13357 Berlin", "Deutschland"]}, "categories": [{"id": "4bf58dd8d48988d116941735", "name": "Bar", "pluralName": "Bars", "shortName": "Bar", "icon": {"prefix": "https://ss3.4sqi.net/img/categories_v2/nightlife/pub_", "suffix": ".png"}, "primary": true}], "photos": {"count": 0, "groups": []}}, "referralId": "e-0-5464f565498e19366a337faa-17"}, {"reasons": {"count": 0, "items": [{"summary": "This spot is popular", "type": "general", "reasonName": "globalInteractionReason"}]}, "venue": {"id": "520551cf11d28a4dafc96f5b", "name": "Oh! Calcutta", "location": {"address": "Koloniestr. 9", "lat": 52.555256691839574, "lng": 13.377172817765558, "labeledLatLngs": [{"label": "display", "lat": 52.555256691839574, "lng": 13.377172817765558}], "distance": 710, "postalCode": "13357", "cc": "DE", "city": "Berlin", "state": "Berlin", "country": "Deutschland", "formattedAddress": ["Koloniestr. 9", "13357 Berlin", "Deutschland"]}, "categories": [{"id": "4bf58dd8d48988d116941735", "name": "Bar", "pluralName": "Bars", "shortName": "Bar", "icon": {"prefix": "https://ss3.4sqi.net/img/categories_v2/nightlife/pub_", "suffix": ".png"}, "primary": true}], "photos": {"count": 0, "groups": []}}, "referralId": "e-0-520551cf11d28a4dafc96f5b-18"}, {"reasons": {"count": 0, "items": [{"summary": "This spot is popular", "type": "general", "reasonName": "globalInteractionReason"}]}, "venue": {"id": "5998a5312bf9a935d42e38ee", "name": "Y\u00f6re G\u00f6zleme ve Manti Evi", "location": {"address": "Prinzenallee 7", "lat": 52.553261, "lng": 13.382469, "labeledLatLngs": [{"label": "display", "lat": 52.553261, "lng": 13.382469}], "distance": 629, "postalCode": "13357", "cc": "DE", "city": "Berlin", "state": "Berlin", "country": "Deutschland", "formattedAddress": ["Prinzenallee 7", "13357 Berlin", "Deutschland"]}, "categories": [{"id": "4f04af1f2fb6e1c99f3db0bb", "name": "Turkish Restaurant", "pluralName": "Turkish Restaurants", "shortName": "Turkish", "icon": {"prefix": "https://ss3.4sqi.net/img/categories_v2/food/turkish_", "suffix": ".png"}, "primary": true}], "photos": {"count": 0, "groups": []}, "venuePage": {"id": "588151197"}}, "referralId": "e-0-5998a5312bf9a935d42e38ee-19"}, {"reasons": {"count": 0, "items": [{"summary": "This spot is popular", "type": "general", "reasonName": "globalInteractionReason"}]}, "venue": {"id": "53491e40498e1fa85ec541c9", "name": "Kirschbl\u00fctenweg", "location": {"address": "Bornhomer Str.", "crossStreet": "Esplanade", "lat": 52.555886, "lng": 13.398573, "labeledLatLngs": [{"label": "display", "lat": 52.555886, "lng": 13.398573}], "distance": 877, "postalCode": "13187", "cc": "DE", "city": "Berlin", "state": "Berlin", "country": "Deutschland", "formattedAddress": ["Bornhomer Str. (Esplanade)", "13187 Berlin", "Deutschland"]}, "categories": [{"id": "4bf58dd8d48988d159941735", "name": "Trail", "pluralName": "Trails", "shortName": "Trail", "icon": {"prefix": "https://ss3.4sqi.net/img/categories_v2/parks_outdoors/hikingtrail_", "suffix": ".png"}, "primary": true}], "photos": {"count": 0, "groups": []}}, "referralId": "e-0-53491e40498e1fa85ec541c9-20"}, {"reasons": {"count": 0, "items": [{"summary": "This spot is popular", "type": "general", "reasonName": "globalInteractionReason"}]}, "venue": {"id": "5609736b498e62a807c00e49", "name": "akko restaurant", "location": {"lat": 52.551968980590004, "lng": 13.381105642328357, "labeledLatLngs": [{"label": "display", "lat": 52.551968980590004, "lng": 13.381105642328357}], "distance": 798, "cc": "DE", "city": "Berlin", "state": "Berlin", "country": "Deutschland", "formattedAddress": ["Berlin", "Deutschland"]}, "categories": [{"id": "52e81612bcbc57f1066b79ff", "name": "Halal Restaurant", "pluralName": "Halal Restaurants", "shortName": "Halal", "icon": {"prefix": "https://ss3.4sqi.net/img/categories_v2/food/halal_", "suffix": ".png"}, "primary": true}], "photos": {"count": 0, "groups": []}}, "referralId": "e-0-5609736b498e62a807c00e49-21"}, {"reasons": {"count": 0, "items": [{"summary": "This spot is popular", "type": "general", "reasonName": "globalInteractionReason"}]}, "venue": {"id": "4da9e51793a04642f0729f95", "name": "Uferstudios", "location": {"address": "Uferstr. 8/23", "lat": 52.552544086019324, "lng": 13.375853908593722, "labeledLatLngs": [{"label": "display", "lat": 52.552544086019324, "lng": 13.375853908593722}], "distance": 962, "postalCode": "13357", "cc": "DE", "city": "Berlin", "state": "Berlin", "country": "Deutschland", "formattedAddress": ["Uferstr. 8/23", "13357 Berlin", "Deutschland"]}, "categories": [{"id": "4bf58dd8d48988d134941735", "name": "Dance Studio", "pluralName": "Dance Studios", "shortName": "Dance Studio", "icon": {"prefix": "https://ss3.4sqi.net/img/categories_v2/arts_entertainment/performingarts_dancestudio_", "suffix": ".png"}, "primary": true}], "photos": {"count": 0, "groups": []}}, "referralId": "e-0-4da9e51793a04642f0729f95-22"}, {"reasons": {"count": 0, "items": [{"summary": "This spot is popular", "type": "general", "reasonName": "globalInteractionReason"}]}, "venue": {"id": "50193612e4b082c7af266286", "name": "Nezha", "location": {"address": "Badstr. 57", "lat": 52.55173227341282, "lng": 13.382649239435922, "labeledLatLngs": [{"label": "display", "lat": 52.55173227341282, "lng": 13.382649239435922}], "distance": 783, "postalCode": "13357", "cc": "DE", "neighborhood": "Humboldthain", "city": "Berlin", "state": "Berlin", "country": "Deutschland", "formattedAddress": ["Badstr. 57", "13357 Berlin", "Deutschland"]}, "categories": [{"id": "5bae9231bedf3950379f89da", "name": "Syrian Restaurant", "pluralName": "Syrian Restaurants", "shortName": "Syrian Restaurant", "icon": {"prefix": "https://ss3.4sqi.net/img/categories_v2/food/middleeastern_", "suffix": ".png"}, "primary": true}], "photos": {"count": 0, "groups": []}}, "referralId": "e-0-50193612e4b082c7af266286-23"}, {"reasons": {"count": 0, "items": [{"summary": "This spot is popular", "type": "general", "reasonName": "globalInteractionReason"}]}, "venue": {"id": "5a2ff88f9e0d540b973be09b", "name": "REWE Center", "location": {"address": "Badstr. 4", "lat": 52.54975087, "lng": 13.38744469, "labeledLatLngs": [{"label": "display", "lat": 52.54975087, "lng": 13.38744469}], "distance": 967, "postalCode": "13357", "cc": "DE", "neighborhood": "Gesundbrunnen", "city": "Berlin", "state": "Berlin", "country": "Deutschland", "formattedAddress": ["Badstr. 4", "13357 Berlin", "Deutschland"]}, "categories": [{"id": "52f2ab2ebcbc57f1066b8b46", "name": "Supermarket", "pluralName": "Supermarkets", "shortName": "Supermarket", "icon": {"prefix": "https://ss3.4sqi.net/img/categories_v2/shops/food_grocery_", "suffix": ".png"}, "primary": true}], "photos": {"count": 0, "groups": []}, "venuePage": {"id": "558605352"}}, "referralId": "e-0-5a2ff88f9e0d540b973be09b-24"}, {"reasons": {"count": 0, "items": [{"summary": "This spot is popular", "type": "general", "reasonName": "globalInteractionReason"}]}, "venue": {"id": "5aa1a45b72475052b099e7b1", "name": "MOXY Berlin Humboldthain Park", "location": {"address": "Hochstr. 2", "lat": 52.549568249587495, "lng": 13.384071431974007, "labeledLatLngs": [{"label": "display", "lat": 52.549568249587495, "lng": 13.384071431974007}], "distance": 996, "postalCode": "13357", "cc": "DE", "city": "Berlin", "state": "Berlin", "country": "Deutschland", "formattedAddress": ["Hochstr. 2", "13357 Berlin", "Deutschland"]}, "categories": [{"id": "4bf58dd8d48988d1fa931735", "name": "Hotel", "pluralName": "Hotels", "shortName": "Hotel", "icon": {"prefix": "https://ss3.4sqi.net/img/categories_v2/travel/hotel_", "suffix": ".png"}, "primary": true}], "photos": {"count": 0, "groups": []}}, "referralId": "e-0-5aa1a45b72475052b099e7b1-25"}, {"reasons": {"count": 0, "items": [{"summary": "This spot is popular", "type": "general", "reasonName": "globalInteractionReason"}]}, "venue": {"id": "4f3fdcd4e4b045d4ecba4da3", "name": "Imren Grill", "location": {"address": "Badstra\u00dfe 46", "lat": 52.55267626958907, "lng": 13.379352925571062, "labeledLatLngs": [{"label": "display", "lat": 52.55267626958907, "lng": 13.379352925571062}], "distance": 792, "postalCode": "13357", "cc": "DE", "city": "Berlin", "state": "Berlin", "country": "Deutschland", "formattedAddress": ["Badstra\u00dfe 46", "13357 Berlin", "Deutschland"]}, "categories": [{"id": "4f04af1f2fb6e1c99f3db0bb", "name": "Turkish Restaurant", "pluralName": "Turkish Restaurants", "shortName": "Turkish", "icon": {"prefix": "https://ss3.4sqi.net/img/categories_v2/food/turkish_", "suffix": ".png"}, "primary": true}], "photos": {"count": 0, "groups": []}}, "referralId": "e-0-4f3fdcd4e4b045d4ecba4da3-26"}, {"reasons": {"count": 0, "items": [{"summary": "This spot is popular", "type": "general", "reasonName": "globalInteractionReason"}]}, "venue": {"id": "4b8d0776f964a520f1e432e3", "name": "La Femme", "location": {"address": "Badstr. 67", "crossStreet": "Hochstr.", "lat": 52.5501068352242, "lng": 13.385303814583947, "labeledLatLngs": [{"label": "display", "lat": 52.5501068352242, "lng": 13.385303814583947}], "distance": 927, "postalCode": "13357", "cc": "DE", "city": "Berlin", "state": "Berlin", "country": "Deutschland", "formattedAddress": ["Badstr. 67 (Hochstr.)", "13357 Berlin", "Deutschland"]}, "categories": [{"id": "4bf58dd8d48988d143941735", "name": "Breakfast Spot", "pluralName": "Breakfast Spots", "shortName": "Breakfast", "icon": {"prefix": "https://ss3.4sqi.net/img/categories_v2/food/breakfast_", "suffix": ".png"}, "primary": true}], "photos": {"count": 0, "groups": []}}, "referralId": "e-0-4b8d0776f964a520f1e432e3-27"}, {"reasons": {"count": 0, "items": [{"summary": "This spot is popular", "type": "general", "reasonName": "globalInteractionReason"}]}, "venue": {"id": "55682d59498efaa3cd2b0f0c", "name": "Hostelo Berlin", "location": {"address": "J\u00fclicher Str. 14", "crossStreet": "Behmstr.", "lat": 52.55045176738218, "lng": 13.39151534555728, "labeledLatLngs": [{"label": "display", "lat": 52.55045176738218, "lng": 13.39151534555728}], "distance": 954, "postalCode": "13357", "cc": "DE", "city": "Berlin", "state": "Berlin", "country": "Deutschland", "formattedAddress": ["J\u00fclicher Str. 14 (Behmstr.)", "13357 Berlin", "Deutschland"]}, "categories": [{"id": "4bf58dd8d48988d1ee931735", "name": "Hostel", "pluralName": "Hostels", "shortName": "Hostel", "icon": {"prefix": "https://ss3.4sqi.net/img/categories_v2/travel/hostel_", "suffix": ".png"}, "primary": true}], "photos": {"count": 0, "groups": []}}, "referralId": "e-0-55682d59498efaa3cd2b0f0c-28"}, {"reasons": {"count": 0, "items": [{"summary": "This spot is popular", "type": "general", "reasonName": "globalInteractionReason"}]}, "venue": {"id": "4e72d880196b52816e04af8b", "name": "Studio8", "location": {"address": "Gr\u00fcntaler Str. 8", "lat": 52.55192522392607, "lng": 13.386392184944087, "labeledLatLngs": [{"label": "display", "lat": 52.55192522392607, "lng": 13.386392184944087}], "distance": 722, "postalCode": "13357", "cc": "DE", "city": "Berlin", "state": "Berlin", "country": "Deutschland", "formattedAddress": ["Gr\u00fcntaler Str. 8", "13357 Berlin", "Deutschland"]}, "categories": [{"id": "4bf58dd8d48988d116941735", "name": "Bar", "pluralName": "Bars", "shortName": "Bar", "icon": {"prefix": "https://ss3.4sqi.net/img/categories_v2/nightlife/pub_", "suffix": ".png"}, "primary": true}], "photos": {"count": 0, "groups": []}}, "referralId": "e-0-4e72d880196b52816e04af8b-29"}, {"reasons": {"count": 0, "items": [{"summary": "This spot is popular", "type": "general", "reasonName": "globalInteractionReason"}]}, "venue": {"id": "5881ff429e35d36f2ec53eef", "name": "KRAL Pizza", "location": {"address": "Osloer Stra\u00dfe", "crossStreet": "Schwedenstra\u00dfe", "lat": 52.55711175255375, "lng": 13.373124040077393, "labeledLatLngs": [{"label": "display", "lat": 52.55711175255375, "lng": 13.373124040077393}], "distance": 902, "postalCode": "13357", "cc": "DE", "city": "Berlin", "state": "Berlin", "country": "Deutschland", "formattedAddress": ["Osloer Stra\u00dfe (Schwedenstra\u00dfe)", "13357 Berlin", "Deutschland"]}, "categories": [{"id": "4bf58dd8d48988d1ca941735", "name": "Pizza Place", "pluralName": "Pizza Places", "shortName": "Pizza", "icon": {"prefix": "https://ss3.4sqi.net/img/categories_v2/food/pizza_", "suffix": ".png"}, "primary": true}], "photos": {"count": 0, "groups": []}}, "referralId": "e-0-5881ff429e35d36f2ec53eef-30"}, {"reasons": {"count": 0, "items": [{"summary": "This spot is popular", "type": "general", "reasonName": "globalInteractionReason"}]}, "venue": {"id": "4b190ab4f964a52061d723e3", "name": "Sofra Grill", "location": {"address": "Bellermannstr. 99", "lat": 52.5551441093418, "lng": 13.383966718741458, "labeledLatLngs": [{"label": "display", "lat": 52.5551441093418, "lng": 13.383966718741458}], "distance": 396, "postalCode": "13357", "cc": "DE", "city": "Berlin", "state": "Berlin", "country": "Deutschland", "formattedAddress": ["Bellermannstr. 99", "13357 Berlin", "Deutschland"]}, "categories": [{"id": "4f04af1f2fb6e1c99f3db0bb", "name": "Turkish Restaurant", "pluralName": "Turkish Restaurants", "shortName": "Turkish", "icon": {"prefix": "https://ss3.4sqi.net/img/categories_v2/food/turkish_", "suffix": ".png"}, "primary": true}], "photos": {"count": 0, "groups": []}}, "referralId": "e-0-4b190ab4f964a52061d723e3-31"}, {"reasons": {"count": 0, "items": [{"summary": "This spot is popular", "type": "general", "reasonName": "globalInteractionReason"}]}, "venue": {"id": "4cc2c13238aaa093cf210862", "name": "eurogida", "location": {"address": "Badstr. 9", "lat": 52.55006093628966, "lng": 13.385788515861455, "labeledLatLngs": [{"label": "display", "lat": 52.55006093628966, "lng": 13.385788515861455}], "distance": 930, "postalCode": "13357", "cc": "DE", "city": "Berlin", "state": "Berlin", "country": "Deutschland", "formattedAddress": ["Badstr. 9", "13357 Berlin", "Deutschland"]}, "categories": [{"id": "4bf58dd8d48988d118951735", "name": "Grocery Store", "pluralName": "Grocery Stores", "shortName": "Grocery Store", "icon": {"prefix": "https://ss3.4sqi.net/img/categories_v2/shops/food_grocery_", "suffix": ".png"}, "primary": true}], "photos": {"count": 0, "groups": []}}, "referralId": "e-0-4cc2c13238aaa093cf210862-32"}, {"reasons": {"count": 0, "items": [{"summary": "This spot is popular", "type": "general", "reasonName": "globalInteractionReason"}]}, "venue": {"id": "5076e415e4b062c08658b4d5", "name": "dm-drogerie markt", "location": {"address": "Badstra\u00dfe 16", "crossStreet": "Stettiner Stra\u00dfe", "lat": 52.55138510725133, "lng": 13.384346999999934, "labeledLatLngs": [{"label": "display", "lat": 52.55138510725133, "lng": 13.384346999999934}], "distance": 793, "postalCode": "13357", "cc": "DE", "city": "Berlin", "state": "Berlin", "country": "Deutschland", "formattedAddress": ["Badstra\u00dfe 16 (Stettiner Stra\u00dfe)", "13357 Berlin", "Deutschland"]}, "categories": [{"id": "5745c2e4498e11e7bccabdbd", "name": "Drugstore", "pluralName": "Drugstores", "shortName": "Drugstore", "icon": {"prefix": "https://ss3.4sqi.net/img/categories_v2/shops/pharmacy_", "suffix": ".png"}, "primary": true}], "photos": {"count": 0, "groups": []}, "venuePage": {"id": "451531665"}}, "referralId": "e-0-5076e415e4b062c08658b4d5-33"}, {"reasons": {"count": 0, "items": [{"summary": "This spot is popular", "type": "general", "reasonName": "globalInteractionReason"}]}, "venue": {"id": "5133921fe4b0fb518a15861e", "name": "Platz des 9. November 1989", "location": {"address": "Platz des 9. November 1989", "lat": 52.55484046427757, "lng": 13.399666307309772, "labeledLatLngs": [{"label": "display", "lat": 52.55484046427757, "lng": 13.399666307309772}], "distance": 989, "postalCode": "10439", "cc": "DE", "city": "Berlin", "state": "Berlin", "country": "Deutschland", "formattedAddress": ["Platz des 9. November 1989", "10439 Berlin", "Deutschland"]}, "categories": [{"id": "4bf58dd8d48988d164941735", "name": "Plaza", "pluralName": "Plazas", "shortName": "Plaza", "icon": {"prefix": "https://ss3.4sqi.net/img/categories_v2/parks_outdoors/plaza_", "suffix": ".png"}, "primary": true}], "photos": {"count": 0, "groups": []}}, "referralId": "e-0-5133921fe4b0fb518a15861e-34"}, {"reasons": {"count": 0, "items": [{"summary": "This spot is popular", "type": "general", "reasonName": "globalInteractionReason"}]}, "venue": {"id": "4df7975e1f6e94c2c7802617", "name": "Hakiki Station D\u00f6ner", "location": {"address": "Troms\u00f6er Str. 8", "lat": 52.55733292224641, "lng": 13.373353021172436, "labeledLatLngs": [{"label": "display", "lat": 52.55733292224641, "lng": 13.373353021172436}], "distance": 883, "postalCode": "13359", "cc": "DE", "city": "Berlin", "state": "Berlin", "country": "Deutschland", "formattedAddress": ["Troms\u00f6er Str. 8", "13359 Berlin", "Deutschland"]}, "categories": [{"id": "5283c7b4e4b094cb91ec88d8", "name": "Doner Restaurant", "pluralName": "Doner Restaurants", "shortName": "Doner", "icon": {"prefix": "https://ss3.4sqi.net/img/categories_v2/food/turkish_", "suffix": ".png"}, "primary": true}], "photos": {"count": 0, "groups": []}}, "referralId": "e-0-4df7975e1f6e94c2c7802617-35"}, {"reasons": {"count": 0, "items": [{"summary": "This spot is popular", "type": "general", "reasonName": "globalInteractionReason"}]}, "venue": {"id": "562e8f98498e238e20c076ea", "name": "Lezziz Kuruyemis", "location": {"address": "Bastianstr. 1", "crossStreet": "Badstrasse", "lat": 52.55184, "lng": 13.38195, "labeledLatLngs": [{"label": "display", "lat": 52.55184, "lng": 13.38195}], "distance": 788, "postalCode": "13357", "cc": "DE", "city": "Berlin", "state": "Berlin", "country": "Deutschland", "formattedAddress": ["Bastianstr. 1 (Badstrasse)", "13357 Berlin", "Deutschland"]}, "categories": [{"id": "52f2ab2ebcbc57f1066b8b31", "name": "Chocolate Shop", "pluralName": "Chocolate Shops", "shortName": "Chocolate Shop", "icon": {"prefix": "https://ss3.4sqi.net/img/categories_v2/shops/candystore_", "suffix": ".png"}, "primary": true}], "photos": {"count": 0, "groups": []}, "venuePage": {"id": "578359976"}}, "referralId": "e-0-562e8f98498e238e20c076ea-36"}, {"reasons": {"count": 0, "items": [{"summary": "This spot is popular", "type": "general", "reasonName": "globalInteractionReason"}]}, "venue": {"id": "536bbdb9498e1507574a2214", "name": "Echo B\u00fccher", "location": {"address": "Gr\u00fcntaler Str. 9", "lat": 52.551990072329474, "lng": 13.386620540973405, "labeledLatLngs": [{"label": "display", "lat": 52.551990072329474, "lng": 13.386620540973405}], "distance": 715, "postalCode": "13359", "cc": "DE", "city": "Berlin", "state": "Berlin", "country": "Deutschland", "formattedAddress": ["Gr\u00fcntaler Str. 9", "13359 Berlin", "Deutschland"]}, "categories": [{"id": "4bf58dd8d48988d114951735", "name": "Bookstore", "pluralName": "Bookstores", "shortName": "Bookstore", "icon": {"prefix": "https://ss3.4sqi.net/img/categories_v2/shops/bookstore_", "suffix": ".png"}, "primary": true}], "photos": {"count": 0, "groups": []}}, "referralId": "e-0-536bbdb9498e1507574a2214-37"}, {"reasons": {"count": 0, "items": [{"summary": "This spot is popular", "type": "general", "reasonName": "globalInteractionReason"}]}, "venue": {"id": "4b59fd5af964a5201ca628e3", "name": "Kaufland", "location": {"address": "Residenzstr. 85", "lat": 52.558995968071756, "lng": 13.372915065153602, "labeledLatLngs": [{"label": "display", "lat": 52.558995968071756, "lng": 13.372915065153602}], "distance": 907, "postalCode": "13409", "cc": "DE", "city": "Berlin", "state": "Berlin", "country": "Deutschland", "formattedAddress": ["Residenzstr. 85", "13409 Berlin", "Deutschland"]}, "categories": [{"id": "52f2ab2ebcbc57f1066b8b42", "name": "Big Box Store", "pluralName": "Big Box Stores", "shortName": "Big Box Store", "icon": {"prefix": "https://ss3.4sqi.net/img/categories_v2/shops/default_", "suffix": ".png"}, "primary": true}], "photos": {"count": 0, "groups": []}, "venuePage": {"id": "452816696"}}, "referralId": "e-0-4b59fd5af964a5201ca628e3-38"}, {"reasons": {"count": 0, "items": [{"summary": "This spot is popular", "type": "general", "reasonName": "globalInteractionReason"}]}, "venue": {"id": "578542f1498e900c0a14a470", "name": "Wonder Waffel", "location": {"address": "Gr\u00fcntaler Str. 88", "lat": 52.5508126428986, "lng": 13.384897248801925, "labeledLatLngs": [{"label": "display", "lat": 52.5508126428986, "lng": 13.384897248801925}], "distance": 851, "postalCode": "13557", "cc": "DE", "city": "Berlin", "state": "Berlin", "country": "Deutschland", "formattedAddress": ["Gr\u00fcntaler Str. 88", "13557 Berlin", "Deutschland"]}, "categories": [{"id": "4bf58dd8d48988d1c9941735", "name": "Ice Cream Shop", "pluralName": "Ice Cream Shops", "shortName": "Ice Cream", "icon": {"prefix": "https://ss3.4sqi.net/img/categories_v2/food/icecream_", "suffix": ".png"}, "primary": true}], "photos": {"count": 0, "groups": []}}, "referralId": "e-0-578542f1498e900c0a14a470-39"}, {"reasons": {"count": 0, "items": [{"summary": "This spot is popular", "type": "general", "reasonName": "globalInteractionReason"}]}, "venue": {"id": "535a5628498e9880fbf2c5f4", "name": "Berliner Unterwelten Tour M", "location": {"address": "Badstr.", "crossStreet": "Hochstr.", "lat": 52.54991007838847, "lng": 13.385360240936278, "labeledLatLngs": [{"label": "display", "lat": 52.54991007838847, "lng": 13.385360240936278}], "distance": 949, "postalCode": "13355", "cc": "DE", "city": "Berlin", "state": "Berlin", "country": "Deutschland", "formattedAddress": ["Badstr. (Hochstr.)", "13355 Berlin", "Deutschland"]}, "categories": [{"id": "4bf58dd8d48988d159941735", "name": "Trail", "pluralName": "Trails", "shortName": "Trail", "icon": {"prefix": "https://ss3.4sqi.net/img/categories_v2/parks_outdoors/hikingtrail_", "suffix": ".png"}, "primary": true}], "photos": {"count": 0, "groups": []}}, "referralId": "e-0-535a5628498e9880fbf2c5f4-40"}, {"reasons": {"count": 0, "items": [{"summary": "This spot is popular", "type": "general", "reasonName": "globalInteractionReason"}]}, "venue": {"id": "56c763ddcd10aa917fba5747", "name": "Kater & Goldfisch", "location": {"address": "Exerzierstr. 1", "lat": 52.55349588037809, "lng": 13.376705447538916, "labeledLatLngs": [{"label": "display", "lat": 52.55349588037809, "lng": 13.376705447538916}], "distance": 848, "postalCode": "13357", "cc": "DE", "city": "Berlin", "state": "Berlin", "country": "Deutschland", "formattedAddress": ["Exerzierstr. 1", "13357 Berlin", "Deutschland"]}, "categories": [{"id": "4bf58dd8d48988d16d941735", "name": "Caf\u00e9", "pluralName": "Caf\u00e9s", "shortName": "Caf\u00e9", "icon": {"prefix": "https://ss3.4sqi.net/img/categories_v2/food/cafe_", "suffix": ".png"}, "primary": true}], "photos": {"count": 0, "groups": []}}, "referralId": "e-0-56c763ddcd10aa917fba5747-41"}, {"reasons": {"count": 0, "items": [{"summary": "This spot is popular", "type": "general", "reasonName": "globalInteractionReason"}]}, "venue": {"id": "50d716afe4b028bbd4632847", "name": "Altin Saray", "location": {"address": "Badstr. 21", "lat": 52.551748178699064, "lng": 13.382577163662667, "labeledLatLngs": [{"label": "display", "lat": 52.551748178699064, "lng": 13.382577163662667}], "distance": 783, "postalCode": "13357", "cc": "DE", "neighborhood": "Humboldthain", "city": "Berlin", "state": "Berlin", "country": "Deutschland", "formattedAddress": ["Badstr. 21", "13357 Berlin", "Deutschland"]}, "categories": [{"id": "4f04af1f2fb6e1c99f3db0bb", "name": "Turkish Restaurant", "pluralName": "Turkish Restaurants", "shortName": "Turkish", "icon": {"prefix": "https://ss3.4sqi.net/img/categories_v2/food/turkish_", "suffix": ".png"}, "primary": true}], "photos": {"count": 0, "groups": []}}, "referralId": "e-0-50d716afe4b028bbd4632847-42"}, {"reasons": {"count": 0, "items": [{"summary": "This spot is popular", "type": "general", "reasonName": "globalInteractionReason"}]}, "venue": {"id": "4bd1d7735e0cce729912a284", "name": "Inn-Berlin", "location": {"address": "Prinzenallee 49", "lat": 52.559606797392135, "lng": 13.386785914849268, "labeledLatLngs": [{"label": "display", "lat": 52.559606797392135, "lng": 13.386785914849268}], "distance": 136, "postalCode": "13359", "cc": "DE", "city": "Berlin", "state": "Berlin", "country": "Deutschland", "formattedAddress": ["Prinzenallee 49", "13359 Berlin", "Deutschland"]}, "categories": [{"id": "4bf58dd8d48988d1ee931735", "name": "Hostel", "pluralName": "Hostels", "shortName": "Hostel", "icon": {"prefix": "https://ss3.4sqi.net/img/categories_v2/travel/hostel_", "suffix": ".png"}, "primary": true}], "photos": {"count": 0, "groups": []}}, "referralId": "e-0-4bd1d7735e0cce729912a284-43"}, {"reasons": {"count": 0, "items": [{"summary": "This spot is popular", "type": "general", "reasonName": "globalInteractionReason"}]}, "venue": {"id": "518cccd25019d968d07fccb7", "name": "Kahve Rengi", "location": {"address": "Wollankstr. 99", "lat": 52.56411569748972, "lng": 13.392849638315662, "labeledLatLngs": [{"label": "display", "lat": 52.56411569748972, "lng": 13.392849638315662}], "distance": 774, "postalCode": "13359", "cc": "DE", "city": "Berlin", "state": "Berlin", "country": "Deutschland", "formattedAddress": ["Wollankstr. 99", "13359 Berlin", "Deutschland"]}, "categories": [{"id": "4bf58dd8d48988d143941735", "name": "Breakfast Spot", "pluralName": "Breakfast Spots", "shortName": "Breakfast", "icon": {"prefix": "https://ss3.4sqi.net/img/categories_v2/food/breakfast_", "suffix": ".png"}, "primary": true}], "photos": {"count": 0, "groups": []}}, "referralId": "e-0-518cccd25019d968d07fccb7-44"}, {"reasons": {"count": 0, "items": [{"summary": "This spot is popular", "type": "general", "reasonName": "globalInteractionReason"}]}, "venue": {"id": "4cb6bd8555af224b1f0c9c7e", "name": "Dunkin'", "location": {"address": "Badstr. 4", "lat": 52.549693, "lng": 13.38762, "labeledLatLngs": [{"label": "display", "lat": 52.549693, "lng": 13.38762}], "distance": 975, "postalCode": "13357", "cc": "DE", "city": "Berlin", "state": "Berlin", "country": "Deutschland", "formattedAddress": ["Badstr. 4", "13357 Berlin", "Deutschland"]}, "categories": [{"id": "4bf58dd8d48988d148941735", "name": "Donut Shop", "pluralName": "Donut Shops", "shortName": "Donuts", "icon": {"prefix": "https://ss3.4sqi.net/img/categories_v2/food/donuts_", "suffix": ".png"}, "primary": true}], "photos": {"count": 0, "groups": []}}, "referralId": "e-0-4cb6bd8555af224b1f0c9c7e-45"}, {"reasons": {"count": 0, "items": [{"summary": "This spot is popular", "type": "general", "reasonName": "globalInteractionReason"}]}, "venue": {"id": "4f26e52ce4b0008744c4939a", "name": "Lidl", "location": {"address": "Badstr. 60", "lat": 52.5509487, "lng": 13.3832753, "labeledLatLngs": [{"label": "display", "lat": 52.5509487, "lng": 13.3832753}], "distance": 855, "postalCode": "13357", "cc": "DE", "city": "Berlin", "state": "Berlin", "country": "Deutschland", "formattedAddress": ["Badstr. 60", "13357 Berlin-Mitte", "Deutschland"]}, "categories": [{"id": "52f2ab2ebcbc57f1066b8b46", "name": "Supermarket", "pluralName": "Supermarkets", "shortName": "Supermarket", "icon": {"prefix": "https://ss3.4sqi.net/img/categories_v2/shops/food_grocery_", "suffix": ".png"}, "primary": true}], "photos": {"count": 0, "groups": []}, "venuePage": {"id": "584713131"}}, "referralId": "e-0-4f26e52ce4b0008744c4939a-46"}, {"reasons": {"count": 0, "items": [{"summary": "This spot is popular", "type": "general", "reasonName": "globalInteractionReason"}]}, "venue": {"id": "59a82b1c67e5f236ada52c57", "name": "TK Maxx", "location": {"address": "Badstr. 4", "lat": 52.55000575730891, "lng": 13.390336060834988, "labeledLatLngs": [{"label": "display", "lat": 52.55000575730891, "lng": 13.390336060834988}], "distance": 975, "cc": "DE", "city": "Berlin", "state": "Berlin", "country": "Deutschland", "formattedAddress": ["Badstr. 4", "Berlin", "Deutschland"]}, "categories": [{"id": "4bf58dd8d48988d103951735", "name": "Clothing Store", "pluralName": "Clothing Stores", "shortName": "Apparel", "icon": {"prefix": "https://ss3.4sqi.net/img/categories_v2/shops/apparel_", "suffix": ".png"}, "primary": true}], "photos": {"count": 0, "groups": []}}, "referralId": "e-0-59a82b1c67e5f236ada52c57-47"}, {"reasons": {"count": 0, "items": [{"summary": "This spot is popular", "type": "general", "reasonName": "globalInteractionReason"}]}, "venue": {"id": "4e133d4e2fb6744af78ef9eb", "name": "Telekom Shop", "location": {"address": "Badstr. 4", "lat": 52.549698, "lng": 13.38793, "labeledLatLngs": [{"label": "display", "lat": 52.549698, "lng": 13.38793}], "distance": 976, "postalCode": "13357", "cc": "DE", "city": "Berlin", "state": "Berlin", "country": "Deutschland", "formattedAddress": ["Badstr. 4", "13357 Berlin", "Deutschland"]}, "categories": [{"id": "4f04afc02fb6e1c99f3db0bc", "name": "Mobile Phone Shop", "pluralName": "Mobile Phone Shops", "shortName": "Mobile Phones", "icon": {"prefix": "https://ss3.4sqi.net/img/categories_v2/shops/mobilephoneshop_", "suffix": ".png"}, "primary": true}], "photos": {"count": 0, "groups": []}, "venuePage": {"id": "474698239"}}, "referralId": "e-0-4e133d4e2fb6744af78ef9eb-48"}, {"reasons": {"count": 0, "items": [{"summary": "This spot is popular", "type": "general", "reasonName": "globalInteractionReason"}]}, "venue": {"id": "4cab2cc236fa6dcb5e83d678", "name": "Lidl", "location": {"address": "Provinzstra\u00dfe 30", "lat": 52.56513092264152, "lng": 13.378702998161316, "labeledLatLngs": [{"label": "display", "lat": 52.56513092264152, "lng": 13.378702998161316}], "distance": 906, "postalCode": "13409", "cc": "DE", "city": "Berlin", "state": "Berlin", "country": "Deutschland", "formattedAddress": ["Provinzstra\u00dfe 30", "13409 Berlin-Mitte", "Deutschland"]}, "categories": [{"id": "52f2ab2ebcbc57f1066b8b46", "name": "Supermarket", "pluralName": "Supermarkets", "shortName": "Supermarket", "icon": {"prefix": "https://ss3.4sqi.net/img/categories_v2/shops/food_grocery_", "suffix": ".png"}, "primary": true}], "photos": {"count": 0, "groups": []}, "venuePage": {"id": "573519760"}}, "referralId": "e-0-4cab2cc236fa6dcb5e83d678-49"}, {"reasons": {"count": 0, "items": [{"summary": "This spot is popular", "type": "general", "reasonName": "globalInteractionReason"}]}, "venue": {"id": "4dab30695da3ba8a479bc084", "name": "Ari's Dinner", "location": {"address": "Wollankstra\u00dfe 24", "lat": 52.564356414837334, "lng": 13.392959031041348, "labeledLatLngs": [{"label": "display", "lat": 52.564356414837334, "lng": 13.392959031041348}], "distance": 800, "postalCode": "13359", "cc": "DE", "city": "Berlin", "state": "Berlin", "country": "Deutschland", "formattedAddress": ["Wollankstra\u00dfe 24", "13359 Berlin", "Deutschland"]}, "categories": [{"id": "4bf58dd8d48988d16e941735", "name": "Fast Food Restaurant", "pluralName": "Fast Food Restaurants", "shortName": "Fast Food", "icon": {"prefix": "https://ss3.4sqi.net/img/categories_v2/food/fastfood_", "suffix": ".png"}, "primary": true}], "photos": {"count": 0, "groups": []}}, "referralId": "e-0-4dab30695da3ba8a479bc084-50"}, {"reasons": {"count": 0, "items": [{"summary": "This spot is popular", "type": "general", "reasonName": "globalInteractionReason"}]}, "venue": {"id": "4fa98d42e4b0ea8c6146d704", "name": "Ehemaliger Grenz\u00fcbergang Bornholmer Stra\u00dfe", "location": {"address": "Bornholmer Str.", "crossStreet": "Platz des 9. November 1989", "lat": 52.55462007025518, "lng": 13.398942947387695, "labeledLatLngs": [{"label": "display", "lat": 52.55462007025518, "lng": 13.398942947387695}], "distance": 955, "postalCode": "10439", "cc": "DE", "city": "Berlin", "state": "Berlin", "country": "Deutschland", "formattedAddress": ["Bornholmer Str. (Platz des 9. November 1989)", "10439 Berlin", "Deutschland"]}, "categories": [{"id": "4deefb944765f83613cdba6e", "name": "Historic Site", "pluralName": "Historic Sites", "shortName": "Historic Site", "icon": {"prefix": "https://ss3.4sqi.net/img/categories_v2/arts_entertainment/historicsite_", "suffix": ".png"}, "primary": true}], "photos": {"count": 0, "groups": []}}, "referralId": "e-0-4fa98d42e4b0ea8c6146d704-51"}, {"reasons": {"count": 0, "items": [{"summary": "This spot is popular", "type": "general", "reasonName": "globalInteractionReason"}]}, "venue": {"id": "504b3e1de4b086a8f9e1b113", "name": "C&A", "location": {"address": "Badstr. 4", "lat": 52.54968837801101, "lng": 13.387952005062967, "labeledLatLngs": [{"label": "display", "lat": 52.54968837801101, "lng": 13.387952005062967}], "distance": 978, "postalCode": "13357", "cc": "DE", "city": "Berlin", "state": "Berlin", "country": "Deutschland", "formattedAddress": ["Badstr. 4", "13357 Berlin", "Deutschland"]}, "categories": [{"id": "4bf58dd8d48988d103951735", "name": "Clothing Store", "pluralName": "Clothing Stores", "shortName": "Apparel", "icon": {"prefix": "https://ss3.4sqi.net/img/categories_v2/shops/apparel_", "suffix": ".png"}, "primary": true}], "photos": {"count": 0, "groups": []}}, "referralId": "e-0-504b3e1de4b086a8f9e1b113-52"}, {"reasons": {"count": 0, "items": [{"summary": "This spot is popular", "type": "general", "reasonName": "globalInteractionReason"}]}, "venue": {"id": "4c4aaf0346240f477a253df2", "name": "Lichtburg", "location": {"address": "Behmstr. 9", "lat": 52.55024598896703, "lng": 13.388060612939862, "labeledLatLngs": [{"label": "display", "lat": 52.55024598896703, "lng": 13.388060612939862}], "distance": 917, "postalCode": "13357", "cc": "DE", "city": "Berlin", "state": "Berlin", "country": "Deutschland", "formattedAddress": ["Behmstr. 9", "13357 Berlin", "Deutschland"]}, "categories": [{"id": "4bf58dd8d48988d16d941735", "name": "Caf\u00e9", "pluralName": "Caf\u00e9s", "shortName": "Caf\u00e9", "icon": {"prefix": "https://ss3.4sqi.net/img/categories_v2/food/cafe_", "suffix": ".png"}, "primary": true}], "photos": {"count": 0, "groups": []}, "venuePage": {"id": "507953955"}}, "referralId": "e-0-4c4aaf0346240f477a253df2-53"}, {"reasons": {"count": 0, "items": [{"summary": "This spot is popular", "type": "general", "reasonName": "globalInteractionReason"}]}, "venue": {"id": "4bd09e291f89ce723fbd67ea", "name": "Kolo 77 Apartments", "location": {"address": "Koloniestr. 77", "lat": 52.56680674826175, "lng": 13.38415189937803, "labeledLatLngs": [{"label": "display", "lat": 52.56680674826175, "lng": 13.38415189937803}], "distance": 945, "postalCode": "13359", "cc": "DE", "city": "Berlin", "state": "Berlin", "country": "Deutschland", "formattedAddress": ["Koloniestr. 77", "13359 Berlin", "Deutschland"]}, "categories": [{"id": "4bf58dd8d48988d1f8931735", "name": "Bed & Breakfast", "pluralName": "Bed & Breakfasts", "shortName": "B & B", "icon": {"prefix": "https://ss3.4sqi.net/img/categories_v2/travel/bedandbreakfast_", "suffix": ".png"}, "primary": true}], "photos": {"count": 0, "groups": []}}, "referralId": "e-0-4bd09e291f89ce723fbd67ea-54"}, {"reasons": {"count": 0, "items": [{"summary": "This spot is popular", "type": "general", "reasonName": "globalInteractionReason"}]}, "venue": {"id": "4b62bc3df964a520b4502ae3", "name": "Kaplan D\u00f6ner", "location": {"address": "Osloer Str. 84", "lat": 52.556723244788124, "lng": 13.373655087007442, "labeledLatLngs": [{"label": "display", "lat": 52.556723244788124, "lng": 13.373655087007442}], "distance": 875, "cc": "DE", "city": "Berlin", "state": "Berlin", "country": "Deutschland", "formattedAddress": ["Osloer Str. 84", "Berlin", "Deutschland"]}, "categories": [{"id": "5283c7b4e4b094cb91ec88d8", "name": "Doner Restaurant", "pluralName": "Doner Restaurants", "shortName": "Doner", "icon": {"prefix": "https://ss3.4sqi.net/img/categories_v2/food/turkish_", "suffix": ".png"}, "primary": true}], "photos": {"count": 0, "groups": []}}, "referralId": "e-0-4b62bc3df964a520b4502ae3-55"}, {"reasons": {"count": 0, "items": [{"summary": "This spot is popular", "type": "general", "reasonName": "globalInteractionReason"}]}, "venue": {"id": "4cd1615f3e63721e4d46a3cc", "name": "Gl\u00fcck B\u00e4ckerei", "location": {"address": "Koloniestr. 25", "lat": 52.5588602727207, "lng": 13.378487185526057, "labeledLatLngs": [{"label": "display", "lat": 52.5588602727207, "lng": 13.378487185526057}], "distance": 530, "postalCode": "13359", "cc": "DE", "city": "Berlin", "state": "Berlin", "country": "Deutschland", "formattedAddress": ["Koloniestr. 25", "13359 Berlin", "Deutschland"]}, "categories": [{"id": "4bf58dd8d48988d16a941735", "name": "Bakery", "pluralName": "Bakeries", "shortName": "Bakery", "icon": {"prefix": "https://ss3.4sqi.net/img/categories_v2/food/bakery_", "suffix": ".png"}, "primary": true}], "photos": {"count": 0, "groups": []}}, "referralId": "e-0-4cd1615f3e63721e4d46a3cc-56"}, {"reasons": {"count": 0, "items": [{"summary": "This spot is popular", "type": "general", "reasonName": "globalInteractionReason"}]}, "venue": {"id": "4ca9e4f614c337041569e23b", "name": "Knusperb\u00e4cker", "location": {"address": "U Osloer Str.", "crossStreet": "Schwedenstr.", "lat": 52.556785714011625, "lng": 13.373172283172607, "labeledLatLngs": [{"label": "display", "lat": 52.556785714011625, "lng": 13.373172283172607}], "distance": 905, "postalCode": "13359", "cc": "DE", "city": "Berlin", "state": "Berlin", "country": "Deutschland", "formattedAddress": ["U Osloer Str. (Schwedenstr.)", "13359 Berlin", "Deutschland"]}, "categories": [{"id": "4bf58dd8d48988d16a941735", "name": "Bakery", "pluralName": "Bakeries", "shortName": "Bakery", "icon": {"prefix": "https://ss3.4sqi.net/img/categories_v2/food/bakery_", "suffix": ".png"}, "primary": true}], "photos": {"count": 0, "groups": []}}, "referralId": "e-0-4ca9e4f614c337041569e23b-57"}, {"reasons": {"count": 0, "items": [{"summary": "This spot is popular", "type": "general", "reasonName": "globalInteractionReason"}]}, "venue": {"id": "4f207e1fe4b0a7424256ee74", "name": "Hoof-In * Steptanz Berlin", "location": {"address": "Koloniestrasse 10", "lat": 52.556234921971175, "lng": 13.377421997672142, "labeledLatLngs": [{"label": "display", "lat": 52.556234921971175, "lng": 13.377421997672142}], "distance": 647, "postalCode": "13357", "cc": "DE", "city": "Berlin", "state": "Berlin", "country": "Deutschland", "formattedAddress": ["Koloniestrasse 10", "13357 Berlin", "Deutschland"]}, "categories": [{"id": "4bf58dd8d48988d134941735", "name": "Dance Studio", "pluralName": "Dance Studios", "shortName": "Dance Studio", "icon": {"prefix": "https://ss3.4sqi.net/img/categories_v2/arts_entertainment/performingarts_dancestudio_", "suffix": ".png"}, "primary": true}], "photos": {"count": 0, "groups": []}}, "referralId": "e-0-4f207e1fe4b0a7424256ee74-58"}, {"reasons": {"count": 0, "items": [{"summary": "This spot is popular", "type": "general", "reasonName": "globalInteractionReason"}]}, "venue": {"id": "505370988302afae5419741b", "name": "Atti\u2019s Caf\u00e9", "location": {"address": "Drontheimer Str. 1 b", "lat": 52.55717679508735, "lng": 13.37691733285754, "labeledLatLngs": [{"label": "display", "lat": 52.55717679508735, "lng": 13.37691733285754}], "distance": 648, "postalCode": "13359", "cc": "DE", "city": "Berlin", "state": "Berlin", "country": "Deutschland", "formattedAddress": ["Drontheimer Str. 1 b", "13359 Berlin", "Deutschland"]}, "categories": [{"id": "4bf58dd8d48988d1d3941735", "name": "Vegetarian / Vegan Restaurant", "pluralName": "Vegetarian / Vegan Restaurants", "shortName": "Vegetarian / Vegan", "icon": {"prefix": "https://ss3.4sqi.net/img/categories_v2/food/vegetarian_", "suffix": ".png"}, "primary": true}], "photos": {"count": 0, "groups": []}}, "referralId": "e-0-505370988302afae5419741b-59"}, {"reasons": {"count": 0, "items": [{"summary": "This spot is popular", "type": "general", "reasonName": "globalInteractionReason"}]}, "venue": {"id": "514617eee4b02de94e96d585", "name": "Wing-Seng", "location": {"address": "Wollankstra\u00dfe 28", "lat": 52.56365767609258, "lng": 13.391765237883215, "labeledLatLngs": [{"label": "display", "lat": 52.56365767609258, "lng": 13.391765237883215}], "distance": 691, "postalCode": "13359", "cc": "DE", "city": "Berlin", "state": "Berlin", "country": "Deutschland", "formattedAddress": ["Wollankstra\u00dfe 28", "13359 Berlin", "Deutschland"]}, "categories": [{"id": "4bf58dd8d48988d142941735", "name": "Asian Restaurant", "pluralName": "Asian Restaurants", "shortName": "Asian", "icon": {"prefix": "https://ss3.4sqi.net/img/categories_v2/food/asian_", "suffix": ".png"}, "primary": true}], "photos": {"count": 0, "groups": []}}, "referralId": "e-0-514617eee4b02de94e96d585-60"}, {"reasons": {"count": 0, "items": [{"summary": "This spot is popular", "type": "general", "reasonName": "globalInteractionReason"}]}, "venue": {"id": "5477883e498ef6bf85a57914", "name": "DHL Packstation 254", "location": {"address": "Drontheimer Str", "lat": 52.55889954058607, "lng": 13.376054251507066, "labeledLatLngs": [{"label": "display", "lat": 52.55889954058607, "lng": 13.376054251507066}], "distance": 694, "cc": "DE", "city": "Berlin", "state": "Berlin", "country": "Deutschland", "formattedAddress": ["Drontheimer Str", "Berlin", "Deutschland"]}, "categories": [{"id": "52f2ab2ebcbc57f1066b8b1f", "name": "Shipping Store", "pluralName": "Shipping Stores", "shortName": "Shipping Store", "icon": {"prefix": "https://ss3.4sqi.net/img/categories_v2/shops/default_", "suffix": ".png"}, "primary": true}], "photos": {"count": 0, "groups": []}}, "referralId": "e-0-5477883e498ef6bf85a57914-61"}, {"reasons": {"count": 0, "items": [{"summary": "This spot is popular", "type": "general", "reasonName": "globalInteractionReason"}]}, "venue": {"id": "4d485cdb753aa09310e3cee0", "name": "NORMA", "location": {"address": "Drontheimer Str. 32/32a", "lat": 52.558599032280334, "lng": 13.375232219696045, "labeledLatLngs": [{"label": "display", "lat": 52.558599032280334, "lng": 13.375232219696045}], "distance": 748, "postalCode": "13359", "cc": "DE", "city": "Berlin", "state": "Berlin", "country": "Deutschland", "formattedAddress": ["Drontheimer Str. 32/32a", "13359 Berlin", "Deutschland"]}, "categories": [{"id": "52f2ab2ebcbc57f1066b8b46", "name": "Supermarket", "pluralName": "Supermarkets", "shortName": "Supermarket", "icon": {"prefix": "https://ss3.4sqi.net/img/categories_v2/shops/food_grocery_", "suffix": ".png"}, "primary": true}], "photos": {"count": 0, "groups": []}}, "referralId": "e-0-4d485cdb753aa09310e3cee0-62"}, {"reasons": {"count": 0, "items": [{"summary": "This spot is popular", "type": "general", "reasonName": "globalInteractionReason"}]}, "venue": {"id": "5224e84dbce6f4ef2428ee82", "name": "H S Bornholmer Stra\u00dfe", "location": {"address": "Bornholmer Str.", "lat": 52.554880905114835, "lng": 13.395847160324767, "labeledLatLngs": [{"label": "display", "lat": 52.554880905114835, "lng": 13.395847160324767}], "distance": 757, "postalCode": "13359", "cc": "DE", "city": "Berlin", "state": "Berlin", "country": "Deutschland", "formattedAddress": ["Bornholmer Str.", "13359 Berlin", "Deutschland"]}, "categories": [{"id": "52f2ab2ebcbc57f1066b8b51", "name": "Tram Station", "pluralName": "Tram Stations", "shortName": "Tram", "icon": {"prefix": "https://ss3.4sqi.net/img/categories_v2/travel/trainstation_", "suffix": ".png"}, "primary": true}], "photos": {"count": 0, "groups": []}}, "referralId": "e-0-5224e84dbce6f4ef2428ee82-63"}, {"reasons": {"count": 0, "items": [{"summary": "This spot is popular", "type": "general", "reasonName": "globalInteractionReason"}]}, "venue": {"id": "5225b77711d2cc09f020e64f", "name": "Kaplan D\u00f6nerproduktion", "location": {"address": "Provinz Str 21", "lat": 52.563558, "lng": 13.378178, "labeledLatLngs": [{"label": "display", "lat": 52.563558, "lng": 13.378178}], "distance": 792, "postalCode": "13409", "cc": "DE", "city": "Berlin", "state": "Berlin", "country": "Deutschland", "formattedAddress": ["Provinz Str 21", "13409 Berlin", "Deutschland"]}, "categories": [{"id": "5283c7b4e4b094cb91ec88d8", "name": "Doner Restaurant", "pluralName": "Doner Restaurants", "shortName": "Doner", "icon": {"prefix": "https://ss3.4sqi.net/img/categories_v2/food/turkish_", "suffix": ".png"}, "primary": true}], "photos": {"count": 0, "groups": []}}, "referralId": "e-0-5225b77711d2cc09f020e64f-64"}, {"reasons": {"count": 0, "items": [{"summary": "This spot is popular", "type": "general", "reasonName": "globalInteractionReason"}]}, "venue": {"id": "4b5951b1f964a520ef8428e3", "name": "S Bornholmer Stra\u00dfe", "location": {"address": "Bornholmer Str.", "crossStreet": "B\u00f6sebr\u00fccke", "lat": 52.55468845906756, "lng": 13.397808084790565, "labeledLatLngs": [{"label": "display", "lat": 52.55468845906756, "lng": 13.397808084790565}], "distance": 883, "postalCode": "13187", "cc": "DE", "city": "Berlin", "state": "Berlin", "country": "Deutschland", "formattedAddress": ["Bornholmer Str. (B\u00f6sebr\u00fccke)", "13187 Berlin", "Deutschland"]}, "categories": [{"id": "4bf58dd8d48988d1fc931735", "name": "Light Rail Station", "pluralName": "Light Rail Stations", "shortName": "Light Rail", "icon": {"prefix": "https://ss3.4sqi.net/img/categories_v2/travel/lightrail_", "suffix": ".png"}, "primary": true}], "photos": {"count": 0, "groups": []}}, "referralId": "e-0-4b5951b1f964a520ef8428e3-65"}, {"reasons": {"count": 0, "items": [{"summary": "This spot is popular", "type": "general", "reasonName": "globalInteractionReason"}]}, "venue": {"id": "5d1342f86438030023c5dc5b", "name": "ServiceStore DB", "location": {"address": "Bornholmer Str.", "lat": 52.55445542, "lng": 13.39787401, "labeledLatLngs": [{"label": "display", "lat": 52.55445542, "lng": 13.39787401}], "distance": 899, "postalCode": "10439", "cc": "DE", "neighborhood": "Gesundbrunnen", "city": "Berlin", "state": "Berlin", "country": "Deutschland", "formattedAddress": ["Bornholmer Str.", "10439 Berlin", "Deutschland"]}, "categories": [{"id": "4bf58dd8d48988d123951735", "name": "Smoke Shop", "pluralName": "Smoke Shops", "shortName": "Smoke Shop", "icon": {"prefix": "https://ss3.4sqi.net/img/categories_v2/shops/tobacco_", "suffix": ".png"}, "primary": true}], "photos": {"count": 0, "groups": []}, "venuePage": {"id": "549144685"}}, "referralId": "e-0-5d1342f86438030023c5dc5b-66"}, {"reasons": {"count": 0, "items": [{"summary": "This spot is popular", "type": "general", "reasonName": "globalInteractionReason"}]}, "venue": {"id": "4d486d0edcdba1430c65f0b1", "name": "Tribal Dance Academy", "location": {"address": "Schwedenstr. 9", "lat": 52.55780761851163, "lng": 13.372884907377983, "labeledLatLngs": [{"label": "display", "lat": 52.55780761851163, "lng": 13.372884907377983}], "distance": 909, "postalCode": "13357", "cc": "DE", "city": "Berlin", "state": "Berlin", "country": "Deutschland", "formattedAddress": ["Schwedenstr. 9", "13357 Berlin", "Deutschland"]}, "categories": [{"id": "4bf58dd8d48988d175941735", "name": "Gym / Fitness Center", "pluralName": "Gyms or Fitness Centers", "shortName": "Gym / Fitness", "icon": {"prefix": "https://ss3.4sqi.net/img/categories_v2/building/gym_", "suffix": ".png"}, "primary": true}], "photos": {"count": 0, "groups": []}}, "referralId": "e-0-4d486d0edcdba1430c65f0b1-67"}, {"reasons": {"count": 0, "items": [{"summary": "This spot is popular", "type": "general", "reasonName": "globalInteractionReason"}]}, "venue": {"id": "59bff17b6e4650496663d9d7", "name": "Apartment & Hotel Ocak", "location": {"address": "J\u00fclicherstr.  15", "lat": 52.55089070261074, "lng": 13.391649422332657, "labeledLatLngs": [{"label": "display", "lat": 52.55089070261074, "lng": 13.391649422332657}], "distance": 913, "postalCode": "13357", "cc": "DE", "neighborhood": "Gesundbrunnen", "city": "Berlin", "state": "Berlin", "country": "Deutschland", "formattedAddress": ["J\u00fclicherstr.  15", "13357 Berlin", "Deutschland"]}, "categories": [{"id": "4bf58dd8d48988d1fa931735", "name": "Hotel", "pluralName": "Hotels", "shortName": "Hotel", "icon": {"prefix": "https://ss3.4sqi.net/img/categories_v2/travel/hotel_", "suffix": ".png"}, "primary": true}], "photos": {"count": 0, "groups": []}}, "referralId": "e-0-59bff17b6e4650496663d9d7-68"}, {"reasons": {"count": 0, "items": [{"summary": "This spot is popular", "type": "general", "reasonName": "globalInteractionReason"}]}, "venue": {"id": "4f3f9272e4b02d0e6b9ea53e", "name": "Berlins Welt der Stoffe", "location": {"address": "Residenzstr. 84", "lat": 52.55830723683975, "lng": 13.372631658190036, "labeledLatLngs": [{"label": "display", "lat": 52.55830723683975, "lng": 13.372631658190036}], "distance": 924, "postalCode": "13409", "cc": "DE", "city": "Berlin", "state": "Berlin", "country": "Deutschland", "formattedAddress": ["Residenzstr. 84", "13409 Berlin", "Deutschland"]}, "categories": [{"id": "4bf58dd8d48988d1fb941735", "name": "Hobby Shop", "pluralName": "Hobby Shops", "shortName": "Hobbies", "icon": {"prefix": "https://ss3.4sqi.net/img/categories_v2/shops/hobbyshop_", "suffix": ".png"}, "primary": true}], "photos": {"count": 0, "groups": []}, "venuePage": {"id": "327725486"}}, "referralId": "e-0-4f3f9272e4b02d0e6b9ea53e-69"}, {"reasons": {"count": 0, "items": [{"summary": "This spot is popular", "type": "general", "reasonName": "globalInteractionReason"}]}, "venue": {"id": "50f85fbde4b0688fed89a18e", "name": "Asia anh anh", "location": {"lat": 52.55902216786813, "lng": 13.372627551733085, "labeledLatLngs": [{"label": "display", "lat": 52.55902216786813, "lng": 13.372627551733085}], "distance": 926, "cc": "DE", "city": "Berlin", "state": "Berlin", "country": "Deutschland", "formattedAddress": ["Berlin", "Deutschland"]}, "categories": [{"id": "4bf58dd8d48988d142941735", "name": "Asian Restaurant", "pluralName": "Asian Restaurants", "shortName": "Asian", "icon": {"prefix": "https://ss3.4sqi.net/img/categories_v2/food/asian_", "suffix": ".png"}, "primary": true}], "photos": {"count": 0, "groups": []}}, "referralId": "e-0-50f85fbde4b0688fed89a18e-70"}, {"reasons": {"count": 0, "items": [{"summary": "This spot is popular", "type": "general", "reasonName": "globalInteractionReason"}]}, "venue": {"id": "51c57c71498e702d25532d10", "name": "SV Norden-Nordwest 1898", "location": {"address": "Behmstr. 35", "lat": 52.55111183790273, "lng": 13.394373700757036, "labeledLatLngs": [{"label": "display", "lat": 52.55111183790273, "lng": 13.394373700757036}], "distance": 980, "cc": "DE", "city": "Berlin", "state": "Berlin", "country": "Deutschland", "formattedAddress": ["Behmstr. 35", "Berlin", "Deutschland"]}, "categories": [{"id": "4cce455aebf7b749d5e191f5", "name": "Soccer Field", "pluralName": "Soccer Fields", "shortName": "Soccer Field", "icon": {"prefix": "https://ss3.4sqi.net/img/categories_v2/arts_entertainment/stadium_soccer_", "suffix": ".png"}, "primary": true}], "photos": {"count": 0, "groups": []}}, "referralId": "e-0-51c57c71498e702d25532d10-71"}]