[{"reasons": {"count": 0, "items": [{"summary": "This spot is popular", "type": "general", "reasonName": "globalInteractionReason"}]}, "venue": {"id": "4b840699f964a520e51b31e3", "name": "Latichte", "location": {"address": "Alt-Reinickendorf 29", "lat": 52.576094028594824, "lng": 13.348752556321415, "labeledLatLngs": [{"label": "display", "lat": 52.576094028594824, "lng": 13.348752556321415}], "distance": 279, "postalCode": "13407", "cc": "DE", "city": "Berlin", "state": "Berlin", "country": "Deutschland", "formattedAddress": ["Alt-Reinickendorf 29", "13407 Berlin", "Deutschland"]}, "categories": [{"id": "4bf58dd8d48988d10d941735", "name": "German Restaurant", "pluralName": "German Restaurants", "shortName": "German", "icon": {"prefix": "https://ss3.4sqi.net/img/categories_v2/food/german_", "suffix": ".png"}, "primary": true}], "photos": {"count": 0, "groups": []}}, "referralId": "e-0-4b840699f964a520e51b31e3-0"}, {"reasons": {"count": 0, "items": [{"summary": "This spot is popular", "type": "general", "reasonName": "globalInteractionReason"}]}, "venue": {"id": "5b3dc98a16fa04002c99182b", "name": "The MyMoon Restaurant & Lounge", "location": {"address": "Alt-Reinickendorf 3", "lat": 52.5744685, "lng": 13.3586526, "labeledLatLngs": [{"label": "display", "lat": 52.5744685, "lng": 13.3586526}], "distance": 689, "postalCode": "13407", "cc": "DE", "city": "Berlin", "state": "Berlin", "country": "Deutschland", "formattedAddress": ["Alt-Reinickendorf 3", "13407 Berlin", "Deutschland"]}, "categories": [{"id": "4f04af1f2fb6e1c99f3db0bb", "name": "Turkish Restaurant", "pluralName": "Turkish Restaurants", "shortName": "Turkish", "icon": {"prefix": "https://ss3.4sqi.net/img/categories_v2/food/turkish_", "suffix": ".png"}, "primary": true}], "photos": {"count": 0, "groups": []}}, "referralId": "e-0-5b3dc98a16fa04002c99182b-1"}, {"reasons": {"count": 0, "items": [{"summary": "This spot is popular", "type": "general", "reasonName": "globalInteractionReason"}]}, "venue": {"id": "4d79fc88542ab1f771d88541", "name": "Kienhorstpark", "location": {"address": "Lindauer Allee", "crossStreet": "Ollenhauerstr.", "lat": 52.576746680467316, "lng": 13.33935507838421, "labeledLatLngs": [{"label": "display", "lat": 52.576746680467316, "lng": 13.33935507838421}], "distance": 715, "postalCode": "13407", "cc": "DE", "neighborhood": "Scharnweberstra\u00dfe", "city": "Berlin", "state": "Berlin", "country": "Deutschland", "formattedAddress": ["Lindauer Allee (Ollenhauerstr.)", "13407 Berlin", "Deutschland"]}, "categories": [{"id": "4bf58dd8d48988d163941735", "name": "Park", "pluralName": "Parks", "shortName": "Park", "icon": {"prefix": "https://ss3.4sqi.net/img/categories_v2/parks_outdoors/park_", "suffix": ".png"}, "primary": true}], "photos": {"count": 0, "groups": []}}, "referralId": "e-0-4d79fc88542ab1f771d88541-2"}, {"reasons": {"count": 0, "items": [{"summary": "This spot is popular", "type": "general", "reasonName": "globalInteractionReason"}]}, "venue": {"id": "50b51e7fe4b09103506e6224", "name": "La Trattoria Marina", "location": {"address": "Residenzstr. 1", "lat": 52.5731027686803, "lng": 13.35935869822512, "labeledLatLngs": [{"label": "display", "lat": 52.5731027686803, "lng": 13.35935869822512}], "distance": 732, "postalCode": "13409", "cc": "DE", "city": "Berlin", "state": "Berlin", "country": "Deutschland", "formattedAddress": ["Residenzstr. 1", "13409 Berlin", "Deutschland"]}, "categories": [{"id": "55a5a1ebe4b013909087cb7f", "name": "Trattoria/Osteria", "pluralName": "Trattorias/Osterias", "shortName": "Trattoria/Osteria", "icon": {"prefix": "https://ss3.4sqi.net/img/categories_v2/food/italian_", "suffix": ".png"}, "primary": true}], "photos": {"count": 0, "groups": []}}, "referralId": "e-0-50b51e7fe4b09103506e6224-3"}, {"reasons": {"count": 0, "items": [{"summary": "This spot is popular", "type": "general", "reasonName": "globalInteractionReason"}]}, "venue": {"id": "4adcda7ff964a520fb4721e3", "name": "Paracelsus-Bad", "location": {"address": "Roedernallee 200-204", "lat": 52.57535508734666, "lng": 13.347456854839297, "labeledLatLngs": [{"label": "display", "lat": 52.57535508734666, "lng": 13.347456854839297}], "distance": 210, "postalCode": "13407", "cc": "DE", "city": "Berlin", "state": "Berlin", "country": "Deutschland", "formattedAddress": ["Roedernallee 200-204", "13407 Berlin", "Deutschland"]}, "categories": [{"id": "4bf58dd8d48988d15e941735", "name": "Pool", "pluralName": "Pools", "shortName": "Pool", "icon": {"prefix": "https://ss3.4sqi.net/img/categories_v2/parks_outdoors/pool_", "suffix": ".png"}, "primary": true}], "photos": {"count": 0, "groups": []}}, "referralId": "e-0-4adcda7ff964a520fb4721e3-4"}, {"reasons": {"count": 0, "items": [{"summary": "This spot is popular", "type": "general", "reasonName": "globalInteractionReason"}]}, "venue": {"id": "52388fbc11d23729579db71c", "name": "Klemkepark", "location": {"address": "Klemkestrasse", "lat": 52.57618221464519, "lng": 13.362253992552967, "labeledLatLngs": [{"label": "display", "lat": 52.57618221464519, "lng": 13.362253992552967}], "distance": 969, "postalCode": "13409", "cc": "DE", "neighborhood": "Residenzstrasse", "city": "Berlin", "state": "Berlin", "country": "Deutschland", "formattedAddress": ["Klemkestrasse", "13409 Berlin", "Deutschland"]}, "categories": [{"id": "4bf58dd8d48988d163941735", "name": "Park", "pluralName": "Parks", "shortName": "Park", "icon": {"prefix": "https://ss3.4sqi.net/img/categories_v2/parks_outdoors/park_", "suffix": ".png"}, "primary": true}], "photos": {"count": 0, "groups": []}}, "referralId": "e-0-52388fbc11d23729579db71c-5"}, {"reasons": {"count": 0, "items": [{"summary": "This spot is popular", "type": "general", "reasonName": "globalInteractionReason"}]}, "venue": {"id": "5067419ee4b01437c92d0625", "name": "PENNY", "location": {"address": "Residenzstr. 11", "lat": 52.57201030336214, "lng": 13.359455368087652, "labeledLatLngs": [{"label": "display", "lat": 52.57201030336214, "lng": 13.359455368087652}], "distance": 757, "postalCode": "13409", "cc": "DE", "city": "Berlin", "state": "Berlin", "country": "Deutschland", "formattedAddress": ["Residenzstr. 11", "13409 Berlin", "Deutschland"]}, "categories": [{"id": "52f2ab2ebcbc57f1066b8b46", "name": "Supermarket", "pluralName": "Supermarkets", "shortName": "Supermarket", "icon": {"prefix": "https://ss3.4sqi.net/img/categories_v2/shops/food_grocery_", "suffix": ".png"}, "primary": true}], "photos": {"count": 0, "groups": []}, "venuePage": {"id": "564606973"}}, "referralId": "e-0-5067419ee4b01437c92d0625-6"}, {"reasons": {"count": 0, "items": [{"summary": "This spot is popular", "type": "general", "reasonName": "globalInteractionReason"}]}, "venue": {"id": "4b742f46f964a520becb2de3", "name": "U Paracelsus-Bad", "location": {"address": "Lindauer Allee", "crossStreet": "Roedernallee", "lat": 52.574198300093855, "lng": 13.348474502563477, "labeledLatLngs": [{"label": "display", "lat": 52.574198300093855, "lng": 13.348474502563477}], "distance": 68, "postalCode": "13407", "cc": "DE", "city": "Berlin", "state": "Berlin", "country": "Deutschland", "formattedAddress": ["Lindauer Allee (Roedernallee)", "13407 Berlin", "Deutschland"]}, "categories": [{"id": "4bf58dd8d48988d1fd931735", "name": "Metro Station", "pluralName": "Metro Stations", "shortName": "Metro", "icon": {"prefix": "https://ss3.4sqi.net/img/categories_v2/travel/subway_", "suffix": ".png"}, "primary": true}], "photos": {"count": 0, "groups": []}}, "referralId": "e-0-4b742f46f964a520becb2de3-7"}, {"reasons": {"count": 0, "items": [{"summary": "This spot is popular", "type": "general", "reasonName": "globalInteractionReason"}]}, "venue": {"id": "583886361470b0520007d0d1", "name": "Trattoria \u201cLa Trinacria\u201d", "location": {"address": "Aroser Allee 140", "lat": 52.569233, "lng": 13.351367, "labeledLatLngs": [{"label": "display", "lat": 52.569233, "lng": 13.351367}], "distance": 520, "postalCode": "13407", "cc": "DE", "city": "Berlin", "state": "Berlin", "country": "Deutschland", "formattedAddress": ["Aroser Allee 140", "13407 Berlin", "Deutschland"]}, "categories": [{"id": "4bf58dd8d48988d110941735", "name": "Italian Restaurant", "pluralName": "Italian Restaurants", "shortName": "Italian", "icon": {"prefix": "https://ss3.4sqi.net/img/categories_v2/food/italian_", "suffix": ".png"}, "primary": true}], "photos": {"count": 0, "groups": []}}, "referralId": "e-0-583886361470b0520007d0d1-8"}, {"reasons": {"count": 0, "items": [{"summary": "This spot is popular", "type": "general", "reasonName": "globalInteractionReason"}]}, "venue": {"id": "5337db95498e5dc0b1a69b07", "name": "Sportplatz Thurgauer Stra\u00dfe", "location": {"address": "Thurgauer Str. 47", "crossStreet": "Aroser Allee", "lat": 52.57048158678113, "lng": 13.354965448379517, "labeledLatLngs": [{"label": "display", "lat": 52.57048158678113, "lng": 13.354965448379517}], "distance": 554, "cc": "DE", "city": "Berlin", "state": "Berlin", "country": "Deutschland", "formattedAddress": ["Thurgauer Str. 47 (Aroser Allee)", "Berlin", "Deutschland"]}, "categories": [{"id": "4cce455aebf7b749d5e191f5", "name": "Soccer Field", "pluralName": "Soccer Fields", "shortName": "Soccer Field", "icon": {"prefix": "https://ss3.4sqi.net/img/categories_v2/arts_entertainment/stadium_soccer_", "suffix": ".png"}, "primary": true}], "photos": {"count": 0, "groups": []}}, "referralId": "e-0-5337db95498e5dc0b1a69b07-9"}, {"reasons": {"count": 0, "items": [{"summary": "This spot is popular", "type": "general", "reasonName": "globalInteractionReason"}]}, "venue": {"id": "4f48b066e4b0e4450612d99b", "name": "Cito Reinigung", "location": {"lat": 52.56774645578006, "lng": 13.350781027210708, "labeledLatLngs": [{"label": "display", "lat": 52.56774645578006, "lng": 13.350781027210708}], "distance": 667, "cc": "DE", "city": "Berlin", "state": "Berlin", "country": "Deutschland", "formattedAddress": ["Berlin", "Deutschland"]}, "categories": [{"id": "52f2ab2ebcbc57f1066b8b1d", "name": "Dry Cleaner", "pluralName": "Dry Cleaners", "shortName": "Dry Cleaner", "icon": {"prefix": "https://ss3.4sqi.net/img/categories_v2/shops/drycleaner_", "suffix": ".png"}, "primary": true}], "photos": {"count": 0, "groups": []}}, "referralId": "e-0-4f48b066e4b0e4450612d99b-10"}, {"reasons": {"count": 0, "items": [{"summary": "This spot is popular", "type": "general", "reasonName": "globalInteractionReason"}]}, "venue": {"id": "4f47a8eae4b0e13228e36dfa", "name": "Kolpingplatz", "location": {"address": "Kolpingplatz", "lat": 52.574022252360486, "lng": 13.35862398147583, "labeledLatLngs": [{"label": "display", "lat": 52.574022252360486, "lng": 13.35862398147583}], "distance": 682, "cc": "DE", "city": "Berlin", "state": "Berlin", "country": "Deutschland", "formattedAddress": ["Kolpingplatz", "Berlin", "Deutschland"]}, "categories": [{"id": "4bf58dd8d48988d164941735", "name": "Plaza", "pluralName": "Plazas", "shortName": "Plaza", "icon": {"prefix": "https://ss3.4sqi.net/img/categories_v2/parks_outdoors/plaza_", "suffix": ".png"}, "primary": true}], "photos": {"count": 0, "groups": []}}, "referralId": "e-0-4f47a8eae4b0e13228e36dfa-11"}, {"reasons": {"count": 0, "items": [{"summary": "This spot is popular", "type": "general", "reasonName": "globalInteractionReason"}]}, "venue": {"id": "4ba2fafcf964a520192638e3", "name": "B\u00e4ckerei Steinicke (Fabrikverkauf)", "location": {"address": "Flottenstrasse", "lat": 52.57765390878057, "lng": 13.356328010559082, "labeledLatLngs": [{"label": "display", "lat": 52.57765390878057, "lng": 13.356328010559082}], "distance": 693, "postalCode": "13407", "cc": "DE", "city": "Berlin", "state": "Berlin", "country": "Deutschland", "formattedAddress": ["Flottenstrasse", "13407 Berlin", "Deutschland"]}, "categories": [{"id": "4bf58dd8d48988d16a941735", "name": "Bakery", "pluralName": "Bakeries", "shortName": "Bakery", "icon": {"prefix": "https://ss3.4sqi.net/img/categories_v2/food/bakery_", "suffix": ".png"}, "primary": true}], "photos": {"count": 0, "groups": []}}, "referralId": "e-0-4ba2fafcf964a520192638e3-12"}, {"reasons": {"count": 0, "items": [{"summary": "This spot is popular", "type": "general", "reasonName": "globalInteractionReason"}]}, "venue": {"id": "4b5607b0f964a520bcfc27e3", "name": "U Lindauer Allee", "location": {"address": "Lindauer Allee", "crossStreet": "Klamannstr.", "lat": 52.57525844907998, "lng": 13.338436847243601, "labeledLatLngs": [{"label": "display", "lat": 52.57525844907998, "lng": 13.338436847243601}], "distance": 710, "postalCode": "13407", "cc": "DE", "city": "Berlin", "state": "Berlin", "country": "Deutschland", "formattedAddress": ["Lindauer Allee (Klamannstr.)", "13407 Berlin", "Deutschland"]}, "categories": [{"id": "4bf58dd8d48988d1fd931735", "name": "Metro Station", "pluralName": "Metro Stations", "shortName": "Metro", "icon": {"prefix": "https://ss3.4sqi.net/img/categories_v2/travel/subway_", "suffix": ".png"}, "primary": true}], "photos": {"count": 0, "groups": []}}, "referralId": "e-0-4b5607b0f964a520bcfc27e3-13"}, {"reasons": {"count": 0, "items": [{"summary": "This spot is popular", "type": "general", "reasonName": "globalInteractionReason"}]}, "venue": {"id": "55547968498ea5415085f248", "name": "Spielplatz", "location": {"address": "Lengeder Strasse 4", "lat": 52.57561841403615, "lng": 13.358613358115244, "labeledLatLngs": [{"label": "display", "lat": 52.57561841403615, "lng": 13.358613358115244}], "distance": 716, "postalCode": "13407", "cc": "DE", "city": "Berlin", "state": "Berlin", "country": "Deutschland", "formattedAddress": ["Lengeder Strasse 4", "13407 Berlin", "Deutschland"]}, "categories": [{"id": "4bf58dd8d48988d1e7941735", "name": "Playground", "pluralName": "Playgrounds", "shortName": "Playground", "icon": {"prefix": "https://ss3.4sqi.net/img/categories_v2/parks_outdoors/playground_", "suffix": ".png"}, "primary": true}], "photos": {"count": 0, "groups": []}}, "referralId": "e-0-55547968498ea5415085f248-14"}, {"reasons": {"count": 0, "items": [{"summary": "This spot is popular", "type": "general", "reasonName": "globalInteractionReason"}]}, "venue": {"id": "4b8e21caf964a520331933e3", "name": "Netto Marken-Discount", "location": {"address": "Emmentaler Str. 12", "lat": 52.5676477, "lng": 13.3531489, "labeledLatLngs": [{"label": "display", "lat": 52.5676477, "lng": 13.3531489}], "distance": 730, "postalCode": "13407", "cc": "DE", "city": "Berlin", "state": "Berlin", "country": "Deutschland", "formattedAddress": ["Emmentaler Str. 12", "13407 Berlin-Reinickendorf", "Deutschland"]}, "categories": [{"id": "52f2ab2ebcbc57f1066b8b46", "name": "Supermarket", "pluralName": "Supermarkets", "shortName": "Supermarket", "icon": {"prefix": "https://ss3.4sqi.net/img/categories_v2/shops/food_grocery_", "suffix": ".png"}, "primary": true}], "photos": {"count": 0, "groups": []}, "venuePage": {"id": "540030858"}}, "referralId": "e-0-4b8e21caf964a520331933e3-15"}, {"reasons": {"count": 0, "items": [{"summary": "This spot is popular", "type": "general", "reasonName": "globalInteractionReason"}]}, "venue": {"id": "57cc4b00498eb5f6e58d7dd9", "name": "H Lindauer Allee / Residenzstra\u00dfe", "location": {"lat": 52.57295, "lng": 13.3595085, "labeledLatLngs": [{"label": "display", "lat": 52.57295, "lng": 13.3595085}], "distance": 743, "cc": "DE", "city": "Berlin", "state": "Berlin", "country": "Deutschland", "formattedAddress": ["Berlin", "Deutschland"]}, "categories": [{"id": "52f2ab2ebcbc57f1066b8b4f", "name": "Bus Stop", "pluralName": "Bus Stops", "shortName": "Bus Stop", "icon": {"prefix": "https://ss3.4sqi.net/img/categories_v2/travel/busstation_", "suffix": ".png"}, "primary": true}], "photos": {"count": 0, "groups": []}}, "referralId": "e-0-57cc4b00498eb5f6e58d7dd9-16"}, {"reasons": {"count": 0, "items": [{"summary": "This spot is popular", "type": "general", "reasonName": "globalInteractionReason"}]}, "venue": {"id": "5046e31fe4b05a8c898e2071", "name": "H Gotthardstra\u00dfe / Teichstra\u00dfe", "location": {"address": "Gotthardstr.", "crossStreet": "Teichstr.", "lat": 52.566986284749596, "lng": 13.346714973449707, "labeledLatLngs": [{"label": "display", "lat": 52.566986284749596, "lng": 13.346714973449707}], "distance": 745, "postalCode": "13407", "cc": "DE", "city": "Berlin", "state": "Berlin", "country": "Deutschland", "formattedAddress": ["Gotthardstr. (Teichstr.)", "13407 Berlin", "Deutschland"]}, "categories": [{"id": "52f2ab2ebcbc57f1066b8b4f", "name": "Bus Stop", "pluralName": "Bus Stops", "shortName": "Bus Stop", "icon": {"prefix": "https://ss3.4sqi.net/img/categories_v2/travel/busstation_", "suffix": ".png"}, "primary": true}], "photos": {"count": 0, "groups": []}}, "referralId": "e-0-5046e31fe4b05a8c898e2071-17"}, {"reasons": {"count": 0, "items": [{"summary": "This spot is popular", "type": "general", "reasonName": "globalInteractionReason"}]}, "venue": {"id": "53db6919498eb5a65d2ab035", "name": "Kopenhagener Apotheke", "location": {"address": "Kopenhagener Apotheke", "lat": 52.57444107916492, "lng": 13.35951806749821, "labeledLatLngs": [{"label": "display", "lat": 52.57444107916492, "lng": 13.35951806749821}], "distance": 746, "postalCode": "13407", "cc": "DE", "city": "Berlin", "state": "Berlin", "country": "Deutschland", "formattedAddress": ["Kopenhagener Apotheke", "13407 Berlin", "Deutschland"]}, "categories": [{"id": "4bf58dd8d48988d10f951735", "name": "Pharmacy", "pluralName": "Pharmacies", "shortName": "Pharmacy", "icon": {"prefix": "https://ss3.4sqi.net/img/categories_v2/shops/pharmacy_", "suffix": ".png"}, "primary": true}], "photos": {"count": 0, "groups": []}}, "referralId": "e-0-53db6919498eb5a65d2ab035-18"}, {"reasons": {"count": 0, "items": [{"summary": "This spot is popular", "type": "general", "reasonName": "globalInteractionReason"}]}, "venue": {"id": "4f61f7e3e4b08e537e33268a", "name": "NETTO", "location": {"address": "Gotthardstr. 27", "lat": 52.566435, "lng": 13.346022, "labeledLatLngs": [{"label": "display", "lat": 52.566435, "lng": 13.346022}], "distance": 814, "postalCode": "13407", "cc": "DE", "city": "Berlin", "state": "Berlin", "country": "Deutschland", "formattedAddress": ["Gotthardstr. 27", "13407 Berlin-Reinickendorf", "Deutschland"]}, "categories": [{"id": "52f2ab2ebcbc57f1066b8b46", "name": "Supermarket", "pluralName": "Supermarkets", "shortName": "Supermarket", "icon": {"prefix": "https://ss3.4sqi.net/img/categories_v2/shops/food_grocery_", "suffix": ".png"}, "primary": true}], "photos": {"count": 0, "groups": []}, "venuePage": {"id": "456781752"}}, "referralId": "e-0-4f61f7e3e4b08e537e33268a-19"}, {"reasons": {"count": 0, "items": [{"summary": "This spot is popular", "type": "general", "reasonName": "globalInteractionReason"}]}, "venue": {"id": "572b681c498e2516709d0420", "name": "Mastro Eis", "location": {"address": "Residenzstra\u00dfe 19-20", "lat": 52.570623, "lng": 13.360616, "labeledLatLngs": [{"label": "display", "lat": 52.570623, "lng": 13.360616}], "distance": 879, "cc": "DE", "city": "Berlin", "state": "Berlin", "country": "Deutschland", "formattedAddress": ["Residenzstra\u00dfe 19-20", "Berlin", "Deutschland"]}, "categories": [{"id": "4bf58dd8d48988d1c9941735", "name": "Ice Cream Shop", "pluralName": "Ice Cream Shops", "shortName": "Ice Cream", "icon": {"prefix": "https://ss3.4sqi.net/img/categories_v2/food/icecream_", "suffix": ".png"}, "primary": true}], "photos": {"count": 0, "groups": []}}, "referralId": "e-0-572b681c498e2516709d0420-20"}, {"reasons": {"count": 0, "items": [{"summary": "This spot is popular", "type": "general", "reasonName": "globalInteractionReason"}]}, "venue": {"id": "4dda9de82271c5d36d86664e", "name": "Pizzeria & Cafe Casa Nostra", "location": {"address": "Residenzstr. 138", "lat": 52.570477626975034, "lng": 13.361080484198105, "labeledLatLngs": [{"label": "display", "lat": 52.570477626975034, "lng": 13.361080484198105}], "distance": 914, "postalCode": "13407", "cc": "DE", "city": "Berlin", "state": "Berlin", "country": "Deutschland", "formattedAddress": ["Residenzstr. 138", "13407 Berlin", "Deutschland"]}, "categories": [{"id": "4bf58dd8d48988d1ca941735", "name": "Pizza Place", "pluralName": "Pizza Places", "shortName": "Pizza", "icon": {"prefix": "https://ss3.4sqi.net/img/categories_v2/food/pizza_", "suffix": ".png"}, "primary": true}], "photos": {"count": 0, "groups": []}}, "referralId": "e-0-4dda9de82271c5d36d86664e-21"}, {"reasons": {"count": 0, "items": [{"summary": "This spot is popular", "type": "general", "reasonName": "globalInteractionReason"}]}, "venue": {"id": "4cb022d3562d224b21011488", "name": "Back-Factory", "location": {"address": "Residenzstr. 21", "lat": 52.57005121015231, "lng": 13.360818028450012, "labeledLatLngs": [{"label": "display", "lat": 52.57005121015231, "lng": 13.360818028450012}], "distance": 917, "postalCode": "13409", "cc": "DE", "city": "Berlin", "state": "Berlin", "country": "Deutschland", "formattedAddress": ["Residenzstr. 21", "13409 Berlin", "Deutschland"]}, "categories": [{"id": "4bf58dd8d48988d16a941735", "name": "Bakery", "pluralName": "Bakeries", "shortName": "Bakery", "icon": {"prefix": "https://ss3.4sqi.net/img/categories_v2/food/bakery_", "suffix": ".png"}, "primary": true}], "photos": {"count": 0, "groups": []}}, "referralId": "e-0-4cb022d3562d224b21011488-22"}, {"reasons": {"count": 0, "items": [{"summary": "This spot is popular", "type": "general", "reasonName": "globalInteractionReason"}]}, "venue": {"id": "533d0a66498e86b89a9b0fa2", "name": "H Gotthardstra\u00dfe / Holl\u00e4nderstra\u00dfe", "location": {"lat": 52.56505034455862, "lng": 13.345466863585857, "labeledLatLngs": [{"label": "display", "lat": 52.56505034455862, "lng": 13.345466863585857}], "distance": 973, "cc": "DE", "city": "Berlin", "state": "Berlin", "country": "Deutschland", "formattedAddress": ["Berlin", "Deutschland"]}, "categories": [{"id": "52f2ab2ebcbc57f1066b8b4f", "name": "Bus Stop", "pluralName": "Bus Stops", "shortName": "Bus Stop", "icon": {"prefix": "https://ss3.4sqi.net/img/categories_v2/travel/busstation_", "suffix": ".png"}, "primary": true}], "photos": {"count": 0, "groups": []}}, "referralId": "e-0-533d0a66498e86b89a9b0fa2-23"}]