[{"reasons": {"count": 0, "items": [{"summary": "This spot is popular", "type": "general", "reasonName": "globalInteractionReason"}]}, "venue": {"id": "51b5c326498e2c9c8514276d", "name": "La Femme P\u00e2tisserie", "location": {"address": "Residenzstr. 128", "lat": 52.56864574010997, "lng": 13.362164604843532, "labeledLatLngs": [{"label": "display", "lat": 52.56864574010997, "lng": 13.362164604843532}], "distance": 631, "postalCode": "13409", "cc": "DE", "city": "Berlin", "state": "Berlin", "country": "Deutschland", "formattedAddress": ["Residenzstr. 128", "13409 Berlin", "Deutschland"]}, "categories": [{"id": "5744ccdfe4b0c0459246b4e2", "name": "Pastry Shop", "pluralName": "Pastry Shops", "shortName": "Pastry", "icon": {"prefix": "https://ss3.4sqi.net/img/categories_v2/food/dessert_", "suffix": ".png"}, "primary": true}], "photos": {"count": 0, "groups": []}}, "referralId": "e-0-51b5c326498e2c9c8514276d-0"}, {"reasons": {"count": 0, "items": [{"summary": "This spot is popular", "type": "general", "reasonName": "globalInteractionReason"}]}, "venue": {"id": "4bf5477298ac0f474be564a8", "name": "REWE", "location": {"address": "Emmentaler Str. 122-130", "lat": 52.571833, "lng": 13.3657853, "labeledLatLngs": [{"label": "display", "lat": 52.571833, "lng": 13.3657853}], "distance": 518, "postalCode": "13409", "cc": "DE", "city": "Berlin", "state": "Berlin", "country": "Deutschland", "formattedAddress": ["Emmentaler Str. 122-130", "13409 Berlin", "Deutschland"]}, "categories": [{"id": "52f2ab2ebcbc57f1066b8b46", "name": "Supermarket", "pluralName": "Supermarkets", "shortName": "Supermarket", "icon": {"prefix": "https://ss3.4sqi.net/img/categories_v2/shops/food_grocery_", "suffix": ".png"}, "primary": true}], "photos": {"count": 0, "groups": []}, "venuePage": {"id": "562610776"}}, "referralId": "e-0-4bf5477298ac0f474be564a8-1"}, {"reasons": {"count": 0, "items": [{"summary": "This spot is popular", "type": "general", "reasonName": "globalInteractionReason"}]}, "venue": {"id": "53b7f999498e4b19fef53179", "name": "Caf\u00e9 MyMoon", "location": {"address": "Markstra\u00dfe 4", "lat": 52.563248, "lng": 13.364068, "labeledLatLngs": [{"label": "display", "lat": 52.563248, "lng": 13.364068}], "distance": 790, "postalCode": "13409", "cc": "DE", "city": "Berlin", "state": "Berlin", "country": "Deutschland", "formattedAddress": ["Markstra\u00dfe 4", "13409 Berlin", "Deutschland"]}, "categories": [{"id": "4bf58dd8d48988d119941735", "name": "Hookah Bar", "pluralName": "Hookah Bars", "shortName": "Hookah Bar", "icon": {"prefix": "https://ss3.4sqi.net/img/categories_v2/nightlife/hookahbar_", "suffix": ".png"}, "primary": true}], "photos": {"count": 0, "groups": []}, "venuePage": {"id": "527569806"}}, "referralId": "e-0-53b7f999498e4b19fef53179-2"}, {"reasons": {"count": 0, "items": [{"summary": "This spot is popular", "type": "general", "reasonName": "globalInteractionReason"}]}, "venue": {"id": "4d7bbc8b86cfa14356d1baa0", "name": "Due Pini", "location": {"address": "Provinzstr. 92", "lat": 52.5681824878267, "lng": 13.37867162866277, "labeledLatLngs": [{"label": "display", "lat": 52.5681824878267, "lng": 13.37867162866277}], "distance": 489, "postalCode": "13409", "cc": "DE", "city": "Berlin", "state": "Berlin", "country": "Deutschland", "formattedAddress": ["Provinzstr. 92", "13409 Berlin", "Deutschland"]}, "categories": [{"id": "4bf58dd8d48988d110941735", "name": "Italian Restaurant", "pluralName": "Italian Restaurants", "shortName": "Italian", "icon": {"prefix": "https://ss3.4sqi.net/img/categories_v2/food/italian_", "suffix": ".png"}, "primary": true}], "photos": {"count": 0, "groups": []}}, "referralId": "e-0-4d7bbc8b86cfa14356d1baa0-3"}, {"reasons": {"count": 0, "items": [{"summary": "This spot is popular", "type": "general", "reasonName": "globalInteractionReason"}]}, "venue": {"id": "5343df45498ebeff7d7b6276", "name": "Pizzeria Alte Forno", "location": {"lat": 52.5639099332425, "lng": 13.363988296504115, "labeledLatLngs": [{"label": "display", "lat": 52.5639099332425, "lng": 13.363988296504115}], "distance": 738, "cc": "DE", "city": "Berlin", "state": "Berlin", "country": "Deutschland", "formattedAddress": ["Berlin", "Deutschland"]}, "categories": [{"id": "4bf58dd8d48988d1ca941735", "name": "Pizza Place", "pluralName": "Pizza Places", "shortName": "Pizza", "icon": {"prefix": "https://ss3.4sqi.net/img/categories_v2/food/pizza_", "suffix": ".png"}, "primary": true}], "photos": {"count": 0, "groups": []}}, "referralId": "e-0-5343df45498ebeff7d7b6276-4"}, {"reasons": {"count": 0, "items": [{"summary": "This spot is popular", "type": "general", "reasonName": "globalInteractionReason"}]}, "venue": {"id": "4f86eae96d8654f4bf805552", "name": "Gr\u00fcner Holl\u00e4nder", "location": {"address": "Stra\u00dfe vor Sch\u00f6nholz 30", "lat": 52.576728862596475, "lng": 13.377801476557075, "labeledLatLngs": [{"label": "display", "lat": 52.576728862596475, "lng": 13.377801476557075}], "distance": 987, "postalCode": "13158", "cc": "DE", "city": "Berlin", "state": "Berlin", "country": "Deutschland", "formattedAddress": ["Stra\u00dfe vor Sch\u00f6nholz 30", "13158 Berlin", "Deutschland"]}, "categories": [{"id": "4bf58dd8d48988d11b951735", "name": "Flower Shop", "pluralName": "Flower Shops", "shortName": "Flower Shop", "icon": {"prefix": "https://ss3.4sqi.net/img/categories_v2/shops/flowershop_", "suffix": ".png"}, "primary": true}], "photos": {"count": 0, "groups": []}}, "referralId": "e-0-4f86eae96d8654f4bf805552-5"}, {"reasons": {"count": 0, "items": [{"summary": "This spot is popular", "type": "general", "reasonName": "globalInteractionReason"}]}, "venue": {"id": "4d135139f898b1f74f25df81", "name": "Bolu Market", "location": {"lat": 52.56776992513547, "lng": 13.362174759676671, "labeledLatLngs": [{"label": "display", "lat": 52.56776992513547, "lng": 13.362174759676671}], "distance": 639, "cc": "DE", "city": "Berlin", "state": "Berlin", "country": "Deutschland", "formattedAddress": ["Berlin", "Deutschland"]}, "categories": [{"id": "4bf58dd8d48988d118951735", "name": "Grocery Store", "pluralName": "Grocery Stores", "shortName": "Grocery Store", "icon": {"prefix": "https://ss3.4sqi.net/img/categories_v2/shops/food_grocery_", "suffix": ".png"}, "primary": true}], "photos": {"count": 0, "groups": []}}, "referralId": "e-0-4d135139f898b1f74f25df81-6"}, {"reasons": {"count": 0, "items": [{"summary": "This spot is popular", "type": "general", "reasonName": "globalInteractionReason"}]}, "venue": {"id": "4cab2cc236fa6dcb5e83d678", "name": "Lidl", "location": {"address": "Provinzstra\u00dfe 30", "lat": 52.56513092264152, "lng": 13.378702998161316, "labeledLatLngs": [{"label": "display", "lat": 52.56513092264152, "lng": 13.378702998161316}], "distance": 630, "postalCode": "13409", "cc": "DE", "city": "Berlin", "state": "Berlin", "country": "Deutschland", "formattedAddress": ["Provinzstra\u00dfe 30", "13409 Berlin-Mitte", "Deutschland"]}, "categories": [{"id": "52f2ab2ebcbc57f1066b8b46", "name": "Supermarket", "pluralName": "Supermarkets", "shortName": "Supermarket", "icon": {"prefix": "https://ss3.4sqi.net/img/categories_v2/shops/food_grocery_", "suffix": ".png"}, "primary": true}], "photos": {"count": 0, "groups": []}, "venuePage": {"id": "573519760"}}, "referralId": "e-0-4cab2cc236fa6dcb5e83d678-7"}, {"reasons": {"count": 0, "items": [{"summary": "This spot is popular", "type": "general", "reasonName": "globalInteractionReason"}]}, "venue": {"id": "4df660b7d4c01ff6b2f5a24c", "name": "Long Li House", "location": {"address": "Residenzstr. 130", "lat": 52.568836738223766, "lng": 13.362708876848004, "labeledLatLngs": [{"label": "display", "lat": 52.568836738223766, "lng": 13.362708876848004}], "distance": 594, "postalCode": "13409", "cc": "DE", "city": "Berlin", "state": "Berlin", "country": "Deutschland", "formattedAddress": ["Residenzstr. 130", "13409 Berlin", "Deutschland"]}, "categories": [{"id": "4bf58dd8d48988d145941735", "name": "Chinese Restaurant", "pluralName": "Chinese Restaurants", "shortName": "Chinese", "icon": {"prefix": "https://ss3.4sqi.net/img/categories_v2/food/asian_", "suffix": ".png"}, "primary": true}], "photos": {"count": 0, "groups": []}}, "referralId": "e-0-4df660b7d4c01ff6b2f5a24c-8"}, {"reasons": {"count": 0, "items": [{"summary": "This spot is popular", "type": "general", "reasonName": "globalInteractionReason"}]}, "venue": {"id": "4f7360fae4b0a60ba5c07145", "name": "EDEKA Lindenberg", "location": {"address": "Markstr. 32-34", "lat": 52.560786, "lng": 13.3658304, "labeledLatLngs": [{"label": "display", "lat": 52.560786, "lng": 13.3658304}], "distance": 963, "postalCode": "13409", "cc": "DE", "city": "Berlin", "state": "Berlin", "country": "Deutschland", "formattedAddress": ["Markstr. 32-34", "13409 Berlin", "Deutschland"]}, "categories": [{"id": "52f2ab2ebcbc57f1066b8b46", "name": "Supermarket", "pluralName": "Supermarkets", "shortName": "Supermarket", "icon": {"prefix": "https://ss3.4sqi.net/img/categories_v2/shops/food_grocery_", "suffix": ".png"}, "primary": true}], "photos": {"count": 0, "groups": []}}, "referralId": "e-0-4f7360fae4b0a60ba5c07145-9"}, {"reasons": {"count": 0, "items": [{"summary": "This spot is popular", "type": "general", "reasonName": "globalInteractionReason"}]}, "venue": {"id": "503fbd0a7e2752ec471b54e6", "name": "Rossmann", "location": {"address": "Residenzstra\u00dfe 42", "lat": 52.565903302324834, "lng": 13.36321569260696, "labeledLatLngs": [{"label": "display", "lat": 52.565903302324834, "lng": 13.36321569260696}], "distance": 642, "postalCode": "13409", "cc": "DE", "city": "Berlin", "state": "Berlin", "country": "Deutschland", "formattedAddress": ["Residenzstra\u00dfe 42", "13409 Berlin", "Deutschland"]}, "categories": [{"id": "5745c2e4498e11e7bccabdbd", "name": "Drugstore", "pluralName": "Drugstores", "shortName": "Drugstore", "icon": {"prefix": "https://ss3.4sqi.net/img/categories_v2/shops/pharmacy_", "suffix": ".png"}, "primary": true}], "photos": {"count": 0, "groups": []}}, "referralId": "e-0-503fbd0a7e2752ec471b54e6-10"}, {"reasons": {"count": 0, "items": [{"summary": "This spot is popular", "type": "general", "reasonName": "globalInteractionReason"}]}, "venue": {"id": "50b51e7fe4b09103506e6224", "name": "La Trattoria Marina", "location": {"address": "Residenzstr. 1", "lat": 52.5731027686803, "lng": 13.35935869822512, "labeledLatLngs": [{"label": "display", "lat": 52.5731027686803, "lng": 13.35935869822512}], "distance": 954, "postalCode": "13409", "cc": "DE", "city": "Berlin", "state": "Berlin", "country": "Deutschland", "formattedAddress": ["Residenzstr. 1", "13409 Berlin", "Deutschland"]}, "categories": [{"id": "55a5a1ebe4b013909087cb7f", "name": "Trattoria/Osteria", "pluralName": "Trattorias/Osterias", "shortName": "Trattoria/Osteria", "icon": {"prefix": "https://ss3.4sqi.net/img/categories_v2/food/italian_", "suffix": ".png"}, "primary": true}], "photos": {"count": 0, "groups": []}}, "referralId": "e-0-50b51e7fe4b09103506e6224-11"}, {"reasons": {"count": 0, "items": [{"summary": "This spot is popular", "type": "general", "reasonName": "globalInteractionReason"}]}, "venue": {"id": "5054937ce4b03ac262a9fc6c", "name": "Deutsche Bank Filiale", "location": {"address": "Residenzstra\u00dfe 115-116", "lat": 52.564954988420226, "lng": 13.364111384673151, "labeledLatLngs": [{"label": "display", "lat": 52.564954988420226, "lng": 13.364111384673151}], "distance": 652, "postalCode": "13409", "cc": "DE", "city": "Berlin", "state": "Berlin", "country": "Deutschland", "formattedAddress": ["Residenzstra\u00dfe 115-116", "13409 Berlin", "Deutschland"]}, "categories": [{"id": "4bf58dd8d48988d10a951735", "name": "Bank", "pluralName": "Banks", "shortName": "Bank", "icon": {"prefix": "https://ss3.4sqi.net/img/categories_v2/shops/financial_", "suffix": ".png"}, "primary": true}], "photos": {"count": 0, "groups": []}}, "referralId": "e-0-5054937ce4b03ac262a9fc6c-12"}, {"reasons": {"count": 0, "items": [{"summary": "This spot is popular", "type": "general", "reasonName": "globalInteractionReason"}]}, "venue": {"id": "4bd09e291f89ce723fbd67ea", "name": "Kolo 77 Apartments", "location": {"address": "Koloniestr. 77", "lat": 52.56680674826175, "lng": 13.38415189937803, "labeledLatLngs": [{"label": "display", "lat": 52.56680674826175, "lng": 13.38415189937803}], "distance": 882, "postalCode": "13359", "cc": "DE", "city": "Berlin", "state": "Berlin", "country": "Deutschland", "formattedAddress": ["Koloniestr. 77", "13359 Berlin", "Deutschland"]}, "categories": [{"id": "4bf58dd8d48988d1f8931735", "name": "Bed & Breakfast", "pluralName": "Bed & Breakfasts", "shortName": "B & B", "icon": {"prefix": "https://ss3.4sqi.net/img/categories_v2/travel/bedandbreakfast_", "suffix": ".png"}, "primary": true}], "photos": {"count": 0, "groups": []}}, "referralId": "e-0-4bd09e291f89ce723fbd67ea-13"}, {"reasons": {"count": 0, "items": [{"summary": "This spot is popular", "type": "general", "reasonName": "globalInteractionReason"}]}, "venue": {"id": "5067419ee4b01437c92d0625", "name": "PENNY", "location": {"address": "Residenzstr. 11", "lat": 52.57201030336214, "lng": 13.359455368087652, "labeledLatLngs": [{"label": "display", "lat": 52.57201030336214, "lng": 13.359455368087652}], "distance": 893, "postalCode": "13409", "cc": "DE", "city": "Berlin", "state": "Berlin", "country": "Deutschland", "formattedAddress": ["Residenzstr. 11", "13409 Berlin", "Deutschland"]}, "categories": [{"id": "52f2ab2ebcbc57f1066b8b46", "name": "Supermarket", "pluralName": "Supermarkets", "shortName": "Supermarket", "icon": {"prefix": "https://ss3.4sqi.net/img/categories_v2/shops/food_grocery_", "suffix": ".png"}, "primary": true}], "photos": {"count": 0, "groups": []}, "venuePage": {"id": "564606973"}}, "referralId": "e-0-5067419ee4b01437c92d0625-14"}, {"reasons": {"count": 0, "items": [{"summary": "This spot is popular", "type": "general", "reasonName": "globalInteractionReason"}]}, "venue": {"id": "5627ad1f498ed06ea0175106", "name": "Kaiser's Supermarkt", "location": {"address": "Residenzstr. 34", "lat": 52.5671740141625, "lng": 13.362588664662146, "labeledLatLngs": [{"label": "display", "lat": 52.5671740141625, "lng": 13.362588664662146}], "distance": 627, "postalCode": "13409", "cc": "DE", "neighborhood": "Residenzstra\u00dfe", "city": "Berlin", "state": "Berlin", "country": "Deutschland", "formattedAddress": ["Residenzstr. 34", "13409 Berlin", "Deutschland"]}, "categories": [{"id": "50be8ee891d4fa8dcc7199a7", "name": "Market", "pluralName": "Markets", "shortName": "Market", "icon": {"prefix": "https://ss3.4sqi.net/img/categories_v2/shops/market_", "suffix": ".png"}, "primary": true}], "photos": {"count": 0, "groups": []}}, "referralId": "e-0-5627ad1f498ed06ea0175106-15"}, {"reasons": {"count": 0, "items": [{"summary": "This spot is popular", "type": "general", "reasonName": "globalInteractionReason"}]}, "venue": {"id": "4fcf61193ac6d9ec99037451", "name": "Lidl", "location": {"address": "Markstr. 39-42", "lat": 52.5619803, "lng": 13.365438, "labeledLatLngs": [{"label": "display", "lat": 52.5619803, "lng": 13.365438}], "distance": 855, "postalCode": "13409", "cc": "DE", "city": "Berlin", "state": "Berlin", "country": "Deutschland", "formattedAddress": ["Markstr. 39-42", "13409 Berlin-Reinickendorf", "Deutschland"]}, "categories": [{"id": "52f2ab2ebcbc57f1066b8b46", "name": "Supermarket", "pluralName": "Supermarkets", "shortName": "Supermarket", "icon": {"prefix": "https://ss3.4sqi.net/img/categories_v2/shops/food_grocery_", "suffix": ".png"}, "primary": true}], "photos": {"count": 0, "groups": []}, "venuePage": {"id": "584309500"}}, "referralId": "e-0-4fcf61193ac6d9ec99037451-16"}, {"reasons": {"count": 0, "items": [{"summary": "This spot is popular", "type": "general", "reasonName": "globalInteractionReason"}]}, "venue": {"id": "57dbe53c498ead918ee270f9", "name": "BabyOne", "location": {"address": "Pankower Allee 47", "lat": 52.565376, "lng": 13.370937, "labeledLatLngs": [{"label": "display", "lat": 52.565376, "lng": 13.370937}], "distance": 374, "postalCode": "13409", "cc": "DE", "city": "Berlin", "state": "Berlin", "country": "Deutschland", "formattedAddress": ["Pankower Allee 47", "13409 Berlin", "Deutschland"]}, "categories": [{"id": "52f2ab2ebcbc57f1066b8b32", "name": "Baby Store", "pluralName": "Baby Stores", "shortName": "Baby Store", "icon": {"prefix": "https://ss3.4sqi.net/img/categories_v2/shops/apparel_kids_", "suffix": ".png"}, "primary": true}], "photos": {"count": 0, "groups": []}}, "referralId": "e-0-57dbe53c498ead918ee270f9-17"}, {"reasons": {"count": 0, "items": [{"summary": "This spot is popular", "type": "general", "reasonName": "globalInteractionReason"}]}, "venue": {"id": "5072c9e6f136065063ae73d1", "name": "Thoben's Backwaren", "location": {"address": "Residenzstr. 34", "lat": 52.56699932743915, "lng": 13.362250328063965, "labeledLatLngs": [{"label": "display", "lat": 52.56699932743915, "lng": 13.362250328063965}], "distance": 654, "postalCode": "13409", "cc": "DE", "city": "Berlin", "state": "Berlin", "country": "Deutschland", "formattedAddress": ["Residenzstr. 34", "13409 Berlin", "Deutschland"]}, "categories": [{"id": "4bf58dd8d48988d16a941735", "name": "Bakery", "pluralName": "Bakeries", "shortName": "Bakery", "icon": {"prefix": "https://ss3.4sqi.net/img/categories_v2/food/bakery_", "suffix": ".png"}, "primary": true}], "photos": {"count": 0, "groups": []}}, "referralId": "e-0-5072c9e6f136065063ae73d1-18"}, {"reasons": {"count": 0, "items": [{"summary": "This spot is popular", "type": "general", "reasonName": "globalInteractionReason"}]}, "venue": {"id": "4cf608dc71538cfaf0dfb22e", "name": "U Franz-Neumann-Platz", "location": {"address": "Marktstr.", "crossStreet": "Franz-Neumann-Platz", "lat": 52.56518037593173, "lng": 13.363779871944091, "labeledLatLngs": [{"label": "display", "lat": 52.56518037593173, "lng": 13.363779871944091}], "distance": 654, "postalCode": "13409", "cc": "DE", "city": "Berlin", "state": "Berlin", "country": "Deutschland", "formattedAddress": ["Marktstr. (Franz-Neumann-Platz)", "13409 Berlin", "Deutschland"]}, "categories": [{"id": "4bf58dd8d48988d1fd931735", "name": "Metro Station", "pluralName": "Metro Stations", "shortName": "Metro", "icon": {"prefix": "https://ss3.4sqi.net/img/categories_v2/travel/subway_", "suffix": ".png"}, "primary": true}], "photos": {"count": 0, "groups": []}}, "referralId": "e-0-4cf608dc71538cfaf0dfb22e-19"}, {"reasons": {"count": 0, "items": [{"summary": "This spot is popular", "type": "general", "reasonName": "globalInteractionReason"}]}, "venue": {"id": "4f8ae14fe4b05ae88a253013", "name": "Caf\u00e9 am See", "location": {"address": "Residenzstr. 43 A", "lat": 52.56521623152846, "lng": 13.362810571794261, "labeledLatLngs": [{"label": "display", "lat": 52.56521623152846, "lng": 13.362810571794261}], "distance": 705, "postalCode": "13409", "cc": "DE", "city": "Berlin", "state": "Berlin", "country": "Deutschland", "formattedAddress": ["Residenzstr. 43 A", "13409 Berlin", "Deutschland"]}, "categories": [{"id": "4bf58dd8d48988d16d941735", "name": "Caf\u00e9", "pluralName": "Caf\u00e9s", "shortName": "Caf\u00e9", "icon": {"prefix": "https://ss3.4sqi.net/img/categories_v2/food/cafe_", "suffix": ".png"}, "primary": true}], "photos": {"count": 0, "groups": []}}, "referralId": "e-0-4f8ae14fe4b05ae88a253013-20"}, {"reasons": {"count": 0, "items": [{"summary": "This spot is popular", "type": "general", "reasonName": "globalInteractionReason"}]}, "venue": {"id": "5225b77711d2cc09f020e64f", "name": "Kaplan D\u00f6nerproduktion", "location": {"address": "Provinz Str 21", "lat": 52.563558, "lng": 13.378178, "labeledLatLngs": [{"label": "display", "lat": 52.563558, "lng": 13.378178}], "distance": 731, "postalCode": "13409", "cc": "DE", "city": "Berlin", "state": "Berlin", "country": "Deutschland", "formattedAddress": ["Provinz Str 21", "13409 Berlin", "Deutschland"]}, "categories": [{"id": "5283c7b4e4b094cb91ec88d8", "name": "Doner Restaurant", "pluralName": "Doner Restaurants", "shortName": "Doner", "icon": {"prefix": "https://ss3.4sqi.net/img/categories_v2/food/turkish_", "suffix": ".png"}, "primary": true}], "photos": {"count": 0, "groups": []}}, "referralId": "e-0-5225b77711d2cc09f020e64f-21"}, {"reasons": {"count": 0, "items": [{"summary": "This spot is popular", "type": "general", "reasonName": "globalInteractionReason"}]}, "venue": {"id": "4e247fbc88774a43b7882061", "name": "Netto Marken-Discount", "location": {"address": "Provinzstr. 77", "lat": 52.5733908, "lng": 13.3793395, "labeledLatLngs": [{"label": "display", "lat": 52.5733908, "lng": 13.3793395}], "distance": 742, "postalCode": "13158", "cc": "DE", "city": "Berlin", "state": "Berlin", "country": "Deutschland", "formattedAddress": ["Provinzstr. 77", "13158 Berlin-Rosenthal", "Deutschland"]}, "categories": [{"id": "52f2ab2ebcbc57f1066b8b46", "name": "Supermarket", "pluralName": "Supermarkets", "shortName": "Supermarket", "icon": {"prefix": "https://ss3.4sqi.net/img/categories_v2/shops/food_grocery_", "suffix": ".png"}, "primary": true}], "photos": {"count": 0, "groups": []}, "venuePage": {"id": "535031134"}}, "referralId": "e-0-4e247fbc88774a43b7882061-22"}, {"reasons": {"count": 0, "items": [{"summary": "This spot is popular", "type": "general", "reasonName": "globalInteractionReason"}]}, "venue": {"id": "4f359d3a121dc07a24002b63", "name": "U Residenzstra\u00dfe", "location": {"address": "Residenzstr.", "crossStreet": "Emmentaler Str.", "lat": 52.57072021899454, "lng": 13.36078982974696, "labeledLatLngs": [{"label": "display", "lat": 52.57072021899454, "lng": 13.36078982974696}], "distance": 757, "postalCode": "13409", "cc": "DE", "city": "Berlin", "state": "Berlin", "country": "Deutschland", "formattedAddress": ["Residenzstr. (Emmentaler Str.)", "13409 Berlin", "Deutschland"]}, "categories": [{"id": "4bf58dd8d48988d1fd931735", "name": "Metro Station", "pluralName": "Metro Stations", "shortName": "Metro", "icon": {"prefix": "https://ss3.4sqi.net/img/categories_v2/travel/subway_", "suffix": ".png"}, "primary": true}], "photos": {"count": 0, "groups": []}}, "referralId": "e-0-4f359d3a121dc07a24002b63-23"}, {"reasons": {"count": 0, "items": [{"summary": "This spot is popular", "type": "general", "reasonName": "globalInteractionReason"}]}, "venue": {"id": "572b681c498e2516709d0420", "name": "Mastro Eis", "location": {"address": "Residenzstra\u00dfe 19-20", "lat": 52.570623, "lng": 13.360616, "labeledLatLngs": [{"label": "display", "lat": 52.570623, "lng": 13.360616}], "distance": 765, "cc": "DE", "city": "Berlin", "state": "Berlin", "country": "Deutschland", "formattedAddress": ["Residenzstra\u00dfe 19-20", "Berlin", "Deutschland"]}, "categories": [{"id": "4bf58dd8d48988d1c9941735", "name": "Ice Cream Shop", "pluralName": "Ice Cream Shops", "shortName": "Ice Cream", "icon": {"prefix": "https://ss3.4sqi.net/img/categories_v2/food/icecream_", "suffix": ".png"}, "primary": true}], "photos": {"count": 0, "groups": []}}, "referralId": "e-0-572b681c498e2516709d0420-24"}, {"reasons": {"count": 0, "items": [{"summary": "This spot is popular", "type": "general", "reasonName": "globalInteractionReason"}]}, "venue": {"id": "544e31f5498e22c6b8e21e5d", "name": "Franz-Neumann-Platz", "location": {"lat": 52.562764626542204, "lng": 13.364804519388626, "labeledLatLngs": [{"label": "display", "lat": 52.562764626542204, "lng": 13.364804519388626}], "distance": 803, "cc": "DE", "city": "Berlin", "state": "Berlin", "country": "Deutschland", "formattedAddress": ["Berlin", "Deutschland"]}, "categories": [{"id": "4bf58dd8d48988d164941735", "name": "Plaza", "pluralName": "Plazas", "shortName": "Plaza", "icon": {"prefix": "https://ss3.4sqi.net/img/categories_v2/parks_outdoors/plaza_", "suffix": ".png"}, "primary": true}], "photos": {"count": 0, "groups": []}}, "referralId": "e-0-544e31f5498e22c6b8e21e5d-25"}, {"reasons": {"count": 0, "items": [{"summary": "This spot is popular", "type": "general", "reasonName": "globalInteractionReason"}]}, "venue": {"id": "508bd963e4b08e7b433f3d54", "name": "H Fr\u00fchlingstra\u00dfe", "location": {"lat": 52.573702963925236, "lng": 13.380880970910544, "labeledLatLngs": [{"label": "display", "lat": 52.573702963925236, "lng": 13.380880970910544}], "distance": 842, "cc": "DE", "city": "Berlin", "state": "Berlin", "country": "Deutschland", "formattedAddress": ["Berlin", "Deutschland"]}, "categories": [{"id": "52f2ab2ebcbc57f1066b8b4f", "name": "Bus Stop", "pluralName": "Bus Stops", "shortName": "Bus Stop", "icon": {"prefix": "https://ss3.4sqi.net/img/categories_v2/travel/busstation_", "suffix": ".png"}, "primary": true}], "photos": {"count": 0, "groups": []}}, "referralId": "e-0-508bd963e4b08e7b433f3d54-26"}, {"reasons": {"count": 0, "items": [{"summary": "This spot is popular", "type": "general", "reasonName": "globalInteractionReason"}]}, "venue": {"id": "5308a4c3498ece8b3f701f80", "name": "Sch\u00e4fersee", "location": {"address": "Am Sch\u00e4fersee", "lat": 52.564638537445454, "lng": 13.360834121704102, "labeledLatLngs": [{"label": "display", "lat": 52.564638537445454, "lng": 13.360834121704102}], "distance": 853, "postalCode": "13407", "cc": "DE", "city": "Berlin", "state": "Berlin", "country": "Deutschland", "formattedAddress": ["Am Sch\u00e4fersee", "13407 Berlin", "Deutschland"]}, "categories": [{"id": "4bf58dd8d48988d161941735", "name": "Lake", "pluralName": "Lakes", "shortName": "Lake", "icon": {"prefix": "https://ss3.4sqi.net/img/categories_v2/parks_outdoors/lake_", "suffix": ".png"}, "primary": true}], "photos": {"count": 0, "groups": []}}, "referralId": "e-0-5308a4c3498ece8b3f701f80-27"}, {"reasons": {"count": 0, "items": [{"summary": "This spot is popular", "type": "general", "reasonName": "globalInteractionReason"}]}, "venue": {"id": "4f1fd2c7e4b057da8c2db3e8", "name": "Nikon Service Point", "location": {"address": "Reginhardstr. 34", "lat": 52.56069699726998, "lng": 13.37138723216662, "labeledLatLngs": [{"label": "display", "lat": 52.56069699726998, "lng": 13.37138723216662}], "distance": 893, "cc": "DE", "city": "Berlin", "state": "Berlin", "country": "Deutschland", "formattedAddress": ["Reginhardstr. 34", "Berlin", "Deutschland"]}, "categories": [{"id": "4eb1bdf03b7b55596b4a7491", "name": "Camera Store", "pluralName": "Camera Stores", "shortName": "Camera Store", "icon": {"prefix": "https://ss3.4sqi.net/img/categories_v2/shops/camerastore_", "suffix": ".png"}, "primary": true}], "photos": {"count": 0, "groups": []}}, "referralId": "e-0-4f1fd2c7e4b057da8c2db3e8-28"}, {"reasons": {"count": 0, "items": [{"summary": "This spot is popular", "type": "general", "reasonName": "globalInteractionReason"}]}, "venue": {"id": "57c347ef498e722e47c0e88c", "name": "Resi's Multishop", "location": {"lat": 52.57295, "lng": 13.3595085, "labeledLatLngs": [{"label": "display", "lat": 52.57295, "lng": 13.3595085}], "distance": 937, "cc": "DE", "city": "Berlin", "state": "Berlin", "country": "Deutschland", "formattedAddress": ["Berlin", "Deutschland"]}, "categories": [{"id": "4d954b0ea243a5684a65b473", "name": "Convenience Store", "pluralName": "Convenience Stores", "shortName": "Convenience Store", "icon": {"prefix": "https://ss3.4sqi.net/img/categories_v2/shops/conveniencestore_", "suffix": ".png"}, "primary": true}], "photos": {"count": 0, "groups": []}}, "referralId": "e-0-57c347ef498e722e47c0e88c-29"}, {"reasons": {"count": 0, "items": [{"summary": "This spot is popular", "type": "general", "reasonName": "globalInteractionReason"}]}, "venue": {"id": "56000bae498ee8426f82b53a", "name": "Netto Deutschland - schwarz-gelber Discounter mit dem Scottie", "location": {"address": "Stra\u00dfe Vor Sch\u00f6nholz 5", "lat": 52.5762156, "lng": 13.378331, "labeledLatLngs": [{"label": "display", "lat": 52.5762156, "lng": 13.378331}], "distance": 953, "postalCode": "13158", "cc": "DE", "city": "Berlin", "state": "Berlin", "country": "Deutschland", "formattedAddress": ["Stra\u00dfe Vor Sch\u00f6nholz 5", "13158 Berlin", "Deutschland"]}, "categories": [{"id": "52f2ab2ebcbc57f1066b8b46", "name": "Supermarket", "pluralName": "Supermarkets", "shortName": "Supermarket", "icon": {"prefix": "https://ss3.4sqi.net/img/categories_v2/shops/food_grocery_", "suffix": ".png"}, "primary": true}], "photos": {"count": 0, "groups": []}, "venuePage": {"id": "451282014"}}, "referralId": "e-0-56000bae498ee8426f82b53a-30"}]