[{"reasons": {"count": 0, "items": [{"summary": "This spot is popular", "type": "general", "reasonName": "globalInteractionReason"}]}, "venue": {"id": "5b112c153e70ff0024d0b0d1", "name": "R\u00fcya Gem\u00fcse Kebab", "location": {"lat": 52.513783, "lng": 13.317013, "labeledLatLngs": [{"label": "display", "lat": 52.513783, "lng": 13.317013}], "distance": 239, "cc": "DE", "country": "Deutschland", "formattedAddress": ["Deutschland"]}, "categories": [{"id": "5283c7b4e4b094cb91ec88d7", "name": "Kebab Restaurant", "pluralName": "Kebab Restaurants", "shortName": "Kebab", "icon": {"prefix": "https://ss3.4sqi.net/img/categories_v2/food/middleeastern_", "suffix": ".png"}, "primary": true}], "photos": {"count": 0, "groups": []}}, "referralId": "e-0-5b112c153e70ff0024d0b0d1-0"}, {"reasons": {"count": 0, "items": [{"summary": "This spot is popular", "type": "general", "reasonName": "globalInteractionReason"}]}, "venue": {"id": "4adcda76f964a520d84521e3", "name": "Schnitzelei", "location": {"address": "R\u00f6ntgenstr. 7", "lat": 52.51981352818285, "lng": 13.31462825766602, "labeledLatLngs": [{"label": "display", "lat": 52.51981352818285, "lng": 13.31462825766602}], "distance": 531, "postalCode": "10587", "cc": "DE", "city": "Berlin", "state": "Berlin", "country": "Deutschland", "formattedAddress": ["R\u00f6ntgenstr. 7", "10587 Berlin", "Deutschland"]}, "categories": [{"id": "56aa371ce4b08b9a8d573587", "name": "Schnitzel Restaurant", "pluralName": "Schnitzel Restaurants", "shortName": "Schnitzel", "icon": {"prefix": "https://ss3.4sqi.net/img/categories_v2/food/german_", "suffix": ".png"}, "primary": true}], "photos": {"count": 0, "groups": []}}, "referralId": "e-0-4adcda76f964a520d84521e3-1"}, {"reasons": {"count": 0, "items": [{"summary": "This spot is popular", "type": "general", "reasonName": "globalInteractionReason"}]}, "venue": {"id": "5679654d498e19c3c12a26c3", "name": "Manufactum Warenhaus", "location": {"address": "Hardenbergstr. 4-5", "lat": 52.51115322060605, "lng": 13.322805907441097, "labeledLatLngs": [{"label": "display", "lat": 52.51115322060605, "lng": 13.322805907441097}], "distance": 580, "postalCode": "10623", "cc": "DE", "city": "Charlottenburg", "state": "Berlin", "country": "Deutschland", "formattedAddress": ["Hardenbergstr. 4-5", "10623 Charlottenburg", "Deutschland"]}, "categories": [{"id": "4bf58dd8d48988d1f8941735", "name": "Furniture / Home Store", "pluralName": "Furniture / Home Stores", "shortName": "Furniture / Home", "icon": {"prefix": "https://ss3.4sqi.net/img/categories_v2/shops/furniture_", "suffix": ".png"}, "primary": true}], "photos": {"count": 0, "groups": []}}, "referralId": "e-0-5679654d498e19c3c12a26c3-2"}, {"reasons": {"count": 0, "items": [{"summary": "This spot is popular", "type": "general", "reasonName": "globalInteractionReason"}]}, "venue": {"id": "4adcda8bf964a520de4921e3", "name": "Schillertheater", "location": {"address": "Bismarckstr. 110", "lat": 52.51188758321821, "lng": 13.31795003802138, "labeledLatLngs": [{"label": "display", "lat": 52.51188758321821, "lng": 13.31795003802138}], "distance": 427, "postalCode": "10625", "cc": "DE", "city": "Berlin", "state": "Berlin", "country": "Deutschland", "formattedAddress": ["Bismarckstr. 110", "10625 Berlin", "Deutschland"]}, "categories": [{"id": "4bf58dd8d48988d137941735", "name": "Theater", "pluralName": "Theaters", "shortName": "Theater", "icon": {"prefix": "https://ss3.4sqi.net/img/categories_v2/arts_entertainment/performingarts_theater_", "suffix": ".png"}, "primary": true}], "photos": {"count": 0, "groups": []}}, "referralId": "e-0-4adcda8bf964a520de4921e3-3"}, {"reasons": {"count": 0, "items": [{"summary": "This spot is popular", "type": "general", "reasonName": "globalInteractionReason"}]}, "venue": {"id": "4b5062e2f964a520e82127e3", "name": "Cafeteria TU \"Skyline\"", "location": {"address": "Ernst-Reuter-Platz 7", "lat": 52.51287794429001, "lng": 13.320043087005613, "labeledLatLngs": [{"label": "display", "lat": 52.51287794429001, "lng": 13.320043087005613}], "distance": 328, "postalCode": "10587", "cc": "DE", "city": "Berlin", "state": "Berlin", "country": "Deutschland", "formattedAddress": ["Ernst-Reuter-Platz 7", "10587 Berlin", "Deutschland"]}, "categories": [{"id": "4bf58dd8d48988d1a1941735", "name": "College Cafeteria", "pluralName": "College Cafeterias", "shortName": "Cafeteria", "icon": {"prefix": "https://ss3.4sqi.net/img/categories_v2/education/cafeteria_", "suffix": ".png"}, "primary": true}], "photos": {"count": 0, "groups": []}}, "referralId": "e-0-4b5062e2f964a520e82127e3-4"}, {"reasons": {"count": 0, "items": [{"summary": "This spot is popular", "type": "general", "reasonName": "globalInteractionReason"}]}, "venue": {"id": "4b55a362f964a520fee927e3", "name": "China Bistro Tu Long", "location": {"address": "Otto-Suhr-Allee 25", "lat": 52.51427226517844, "lng": 13.316556744914106, "labeledLatLngs": [{"label": "display", "lat": 52.51427226517844, "lng": 13.316556744914106}], "distance": 212, "postalCode": "10585", "cc": "DE", "city": "Berlin", "state": "Berlin", "country": "Deutschland", "formattedAddress": ["Otto-Suhr-Allee 25", "10585 Berlin", "Deutschland"]}, "categories": [{"id": "4bf58dd8d48988d145941735", "name": "Chinese Restaurant", "pluralName": "Chinese Restaurants", "shortName": "Chinese", "icon": {"prefix": "https://ss3.4sqi.net/img/categories_v2/food/asian_", "suffix": ".png"}, "primary": true}], "photos": {"count": 0, "groups": []}}, "referralId": "e-0-4b55a362f964a520fee927e3-5"}, {"reasons": {"count": 0, "items": [{"summary": "This spot is popular", "type": "general", "reasonName": "globalInteractionReason"}]}, "venue": {"id": "4b3b6e3af964a520ae7325e3", "name": "Frischeparadies Lindenberg", "location": {"address": "Morsestr. 2", "lat": 52.52149966368996, "lng": 13.321692536965937, "labeledLatLngs": [{"label": "display", "lat": 52.52149966368996, "lng": 13.321692536965937}], "distance": 677, "postalCode": "10587", "cc": "DE", "city": "Berlin", "state": "Berlin", "country": "Deutschland", "formattedAddress": ["Morsestr. 2", "10587 Berlin", "Deutschland"]}, "categories": [{"id": "4bf58dd8d48988d1f5941735", "name": "Gourmet Shop", "pluralName": "Gourmet Shops", "shortName": "Gourmet", "icon": {"prefix": "https://ss3.4sqi.net/img/categories_v2/shops/food_gourmet_", "suffix": ".png"}, "primary": true}], "photos": {"count": 0, "groups": []}}, "referralId": "e-0-4b3b6e3af964a520ae7325e3-6"}, {"reasons": {"count": 0, "items": [{"summary": "This spot is popular", "type": "general", "reasonName": "globalInteractionReason"}]}, "venue": {"id": "4b66dbe4f964a520b02d2be3", "name": "ACTIVSPORTS", "location": {"address": "Salzufer 13", "lat": 52.51845666816279, "lng": 13.323558599282181, "labeledLatLngs": [{"label": "display", "lat": 52.51845666816279, "lng": 13.323558599282181}], "distance": 453, "postalCode": "10587", "cc": "DE", "city": "Berlin", "state": "Berlin", "country": "Deutschland", "formattedAddress": ["Salzufer 13", "10587 Berlin", "Deutschland"]}, "categories": [{"id": "4bf58dd8d48988d175941735", "name": "Gym / Fitness Center", "pluralName": "Gyms or Fitness Centers", "shortName": "Gym / Fitness", "icon": {"prefix": "https://ss3.4sqi.net/img/categories_v2/building/gym_", "suffix": ".png"}, "primary": true}], "photos": {"count": 0, "groups": []}}, "referralId": "e-0-4b66dbe4f964a520b02d2be3-7"}, {"reasons": {"count": 0, "items": [{"summary": "This spot is popular", "type": "general", "reasonName": "globalInteractionReason"}]}, "venue": {"id": "4f83ec69e4b04e2462efa815", "name": "Alt-Lietzow Platz", "location": {"address": "Alt-Lietzow, 10587 Berlin", "lat": 52.51681495986897, "lng": 13.314436948623596, "labeledLatLngs": [{"label": "display", "lat": 52.51681495986897, "lng": 13.314436948623596}], "distance": 309, "postalCode": "10587", "cc": "DE", "city": "Berlin", "state": "Berlin", "country": "Deutschland", "formattedAddress": ["Alt-Lietzow, 10587 Berlin", "10587 Berlin", "Deutschland"]}, "categories": [{"id": "4bf58dd8d48988d164941735", "name": "Plaza", "pluralName": "Plazas", "shortName": "Plaza", "icon": {"prefix": "https://ss3.4sqi.net/img/categories_v2/parks_outdoors/plaza_", "suffix": ".png"}, "primary": true}], "photos": {"count": 0, "groups": []}}, "referralId": "e-0-4f83ec69e4b04e2462efa815-8"}, {"reasons": {"count": 0, "items": [{"summary": "This spot is popular", "type": "general", "reasonName": "globalInteractionReason"}]}, "venue": {"id": "4bd6bba1cfa7b713bff327da", "name": "Deutsche Oper Berlin", "location": {"address": "Bismarckstr. 35", "crossStreet": "Richard-Wagner-Str.", "lat": 52.5120878812058, "lng": 13.308354020118713, "labeledLatLngs": [{"label": "display", "lat": 52.5120878812058, "lng": 13.308354020118713}], "distance": 803, "postalCode": "10627", "cc": "DE", "neighborhood": "Charlottenburg", "city": "Berlin", "state": "Berlin", "country": "Deutschland", "formattedAddress": ["Bismarckstr. 35 (Richard-Wagner-Str.)", "10627 Berlin", "Deutschland"]}, "categories": [{"id": "4bf58dd8d48988d136941735", "name": "Opera House", "pluralName": "Opera Houses", "shortName": "Opera House", "icon": {"prefix": "https://ss3.4sqi.net/img/categories_v2/arts_entertainment/performingarts_operahouse_", "suffix": ".png"}, "primary": true}], "photos": {"count": 0, "groups": []}}, "referralId": "e-0-4bd6bba1cfa7b713bff327da-9"}, {"reasons": {"count": 0, "items": [{"summary": "This spot is popular", "type": "general", "reasonName": "globalInteractionReason"}]}, "venue": {"id": "4f2f8667e4b040ea0162436d", "name": "myleo crossfit", "location": {"address": "Franklinstr. 10", "crossStreet": "Hof 1", "lat": 52.52015618230657, "lng": 13.328090677133162, "labeledLatLngs": [{"label": "display", "lat": 52.52015618230657, "lng": 13.328090677133162}], "distance": 810, "postalCode": "10587", "cc": "DE", "city": "Berlin", "state": "Berlin", "country": "Deutschland", "formattedAddress": ["Franklinstr. 10 (Hof 1)", "10587 Berlin", "Deutschland"]}, "categories": [{"id": "4bf58dd8d48988d176941735", "name": "Gym", "pluralName": "Gyms", "shortName": "Gym", "icon": {"prefix": "https://ss3.4sqi.net/img/categories_v2/building/gym_", "suffix": ".png"}, "primary": true}], "photos": {"count": 0, "groups": []}}, "referralId": "e-0-4f2f8667e4b040ea0162436d-10"}, {"reasons": {"count": 0, "items": [{"summary": "This spot is popular", "type": "general", "reasonName": "globalInteractionReason"}]}, "venue": {"id": "5a4e479ef870fd2aad8e18e9", "name": "Illuminati Escape", "location": {"address": "Abbestra\u00dfe 17", "lat": 52.5174417496916, "lng": 13.32131177186966, "labeledLatLngs": [{"label": "display", "lat": 52.5174417496916, "lng": 13.32131177186966}], "distance": 265, "postalCode": "10587", "cc": "DE", "city": "Berlin", "state": "Berlin", "country": "Deutschland", "formattedAddress": ["Abbestra\u00dfe 17", "10587 Berlin", "Deutschland"]}, "categories": [{"id": "4bf58dd8d48988d17c941735", "name": "Casino", "pluralName": "Casinos", "shortName": "Casino", "icon": {"prefix": "https://ss3.4sqi.net/img/categories_v2/arts_entertainment/casino_", "suffix": ".png"}, "primary": true}], "photos": {"count": 0, "groups": []}}, "referralId": "e-0-5a4e479ef870fd2aad8e18e9-11"}, {"reasons": {"count": 0, "items": [{"summary": "This spot is popular", "type": "general", "reasonName": "globalInteractionReason"}]}, "venue": {"id": "4cd7d351da85224bcf3d49ca", "name": "Schillerklause", "location": {"address": "Schillerstr. 10", "lat": 52.51111345053065, "lng": 13.318212767959649, "labeledLatLngs": [{"label": "display", "lat": 52.51111345053065, "lng": 13.318212767959649}], "distance": 511, "postalCode": "10625", "cc": "DE", "city": "Berlin", "state": "Berlin", "country": "Deutschland", "formattedAddress": ["Schillerstr. 10", "10625 Berlin", "Deutschland"]}, "categories": [{"id": "4bf58dd8d48988d155941735", "name": "Gastropub", "pluralName": "Gastropubs", "shortName": "Gastropub", "icon": {"prefix": "https://ss3.4sqi.net/img/categories_v2/food/gastropub_", "suffix": ".png"}, "primary": true}], "photos": {"count": 0, "groups": []}}, "referralId": "e-0-4cd7d351da85224bcf3d49ca-12"}, {"reasons": {"count": 0, "items": [{"summary": "This spot is popular", "type": "general", "reasonName": "globalInteractionReason"}]}, "venue": {"id": "4c4c75dc9c8d2d7fed55756c", "name": "Trattoria Rathaus Piazza", "location": {"address": "Otto-Suhr-Allee 94", "lat": 52.51677774365783, "lng": 13.308748105084467, "labeledLatLngs": [{"label": "display", "lat": 52.51677774365783, "lng": 13.308748105084467}], "distance": 679, "postalCode": "10585", "cc": "DE", "city": "Berlin", "state": "Berlin", "country": "Deutschland", "formattedAddress": ["Otto-Suhr-Allee 94", "10585 Berlin", "Deutschland"]}, "categories": [{"id": "55a5a1ebe4b013909087cb7f", "name": "Trattoria/Osteria", "pluralName": "Trattorias/Osterias", "shortName": "Trattoria/Osteria", "icon": {"prefix": "https://ss3.4sqi.net/img/categories_v2/food/italian_", "suffix": ".png"}, "primary": true}], "photos": {"count": 0, "groups": []}}, "referralId": "e-0-4c4c75dc9c8d2d7fed55756c-13"}, {"reasons": {"count": 0, "items": [{"summary": "This spot is popular", "type": "general", "reasonName": "globalInteractionReason"}]}, "venue": {"id": "4c59eb072091a5933d1e5ed0", "name": "Union Jack - The Whiskey Pub", "location": {"address": "Schl\u00fcterstr. 15", "lat": 52.50807842351863, "lng": 13.317868494769204, "labeledLatLngs": [{"label": "display", "lat": 52.50807842351863, "lng": 13.317868494769204}], "distance": 850, "postalCode": "10625", "cc": "DE", "city": "Berlin", "state": "Berlin", "country": "Deutschland", "formattedAddress": ["Schl\u00fcterstr. 15", "10625 Berlin", "Deutschland"]}, "categories": [{"id": "4bf58dd8d48988d122941735", "name": "Whisky Bar", "pluralName": "Whisky Bars", "shortName": "Whisky Bar", "icon": {"prefix": "https://ss3.4sqi.net/img/categories_v2/nightlife/whiskey_", "suffix": ".png"}, "primary": true}], "photos": {"count": 0, "groups": []}}, "referralId": "e-0-4c59eb072091a5933d1e5ed0-14"}, {"reasons": {"count": 0, "items": [{"summary": "This spot is popular", "type": "general", "reasonName": "globalInteractionReason"}]}, "venue": {"id": "4c5a9dfff346c928a25c4fca", "name": "Original Taiwanesische Bauernstube", "location": {"address": "Morsestr. 3", "lat": 52.52134435152118, "lng": 13.322479040254438, "labeledLatLngs": [{"label": "display", "lat": 52.52134435152118, "lng": 13.322479040254438}], "distance": 680, "postalCode": "10587", "cc": "DE", "city": "Berlin", "state": "Berlin", "country": "Deutschland", "formattedAddress": ["Morsestr. 3", "10587 Berlin", "Deutschland"]}, "categories": [{"id": "4bf58dd8d48988d142941735", "name": "Asian Restaurant", "pluralName": "Asian Restaurants", "shortName": "Asian", "icon": {"prefix": "https://ss3.4sqi.net/img/categories_v2/food/asian_", "suffix": ".png"}, "primary": true}], "photos": {"count": 0, "groups": []}}, "referralId": "e-0-4c5a9dfff346c928a25c4fca-15"}, {"reasons": {"count": 0, "items": [{"summary": "This spot is popular", "type": "general", "reasonName": "globalInteractionReason"}]}, "venue": {"id": "4c0a0a91340720a118d78593", "name": "Spirit Yoga West & Spa", "location": {"address": "Goethestr. 2-3", "lat": 52.50886994056341, "lng": 13.323462602477589, "labeledLatLngs": [{"label": "display", "lat": 52.50886994056341, "lng": 13.323462602477589}], "distance": 828, "postalCode": "10623", "cc": "DE", "city": "Berlin", "state": "Berlin", "country": "Deutschland", "formattedAddress": ["Goethestr. 2-3", "10623 Berlin", "Deutschland"]}, "categories": [{"id": "4bf58dd8d48988d102941735", "name": "Yoga Studio", "pluralName": "Yoga Studios", "shortName": "Yoga Studio", "icon": {"prefix": "https://ss3.4sqi.net/img/categories_v2/shops/gym_yogastudio_", "suffix": ".png"}, "primary": true}], "photos": {"count": 0, "groups": []}}, "referralId": "e-0-4c0a0a91340720a118d78593-16"}, {"reasons": {"count": 0, "items": [{"summary": "This spot is popular", "type": "general", "reasonName": "globalInteractionReason"}]}, "venue": {"id": "5ab67298fd9d732167fae0b0", "name": "Reeham Coffee", "location": {"address": "Schl\u00fcterstr. 12", "crossStreet": "Goethestr.", "lat": 52.50866787327402, "lng": 13.3179269464631, "labeledLatLngs": [{"label": "display", "lat": 52.50866787327402, "lng": 13.3179269464631}], "distance": 784, "postalCode": "10625", "cc": "DE", "neighborhood": "Charlottenburg", "city": "Berlin", "state": "Berlin", "country": "Deutschland", "formattedAddress": ["Schl\u00fcterstr. 12 (Goethestr.)", "10625 Berlin", "Deutschland"]}, "categories": [{"id": "4bf58dd8d48988d1e0931735", "name": "Coffee Shop", "pluralName": "Coffee Shops", "shortName": "Coffee Shop", "icon": {"prefix": "https://ss3.4sqi.net/img/categories_v2/food/coffeeshop_", "suffix": ".png"}, "primary": true}], "photos": {"count": 0, "groups": []}}, "referralId": "e-0-5ab67298fd9d732167fae0b0-17"}, {"reasons": {"count": 0, "items": [{"summary": "This spot is popular", "type": "general", "reasonName": "globalInteractionReason"}]}, "venue": {"id": "4af56d70f964a5201ff921e3", "name": "Manufactum (Brot und Butter)", "location": {"address": "Hardenbergstr. 4", "lat": 52.51100055114238, "lng": 13.323126212166125, "labeledLatLngs": [{"label": "display", "lat": 52.51100055114238, "lng": 13.323126212166125}], "distance": 605, "postalCode": "10623", "cc": "DE", "city": "Berlin", "state": "Berlin", "country": "Deutschland", "formattedAddress": ["Hardenbergstr. 4", "10623 Berlin", "Deutschland"]}, "categories": [{"id": "4bf58dd8d48988d16a941735", "name": "Bakery", "pluralName": "Bakeries", "shortName": "Bakery", "icon": {"prefix": "https://ss3.4sqi.net/img/categories_v2/food/bakery_", "suffix": ".png"}, "primary": true}], "photos": {"count": 0, "groups": []}}, "referralId": "e-0-4af56d70f964a5201ff921e3-18"}, {"reasons": {"count": 0, "items": [{"summary": "This spot is popular", "type": "general", "reasonName": "globalInteractionReason"}]}, "venue": {"id": "4adcda8cf964a520284a21e3", "name": "Renaissance-Theater", "location": {"address": "Knesebeckstr. 100", "lat": 52.510672038637495, "lng": 13.323363948511016, "labeledLatLngs": [{"label": "display", "lat": 52.510672038637495, "lng": 13.323363948511016}], "distance": 645, "postalCode": "10623", "cc": "DE", "city": "Berlin", "state": "Berlin", "country": "Deutschland", "formattedAddress": ["Knesebeckstr. 100", "10623 Berlin", "Deutschland"]}, "categories": [{"id": "4bf58dd8d48988d137941735", "name": "Theater", "pluralName": "Theaters", "shortName": "Theater", "icon": {"prefix": "https://ss3.4sqi.net/img/categories_v2/arts_entertainment/performingarts_theater_", "suffix": ".png"}, "primary": true}], "photos": {"count": 0, "groups": []}}, "referralId": "e-0-4adcda8cf964a520284a21e3-19"}, {"reasons": {"count": 0, "items": [{"summary": "This spot is popular", "type": "general", "reasonName": "globalInteractionReason"}]}, "venue": {"id": "4adcda8ef964a520b24a21e3", "name": "Wochenmarkt Karl-August-Platz", "location": {"address": "Karl-August-Platz", "crossStreet": "Weimarer Str.", "lat": 52.50865, "lng": 13.311159, "labeledLatLngs": [{"label": "display", "lat": 52.50865, "lng": 13.311159}], "distance": 933, "postalCode": "10625", "cc": "DE", "neighborhood": "Charlottenburg", "city": "Berlin", "state": "Berlin", "country": "Deutschland", "formattedAddress": ["Karl-August-Platz (Weimarer Str.)", "10625 Berlin", "Deutschland"]}, "categories": [{"id": "4bf58dd8d48988d1fa941735", "name": "Farmers Market", "pluralName": "Farmers Markets", "shortName": "Farmer's Market", "icon": {"prefix": "https://ss3.4sqi.net/img/categories_v2/shops/food_farmersmarket_", "suffix": ".png"}, "primary": true}], "photos": {"count": 0, "groups": []}}, "referralId": "e-0-4adcda8ef964a520b24a21e3-20"}, {"reasons": {"count": 0, "items": [{"summary": "This spot is popular", "type": "general", "reasonName": "globalInteractionReason"}]}, "venue": {"id": "4b715453f964a52060412de3", "name": "Bio Fein Bio", "location": {"address": "Leibnizstr.30", "lat": 52.51120687742219, "lng": 13.311980766406478, "labeledLatLngs": [{"label": "display", "lat": 52.51120687742219, "lng": 13.311980766406478}], "distance": 673, "postalCode": "10625", "cc": "DE", "neighborhood": "Charlottenburg", "city": "Berlin", "state": "Berlin", "country": "Deutschland", "formattedAddress": ["Leibnizstr.30", "10625 Berlin", "Deutschland"]}, "categories": [{"id": "4bf58dd8d48988d1e0931735", "name": "Coffee Shop", "pluralName": "Coffee Shops", "shortName": "Coffee Shop", "icon": {"prefix": "https://ss3.4sqi.net/img/categories_v2/food/coffeeshop_", "suffix": ".png"}, "primary": true}], "photos": {"count": 0, "groups": []}}, "referralId": "e-0-4b715453f964a52060412de3-21"}, {"reasons": {"count": 0, "items": [{"summary": "This spot is popular", "type": "general", "reasonName": "globalInteractionReason"}]}, "venue": {"id": "4b30fb6ef964a520a6fd24e3", "name": "Curry Station 36", "location": {"address": "Otto-Suhr-Allee 36", "lat": 52.514946338401884, "lng": 13.315115281199617, "labeledLatLngs": [{"label": "display", "lat": 52.514946338401884, "lng": 13.315115281199617}], "distance": 252, "postalCode": "10585", "cc": "DE", "city": "Berlin", "state": "Berlin", "country": "Deutschland", "formattedAddress": ["Otto-Suhr-Allee 36", "10585 Berlin", "Deutschland"]}, "categories": [{"id": "4bf58dd8d48988d16e941735", "name": "Fast Food Restaurant", "pluralName": "Fast Food Restaurants", "shortName": "Fast Food", "icon": {"prefix": "https://ss3.4sqi.net/img/categories_v2/food/fastfood_", "suffix": ".png"}, "primary": true}], "photos": {"count": 0, "groups": []}}, "referralId": "e-0-4b30fb6ef964a520a6fd24e3-22"}, {"reasons": {"count": 0, "items": [{"summary": "This spot is popular", "type": "general", "reasonName": "globalInteractionReason"}]}, "venue": {"id": "4adcda89f964a520a14921e3", "name": "A-Trane", "location": {"address": "Bleibtreustr. 1", "crossStreet": "Pestalozzistr.", "lat": 52.50728516736879, "lng": 13.320102095603943, "labeledLatLngs": [{"label": "display", "lat": 52.50728516736879, "lng": 13.320102095603943}], "distance": 942, "postalCode": "10625", "cc": "DE", "city": "Berlin", "state": "Berlin", "country": "Deutschland", "formattedAddress": ["Bleibtreustr. 1 (Pestalozzistr.)", "10625 Berlin", "Deutschland"]}, "categories": [{"id": "4bf58dd8d48988d1e7931735", "name": "Jazz Club", "pluralName": "Jazz Clubs", "shortName": "Jazz Club", "icon": {"prefix": "https://ss3.4sqi.net/img/categories_v2/arts_entertainment/musicvenue_jazzclub_", "suffix": ".png"}, "primary": true}], "photos": {"count": 0, "groups": []}}, "referralId": "e-0-4adcda89f964a520a14921e3-23"}, {"reasons": {"count": 0, "items": [{"summary": "This spot is popular", "type": "general", "reasonName": "globalInteractionReason"}]}, "venue": {"id": "4dcd840ae4cd130e164fd996", "name": "Anabelas Kitchen", "location": {"address": "Pestalozzistra\u00dfe 3", "lat": 52.50758218505683, "lng": 13.319853095444227, "labeledLatLngs": [{"label": "display", "lat": 52.50758218505683, "lng": 13.319853095444227}], "distance": 907, "postalCode": "10625", "cc": "DE", "city": "Berlin", "state": "Berlin", "country": "Deutschland", "formattedAddress": ["Pestalozzistra\u00dfe 3", "10625 Berlin", "Deutschland"]}, "categories": [{"id": "4bf58dd8d48988d1c4941735", "name": "Restaurant", "pluralName": "Restaurants", "shortName": "Restaurant", "icon": {"prefix": "https://ss3.4sqi.net/img/categories_v2/food/default_", "suffix": ".png"}, "primary": true}], "photos": {"count": 0, "groups": []}}, "referralId": "e-0-4dcd840ae4cd130e164fd996-24"}, {"reasons": {"count": 0, "items": [{"summary": "This spot is popular", "type": "general", "reasonName": "globalInteractionReason"}]}, "venue": {"id": "4bfd58fc4cf820a1ce53ecf4", "name": "Getr\u00e4nkevertrieb Ambrosetti", "location": {"address": "Schillerstr. 103", "crossStreet": "Weimarer Str.", "lat": 52.510617612507616, "lng": 13.313370308484918, "labeledLatLngs": [{"label": "display", "lat": 52.510617612507616, "lng": 13.313370308484918}], "distance": 668, "postalCode": "10625", "cc": "DE", "city": "Berlin", "state": "Berlin", "country": "Deutschland", "formattedAddress": ["Schillerstr. 103 (Weimarer Str.)", "10625 Berlin", "Deutschland"]}, "categories": [{"id": "4bf58dd8d48988d186941735", "name": "Liquor Store", "pluralName": "Liquor Stores", "shortName": "Liquor Store", "icon": {"prefix": "https://ss3.4sqi.net/img/categories_v2/shops/food_liquor_", "suffix": ".png"}, "primary": true}], "photos": {"count": 0, "groups": []}}, "referralId": "e-0-4bfd58fc4cf820a1ce53ecf4-25"}, {"reasons": {"count": 0, "items": [{"summary": "This spot is popular", "type": "general", "reasonName": "globalInteractionReason"}]}, "venue": {"id": "52af152911d26ab24c4aba47", "name": "La t\u00eda rica", "location": {"address": "Knesebeckstr. 92", "crossStreet": "Goethestrasse", "lat": 52.508476, "lng": 13.323309, "labeledLatLngs": [{"label": "display", "lat": 52.508476, "lng": 13.323309}], "distance": 864, "postalCode": "10623", "cc": "DE", "city": "Berlin", "state": "Berlin", "country": "Deutschland", "formattedAddress": ["Knesebeckstr. 92 (Goethestrasse)", "10623 Berlin", "Deutschland"]}, "categories": [{"id": "4bf58dd8d48988d1be941735", "name": "Latin American Restaurant", "pluralName": "Latin American Restaurants", "shortName": "Latin American", "icon": {"prefix": "https://ss3.4sqi.net/img/categories_v2/food/latinamerican_", "suffix": ".png"}, "primary": true}], "photos": {"count": 0, "groups": []}, "venuePage": {"id": "504965653"}}, "referralId": "e-0-52af152911d26ab24c4aba47-26"}, {"reasons": {"count": 0, "items": [{"summary": "This spot is popular", "type": "general", "reasonName": "globalInteractionReason"}]}, "venue": {"id": "4b2a69cff964a520a6a824e3", "name": "Postbank Finanzcenter", "location": {"address": "Otto-Suhr-Allee 80-82", "lat": 52.51582073254157, "lng": 13.31240764661771, "labeledLatLngs": [{"label": "display", "lat": 52.51582073254157, "lng": 13.31240764661771}], "distance": 421, "postalCode": "10587", "cc": "DE", "city": "Berlin", "state": "Berlin", "country": "Deutschland", "formattedAddress": ["Otto-Suhr-Allee 80-82", "10587 Berlin", "Deutschland"]}, "categories": [{"id": "4bf58dd8d48988d10a951735", "name": "Bank", "pluralName": "Banks", "shortName": "Bank", "icon": {"prefix": "https://ss3.4sqi.net/img/categories_v2/shops/financial_", "suffix": ".png"}, "primary": true}], "photos": {"count": 0, "groups": []}}, "referralId": "e-0-4b2a69cff964a520a6a824e3-27"}, {"reasons": {"count": 0, "items": [{"summary": "This spot is popular", "type": "general", "reasonName": "globalInteractionReason"}]}, "venue": {"id": "4b225ecdf964a520064624e3", "name": "Enoteca L'Angolino", "location": {"address": "Knesebeckstr. 92", "crossStreet": "Goethestra\u00dfe", "lat": 52.50835074342167, "lng": 13.322741594877213, "labeledLatLngs": [{"label": "display", "lat": 52.50835074342167, "lng": 13.322741594877213}], "distance": 864, "postalCode": "10623", "cc": "DE", "city": "Berlin", "state": "Berlin", "country": "Deutschland", "formattedAddress": ["Knesebeckstr. 92 (Goethestra\u00dfe)", "10623 Berlin", "Deutschland"]}, "categories": [{"id": "4bf58dd8d48988d110941735", "name": "Italian Restaurant", "pluralName": "Italian Restaurants", "shortName": "Italian", "icon": {"prefix": "https://ss3.4sqi.net/img/categories_v2/food/italian_", "suffix": ".png"}, "primary": true}], "photos": {"count": 0, "groups": []}, "venuePage": {"id": "582756791"}}, "referralId": "e-0-4b225ecdf964a520064624e3-28"}, {"reasons": {"count": 0, "items": [{"summary": "This spot is popular", "type": "general", "reasonName": "globalInteractionReason"}]}, "venue": {"id": "50129b0fe4b0748a789d415c", "name": "BioBackHaus", "location": {"address": "Knesebeckstr. 12", "crossStreet": "Goethestr.", "lat": 52.50879630998174, "lng": 13.32254016964866, "labeledLatLngs": [{"label": "display", "lat": 52.50879630998174, "lng": 13.32254016964866}], "distance": 813, "postalCode": "10623", "cc": "DE", "city": "Berlin", "state": "Berlin", "country": "Deutschland", "formattedAddress": ["Knesebeckstr. 12 (Goethestr.)", "10623 Berlin", "Deutschland"]}, "categories": [{"id": "4bf58dd8d48988d16a941735", "name": "Bakery", "pluralName": "Bakeries", "shortName": "Bakery", "icon": {"prefix": "https://ss3.4sqi.net/img/categories_v2/food/bakery_", "suffix": ".png"}, "primary": true}], "photos": {"count": 0, "groups": []}}, "referralId": "e-0-50129b0fe4b0748a789d415c-29"}, {"reasons": {"count": 0, "items": [{"summary": "This spot is popular", "type": "general", "reasonName": "globalInteractionReason"}]}, "venue": {"id": "4adcda8ef964a520c64a21e3", "name": "Rogacki", "location": {"address": "Wilmersdorfer Str.145-146", "crossStreet": "Spielhagenstr.", "lat": 52.51283919402255, "lng": 13.305050087951296, "labeledLatLngs": [{"label": "display", "lat": 52.51283919402255, "lng": 13.305050087951296}], "distance": 973, "postalCode": "10585", "cc": "DE", "city": "Berlin", "state": "Berlin", "country": "Deutschland", "formattedAddress": ["Wilmersdorfer Str.145-146 (Spielhagenstr.)", "10585 Berlin", "Deutschland"]}, "categories": [{"id": "4bf58dd8d48988d1f5941735", "name": "Gourmet Shop", "pluralName": "Gourmet Shops", "shortName": "Gourmet", "icon": {"prefix": "https://ss3.4sqi.net/img/categories_v2/shops/food_gourmet_", "suffix": ".png"}, "primary": true}], "photos": {"count": 0, "groups": []}}, "referralId": "e-0-4adcda8ef964a520c64a21e3-30"}, {"reasons": {"count": 0, "items": [{"summary": "This spot is popular", "type": "general", "reasonName": "globalInteractionReason"}]}, "venue": {"id": "558ebbf6498e702863ea52b5", "name": "Laufladen Lunge", "location": {"address": "Bismarckstr. 101", "crossStreet": "Weimarer Str.", "lat": 52.511663461287625, "lng": 13.312929868698118, "labeledLatLngs": [{"label": "display", "lat": 52.511663461287625, "lng": 13.312929868698118}], "distance": 592, "postalCode": "10625", "cc": "DE", "city": "Berlin", "state": "Berlin", "country": "Deutschland", "formattedAddress": ["Bismarckstr. 101 (Weimarer Str.)", "10625 Berlin", "Deutschland"]}, "categories": [{"id": "4bf58dd8d48988d1f2941735", "name": "Sporting Goods Shop", "pluralName": "Sporting Goods Shops", "shortName": "Sporting Goods", "icon": {"prefix": "https://ss3.4sqi.net/img/categories_v2/shops/sports_outdoors_", "suffix": ".png"}, "primary": true}], "photos": {"count": 0, "groups": []}}, "referralId": "e-0-558ebbf6498e702863ea52b5-31"}, {"reasons": {"count": 0, "items": [{"summary": "This spot is popular", "type": "general", "reasonName": "globalInteractionReason"}]}, "venue": {"id": "4b8ed2f8f964a520493933e3", "name": "Ristorante Pascarella", "location": {"address": "Schl\u00fcterstr. 69", "crossStreet": "Pestalozzistr.", "lat": 52.507643315302765, "lng": 13.317969484758093, "labeledLatLngs": [{"label": "display", "lat": 52.507643315302765, "lng": 13.317969484758093}], "distance": 898, "postalCode": "10625", "cc": "DE", "city": "Berlin", "state": "Berlin", "country": "Deutschland", "formattedAddress": ["Schl\u00fcterstr. 69 (Pestalozzistr.)", "10625 Berlin", "Deutschland"]}, "categories": [{"id": "4bf58dd8d48988d110941735", "name": "Italian Restaurant", "pluralName": "Italian Restaurants", "shortName": "Italian", "icon": {"prefix": "https://ss3.4sqi.net/img/categories_v2/food/italian_", "suffix": ".png"}, "primary": true}], "photos": {"count": 0, "groups": []}}, "referralId": "e-0-4b8ed2f8f964a520493933e3-32"}, {"reasons": {"count": 0, "items": [{"summary": "This spot is popular", "type": "general", "reasonName": "globalInteractionReason"}]}, "venue": {"id": "4ca7ba75ae1eef3b8ee33147", "name": "China-Restaurant Lotos House", "location": {"address": "Bismarckstr.24", "lat": 52.51217276469756, "lng": 13.31218957901001, "labeledLatLngs": [{"label": "display", "lat": 52.51217276469756, "lng": 13.31218957901001}], "distance": 586, "postalCode": "10625", "cc": "DE", "neighborhood": "Charlottenburg", "city": "Berlin", "state": "Berlin", "country": "Deutschland", "formattedAddress": ["Bismarckstr.24", "10625 Berlin", "Deutschland"]}, "categories": [{"id": "4bf58dd8d48988d145941735", "name": "Chinese Restaurant", "pluralName": "Chinese Restaurants", "shortName": "Chinese", "icon": {"prefix": "https://ss3.4sqi.net/img/categories_v2/food/asian_", "suffix": ".png"}, "primary": true}], "photos": {"count": 0, "groups": []}}, "referralId": "e-0-4ca7ba75ae1eef3b8ee33147-33"}, {"reasons": {"count": 0, "items": [{"summary": "This spot is popular", "type": "general", "reasonName": "globalInteractionReason"}]}, "venue": {"id": "4ea2ce90dab4725270136918", "name": "Giro", "location": {"address": "Knesebeckstr. 5", "lat": 52.51016998072351, "lng": 13.323098822469232, "labeledLatLngs": [{"label": "display", "lat": 52.51016998072351, "lng": 13.323098822469232}], "distance": 686, "postalCode": "10623", "cc": "DE", "neighborhood": "Charlottenburg", "city": "Berlin", "state": "Berlin", "country": "Deutschland", "formattedAddress": ["Knesebeckstr. 5", "10623 Berlin", "Deutschland"]}, "categories": [{"id": "4bf58dd8d48988d1e0931735", "name": "Coffee Shop", "pluralName": "Coffee Shops", "shortName": "Coffee Shop", "icon": {"prefix": "https://ss3.4sqi.net/img/categories_v2/food/coffeeshop_", "suffix": ".png"}, "primary": true}], "photos": {"count": 0, "groups": []}}, "referralId": "e-0-4ea2ce90dab4725270136918-34"}, {"reasons": {"count": 0, "items": [{"summary": "This spot is popular", "type": "general", "reasonName": "globalInteractionReason"}]}, "venue": {"id": "56adf081498e4f5181f1fae2", "name": "Zur Mieze - Katzenmusikcaf\u00e9", "location": {"address": "Wilmersdorfer Stra\u00dfe 158", "lat": 52.515899, "lng": 13.304765, "labeledLatLngs": [{"label": "display", "lat": 52.515899, "lng": 13.304765}], "distance": 939, "postalCode": "10585", "cc": "DE", "neighborhood": "Charlottenburg", "city": "Berlin", "state": "Berlin", "country": "Deutschland", "formattedAddress": ["Wilmersdorfer Stra\u00dfe 158", "10585 Berlin", "Deutschland"]}, "categories": [{"id": "56aa371be4b08b9a8d573508", "name": "Pet Caf\u00e9", "pluralName": "Pet Caf\u00e9s", "shortName": "Pet Caf\u00e9", "icon": {"prefix": "https://ss3.4sqi.net/img/categories_v2/parks_outdoors/dogrun_", "suffix": ".png"}, "primary": true}], "photos": {"count": 0, "groups": []}}, "referralId": "e-0-56adf081498e4f5181f1fae2-35"}, {"reasons": {"count": 0, "items": [{"summary": "This spot is popular", "type": "general", "reasonName": "globalInteractionReason"}]}, "venue": {"id": "51631c50e4b0bcb0c39358fb", "name": "Falafel, Schawarma & Halloumi", "location": {"address": "Wilmersdorfer Str. 32", "lat": 52.5125145470448, "lng": 13.305099464337676, "labeledLatLngs": [{"label": "display", "lat": 52.5125145470448, "lng": 13.305099464337676}], "distance": 982, "postalCode": "10627", "cc": "DE", "city": "Berlin", "state": "Berlin", "country": "Deutschland", "formattedAddress": ["Wilmersdorfer Str. 32", "10627 Berlin", "Deutschland"]}, "categories": [{"id": "4bf58dd8d48988d10b941735", "name": "Falafel Restaurant", "pluralName": "Falafel Restaurants", "shortName": "Falafel", "icon": {"prefix": "https://ss3.4sqi.net/img/categories_v2/food/falafel_", "suffix": ".png"}, "primary": true}], "photos": {"count": 0, "groups": []}}, "referralId": "e-0-51631c50e4b0bcb0c39358fb-36"}, {"reasons": {"count": 0, "items": [{"summary": "This spot is popular", "type": "general", "reasonName": "globalInteractionReason"}]}, "venue": {"id": "4b240448f964a5202b5f24e3", "name": "Ristorante Papageno", "location": {"address": "Richard-Wagner-Str. 13", "crossStreet": "Zillestr.", "lat": 52.513535, "lng": 13.307118, "labeledLatLngs": [{"label": "display", "lat": 52.513535, "lng": 13.307118}], "distance": 815, "postalCode": "10585", "cc": "DE", "city": "Berlin", "state": "Berlin", "country": "Deutschland", "formattedAddress": ["Richard-Wagner-Str. 13 (Zillestr.)", "10585 Berlin", "Deutschland"]}, "categories": [{"id": "4bf58dd8d48988d110941735", "name": "Italian Restaurant", "pluralName": "Italian Restaurants", "shortName": "Italian", "icon": {"prefix": "https://ss3.4sqi.net/img/categories_v2/food/italian_", "suffix": ".png"}, "primary": true}], "photos": {"count": 0, "groups": []}}, "referralId": "e-0-4b240448f964a5202b5f24e3-37"}, {"reasons": {"count": 0, "items": [{"summary": "This spot is popular", "type": "general", "reasonName": "globalInteractionReason"}]}, "venue": {"id": "56714ed9498e49f082a12256", "name": "LimaLima", "location": {"address": "Schl\u00fcterstr. 74", "crossStreet": "Goethestr.", "lat": 52.50887999999999, "lng": 13.318160000000034, "labeledLatLngs": [{"label": "display", "lat": 52.50887999999999, "lng": 13.318160000000034}], "distance": 760, "postalCode": "10625", "cc": "DE", "city": "Berlin", "state": "Berlin", "country": "Deutschland", "formattedAddress": ["Schl\u00fcterstr. 74 (Goethestr.)", "10625 Berlin", "Deutschland"]}, "categories": [{"id": "4bf58dd8d48988d16d941735", "name": "Caf\u00e9", "pluralName": "Caf\u00e9s", "shortName": "Caf\u00e9", "icon": {"prefix": "https://ss3.4sqi.net/img/categories_v2/food/cafe_", "suffix": ".png"}, "primary": true}], "photos": {"count": 0, "groups": []}, "venuePage": {"id": "149196886"}}, "referralId": "e-0-56714ed9498e49f082a12256-38"}, {"reasons": {"count": 0, "items": [{"summary": "This spot is popular", "type": "general", "reasonName": "globalInteractionReason"}]}, "venue": {"id": "58dfb433a37d7208fd4362fc", "name": "B&B Hotel Berlin Tiergarten", "location": {"address": "Englische Stra\u00dfe 1-4", "crossStreet": "Salzufer", "lat": 52.51430658801277, "lng": 13.33110977322134, "labeledLatLngs": [{"label": "display", "lat": 52.51430658801277, "lng": 13.33110977322134}], "distance": 860, "postalCode": "10587", "cc": "DE", "neighborhood": "Franklinstra\u00dfe", "city": "Berlin", "state": "Berlin", "country": "Deutschland", "formattedAddress": ["Englische Stra\u00dfe 1-4 (Salzufer)", "10587 Berlin", "Deutschland"]}, "categories": [{"id": "4bf58dd8d48988d1fa931735", "name": "Hotel", "pluralName": "Hotels", "shortName": "Hotel", "icon": {"prefix": "https://ss3.4sqi.net/img/categories_v2/travel/hotel_", "suffix": ".png"}, "primary": true}], "photos": {"count": 0, "groups": []}}, "referralId": "e-0-58dfb433a37d7208fd4362fc-39"}, {"reasons": {"count": 0, "items": [{"summary": "This spot is popular", "type": "general", "reasonName": "globalInteractionReason"}]}, "venue": {"id": "4b61c842f964a52075222ae3", "name": "Belmondo", "location": {"address": "Knesebeckstr.", "lat": 52.50905837457039, "lng": 13.322933446913044, "labeledLatLngs": [{"label": "display", "lat": 52.50905837457039, "lng": 13.322933446913044}], "distance": 795, "postalCode": "10623", "cc": "DE", "city": "Berlin", "state": "Berlin", "country": "Deutschland", "formattedAddress": ["Knesebeckstr.", "10623 Berlin", "Deutschland"]}, "categories": [{"id": "4bf58dd8d48988d10c941735", "name": "French Restaurant", "pluralName": "French Restaurants", "shortName": "French", "icon": {"prefix": "https://ss3.4sqi.net/img/categories_v2/food/french_", "suffix": ".png"}, "primary": true}], "photos": {"count": 0, "groups": []}}, "referralId": "e-0-4b61c842f964a52075222ae3-40"}, {"reasons": {"count": 0, "items": [{"summary": "This spot is popular", "type": "general", "reasonName": "globalInteractionReason"}]}, "venue": {"id": "4b5c0eb6f964a520b42229e3", "name": "Buddha Republic", "location": {"address": "Knesebeckstr. 88", "crossStreet": "Savignyplatz", "lat": 52.50763956416895, "lng": 13.32260994059498, "labeledLatLngs": [{"label": "display", "lat": 52.50763956416895, "lng": 13.32260994059498}], "distance": 937, "postalCode": "10623", "cc": "DE", "city": "Berlin", "state": "Berlin", "country": "Deutschland", "formattedAddress": ["Knesebeckstr. 88 (Savignyplatz)", "10623 Berlin", "Deutschland"]}, "categories": [{"id": "4bf58dd8d48988d10f941735", "name": "Indian Restaurant", "pluralName": "Indian Restaurants", "shortName": "Indian", "icon": {"prefix": "https://ss3.4sqi.net/img/categories_v2/food/indian_", "suffix": ".png"}, "primary": true}], "photos": {"count": 0, "groups": []}, "venuePage": {"id": "498676685"}}, "referralId": "e-0-4b5c0eb6f964a520b42229e3-41"}, {"reasons": {"count": 0, "items": [{"summary": "This spot is popular", "type": "general", "reasonName": "globalInteractionReason"}]}, "venue": {"id": "4c9b7c1d292a6dcbb2eed776", "name": "WiwiCaf\u00e9", "location": {"address": "Stra\u00dfe des 17. Juni 135", "crossStreet": "Erweiterungsbau EB", "lat": 52.511794052468275, "lng": 13.324989080429077, "labeledLatLngs": [{"label": "display", "lat": 52.511794052468275, "lng": 13.324989080429077}], "distance": 612, "postalCode": "10623", "cc": "DE", "city": "Berlin", "state": "Berlin", "country": "Deutschland", "formattedAddress": ["Stra\u00dfe des 17. Juni 135 (Erweiterungsbau EB)", "10623 Berlin", "Deutschland"]}, "categories": [{"id": "4bf58dd8d48988d16d941735", "name": "Caf\u00e9", "pluralName": "Caf\u00e9s", "shortName": "Caf\u00e9", "icon": {"prefix": "https://ss3.4sqi.net/img/categories_v2/food/cafe_", "suffix": ".png"}, "primary": true}], "photos": {"count": 0, "groups": []}}, "referralId": "e-0-4c9b7c1d292a6dcbb2eed776-42"}, {"reasons": {"count": 0, "items": [{"summary": "This spot is popular", "type": "general", "reasonName": "globalInteractionReason"}]}, "venue": {"id": "4bdf04d16198c9b69ead15ff", "name": "Deutsche Bank", "location": {"address": "Otto-Suhr-Allee 6-16", "lat": 52.51421538901396, "lng": 13.319806197525281, "labeledLatLngs": [{"label": "display", "lat": 52.51421538901396, "lng": 13.319806197525281}], "distance": 183, "postalCode": "10585", "cc": "DE", "city": "Berlin", "state": "Berlin", "country": "Deutschland", "formattedAddress": ["Otto-Suhr-Allee 6-16", "10585 Berlin", "Deutschland"]}, "categories": [{"id": "4bf58dd8d48988d10a951735", "name": "Bank", "pluralName": "Banks", "shortName": "Bank", "icon": {"prefix": "https://ss3.4sqi.net/img/categories_v2/shops/financial_", "suffix": ".png"}, "primary": true}], "photos": {"count": 0, "groups": []}}, "referralId": "e-0-4bdf04d16198c9b69ead15ff-43"}, {"reasons": {"count": 0, "items": [{"summary": "This spot is popular", "type": "general", "reasonName": "globalInteractionReason"}]}, "venue": {"id": "4bc7798e93bdeee14c6c37ae", "name": "Hotel Otto Berlin", "location": {"address": "Knesebeckstrasse 10", "lat": 52.50932035175111, "lng": 13.322857207281537, "labeledLatLngs": [{"label": "display", "lat": 52.50932035175111, "lng": 13.322857207281537}], "distance": 766, "postalCode": "10623", "cc": "DE", "city": "Berlin", "state": "Berlin", "country": "Deutschland", "formattedAddress": ["Knesebeckstrasse 10", "10623 Berlin", "Deutschland"]}, "categories": [{"id": "4bf58dd8d48988d1fa931735", "name": "Hotel", "pluralName": "Hotels", "shortName": "Hotel", "icon": {"prefix": "https://ss3.4sqi.net/img/categories_v2/travel/hotel_", "suffix": ".png"}, "primary": true}], "photos": {"count": 0, "groups": []}}, "referralId": "e-0-4bc7798e93bdeee14c6c37ae-44"}, {"reasons": {"count": 0, "items": [{"summary": "This spot is popular", "type": "general", "reasonName": "globalInteractionReason"}]}, "venue": {"id": "4d767ce02fcd236aef088cc6", "name": "myThais", "location": {"address": "Krumme Str. 35", "crossStreet": "Goethestr.", "lat": 52.50914047789232, "lng": 13.30955094917794, "labeledLatLngs": [{"label": "display", "lat": 52.50914047789232, "lng": 13.30955094917794}], "distance": 954, "postalCode": "10627", "cc": "DE", "neighborhood": "Charlottenburg", "city": "Berlin", "state": "Berlin", "country": "Deutschland", "formattedAddress": ["Krumme Str. 35 (Goethestr.)", "10627 Berlin", "Deutschland"]}, "categories": [{"id": "4bf58dd8d48988d149941735", "name": "Thai Restaurant", "pluralName": "Thai Restaurants", "shortName": "Thai", "icon": {"prefix": "https://ss3.4sqi.net/img/categories_v2/food/thai_", "suffix": ".png"}, "primary": true}], "photos": {"count": 0, "groups": []}}, "referralId": "e-0-4d767ce02fcd236aef088cc6-45"}, {"reasons": {"count": 0, "items": [{"summary": "This spot is popular", "type": "general", "reasonName": "globalInteractionReason"}]}, "venue": {"id": "4f197bcae4b0aed171d629aa", "name": "Lindner", "location": {"address": "Wilmersdorfer Str. 146/147", "lat": 52.513159519507646, "lng": 13.3049422249805, "labeledLatLngs": [{"label": "display", "lat": 52.513159519507646, "lng": 13.3049422249805}], "distance": 969, "postalCode": "10585", "cc": "DE", "city": "Berlin", "state": "Berlin", "country": "Deutschland", "formattedAddress": ["Wilmersdorfer Str. 146/147", "10585 Berlin", "Deutschland"]}, "categories": [{"id": "4bf58dd8d48988d1f5941735", "name": "Gourmet Shop", "pluralName": "Gourmet Shops", "shortName": "Gourmet", "icon": {"prefix": "https://ss3.4sqi.net/img/categories_v2/shops/food_gourmet_", "suffix": ".png"}, "primary": true}], "photos": {"count": 0, "groups": []}}, "referralId": "e-0-4f197bcae4b0aed171d629aa-46"}, {"reasons": {"count": 0, "items": [{"summary": "This spot is popular", "type": "general", "reasonName": "globalInteractionReason"}]}, "venue": {"id": "4b6729b1f964a520bb3e2be3", "name": "Ashoka", "location": {"address": "Grolmanstr. 51", "lat": 52.506961795417865, "lng": 13.32162681219723, "labeledLatLngs": [{"label": "display", "lat": 52.506961795417865, "lng": 13.32162681219723}], "distance": 994, "postalCode": "10623", "cc": "DE", "city": "Berlin", "state": "Berlin", "country": "Deutschland", "formattedAddress": ["Grolmanstr. 51", "10623 Berlin", "Deutschland"]}, "categories": [{"id": "4bf58dd8d48988d10f941735", "name": "Indian Restaurant", "pluralName": "Indian Restaurants", "shortName": "Indian", "icon": {"prefix": "https://ss3.4sqi.net/img/categories_v2/food/indian_", "suffix": ".png"}, "primary": true}], "photos": {"count": 0, "groups": []}}, "referralId": "e-0-4b6729b1f964a520bb3e2be3-47"}, {"reasons": {"count": 0, "items": [{"summary": "This spot is popular", "type": "general", "reasonName": "globalInteractionReason"}]}, "venue": {"id": "4b94f6a9f964a520968934e3", "name": "Back Snack Bar", "location": {"address": "Helmholtzstr. 27", "lat": 52.52182276086033, "lng": 13.32617413929728, "labeledLatLngs": [{"label": "display", "lat": 52.52182276086033, "lng": 13.32617413929728}], "distance": 851, "postalCode": "10587", "cc": "DE", "city": "Berlin", "state": "Berlin", "country": "Deutschland", "formattedAddress": ["Helmholtzstr. 27", "10587 Berlin", "Deutschland"]}, "categories": [{"id": "4bf58dd8d48988d1e0931735", "name": "Coffee Shop", "pluralName": "Coffee Shops", "shortName": "Coffee Shop", "icon": {"prefix": "https://ss3.4sqi.net/img/categories_v2/food/coffeeshop_", "suffix": ".png"}, "primary": true}], "photos": {"count": 0, "groups": []}}, "referralId": "e-0-4b94f6a9f964a520968934e3-48"}, {"reasons": {"count": 0, "items": [{"summary": "This spot is popular", "type": "general", "reasonName": "globalInteractionReason"}]}, "venue": {"id": "4c18684e4b8bd13ad8704c83", "name": "Charlottenburger Tor", "location": {"address": "Stra\u00dfe des 17. Juni", "crossStreet": "Salzufer", "lat": 52.51377017811062, "lng": 13.331349923077635, "labeledLatLngs": [{"label": "display", "lat": 52.51377017811062, "lng": 13.331349923077635}], "distance": 888, "postalCode": "10587", "cc": "DE", "city": "Berlin", "state": "Berlin", "country": "Deutschland", "formattedAddress": ["Stra\u00dfe des 17. Juni (Salzufer)", "10587 Berlin", "Deutschland"]}, "categories": [{"id": "4deefb944765f83613cdba6e", "name": "Historic Site", "pluralName": "Historic Sites", "shortName": "Historic Site", "icon": {"prefix": "https://ss3.4sqi.net/img/categories_v2/arts_entertainment/historicsite_", "suffix": ".png"}, "primary": true}], "photos": {"count": 0, "groups": []}}, "referralId": "e-0-4c18684e4b8bd13ad8704c83-49"}, {"reasons": {"count": 0, "items": [{"summary": "This spot is popular", "type": "general", "reasonName": "globalInteractionReason"}]}, "venue": {"id": "4bb88c8d7421a59374dcc140", "name": "Restaurantschiff Capt. Schillow", "location": {"address": "Stra\u00dfe des 17. Juni 113", "lat": 52.51268263602812, "lng": 13.331890731096175, "labeledLatLngs": [{"label": "display", "lat": 52.51268263602812, "lng": 13.331890731096175}], "distance": 959, "postalCode": "10623", "cc": "DE", "city": "Berlin", "state": "Berlin", "country": "Deutschland", "formattedAddress": ["Stra\u00dfe des 17. Juni 113", "10623 Berlin", "Deutschland"]}, "categories": [{"id": "4bf58dd8d48988d10d941735", "name": "German Restaurant", "pluralName": "German Restaurants", "shortName": "German", "icon": {"prefix": "https://ss3.4sqi.net/img/categories_v2/food/german_", "suffix": ".png"}, "primary": true}], "photos": {"count": 0, "groups": []}}, "referralId": "e-0-4bb88c8d7421a59374dcc140-50"}, {"reasons": {"count": 0, "items": [{"summary": "This spot is popular", "type": "general", "reasonName": "globalInteractionReason"}]}, "venue": {"id": "4b4dc22bf964a520f9d626e3", "name": "Modo Mio", "location": {"address": "Morsestr. 3", "crossStreet": "Helmholtzstr.", "lat": 52.5215154759592, "lng": 13.322392702102661, "labeledLatLngs": [{"label": "display", "lat": 52.5215154759592, "lng": 13.322392702102661}], "distance": 695, "postalCode": "10587", "cc": "DE", "city": "Berlin", "state": "Berlin", "country": "Deutschland", "formattedAddress": ["Morsestr. 3 (Helmholtzstr.)", "10587 Berlin", "Deutschland"]}, "categories": [{"id": "4bf58dd8d48988d1ca941735", "name": "Pizza Place", "pluralName": "Pizza Places", "shortName": "Pizza", "icon": {"prefix": "https://ss3.4sqi.net/img/categories_v2/food/pizza_", "suffix": ".png"}, "primary": true}], "photos": {"count": 0, "groups": []}}, "referralId": "e-0-4b4dc22bf964a520f9d626e3-51"}, {"reasons": {"count": 0, "items": [{"summary": "This spot is popular", "type": "general", "reasonName": "globalInteractionReason"}]}, "venue": {"id": "536fb18f498ec249d95c3ac2", "name": "Weinrausch", "location": {"address": "Schl\u00fcterstr. 75", "lat": 52.50911061, "lng": 13.31840376, "labeledLatLngs": [{"label": "display", "lat": 52.50911061, "lng": 13.31840376}], "distance": 733, "postalCode": "10652", "cc": "DE", "city": "Berlin", "state": "Berlin", "country": "Deutschland", "formattedAddress": ["Schl\u00fcterstr. 75", "10652 Berlin", "Deutschland"]}, "categories": [{"id": "4bf58dd8d48988d123941735", "name": "Wine Bar", "pluralName": "Wine Bars", "shortName": "Wine Bar", "icon": {"prefix": "https://ss3.4sqi.net/img/categories_v2/food/winery_", "suffix": ".png"}, "primary": true}], "photos": {"count": 0, "groups": []}}, "referralId": "e-0-536fb18f498ec249d95c3ac2-52"}, {"reasons": {"count": 0, "items": [{"summary": "This spot is popular", "type": "general", "reasonName": "globalInteractionReason"}]}, "venue": {"id": "5c2fb5bddee770002cdd76c8", "name": "Seoul Garden", "location": {"address": "Knesebeckstra\u00dfe 16", "lat": 52.50804, "lng": 13.322611, "labeledLatLngs": [{"label": "display", "lat": 52.50804, "lng": 13.322611}], "distance": 894, "postalCode": "10623", "cc": "DE", "neighborhood": "Charlottenburg", "city": "Berlin", "state": "Berlin", "country": "Deutschland", "formattedAddress": ["Knesebeckstra\u00dfe 16", "10623 Berlin", "Deutschland"]}, "categories": [{"id": "4bf58dd8d48988d113941735", "name": "Korean Restaurant", "pluralName": "Korean Restaurants", "shortName": "Korean", "icon": {"prefix": "https://ss3.4sqi.net/img/categories_v2/food/korean_", "suffix": ".png"}, "primary": true}], "photos": {"count": 0, "groups": []}}, "referralId": "e-0-5c2fb5bddee770002cdd76c8-53"}, {"reasons": {"count": 0, "items": [{"summary": "This spot is popular", "type": "general", "reasonName": "globalInteractionReason"}]}, "venue": {"id": "50ccd69ae4b0d4bd1712736d", "name": "Ninhao China Restaurant", "location": {"lat": 52.51197911443559, "lng": 13.311966386801304, "labeledLatLngs": [{"label": "display", "lat": 52.51197911443559, "lng": 13.311966386801304}], "distance": 612, "cc": "DE", "city": "Berlin", "state": "Berlin", "country": "Deutschland", "formattedAddress": ["Berlin", "Deutschland"]}, "categories": [{"id": "4bf58dd8d48988d145941735", "name": "Chinese Restaurant", "pluralName": "Chinese Restaurants", "shortName": "Chinese", "icon": {"prefix": "https://ss3.4sqi.net/img/categories_v2/food/asian_", "suffix": ".png"}, "primary": true}], "photos": {"count": 0, "groups": []}}, "referralId": "e-0-50ccd69ae4b0d4bd1712736d-54"}, {"reasons": {"count": 0, "items": [{"summary": "This spot is popular", "type": "general", "reasonName": "globalInteractionReason"}]}, "venue": {"id": "4b6a0e24f964a5208bc42be3", "name": "Leonardo Hotel Berlin", "location": {"address": "Wilmersdorfer Str. 32", "crossStreet": "Spielhagenstra\u00dfe", "lat": 52.51279180739886, "lng": 13.30476432567244, "labeledLatLngs": [{"label": "display", "lat": 52.51279180739886, "lng": 13.30476432567244}], "distance": 993, "postalCode": "10585", "cc": "DE", "city": "Berlin", "state": "Berlin", "country": "Deutschland", "formattedAddress": ["Wilmersdorfer Str. 32 (Spielhagenstra\u00dfe)", "10585 Berlin", "Deutschland"]}, "categories": [{"id": "4bf58dd8d48988d1fa931735", "name": "Hotel", "pluralName": "Hotels", "shortName": "Hotel", "icon": {"prefix": "https://ss3.4sqi.net/img/categories_v2/travel/hotel_", "suffix": ".png"}, "primary": true}], "photos": {"count": 0, "groups": []}}, "referralId": "e-0-4b6a0e24f964a5208bc42be3-55"}, {"reasons": {"count": 0, "items": [{"summary": "This spot is popular", "type": "general", "reasonName": "globalInteractionReason"}]}, "venue": {"id": "4adcda90f964a5205c4b21e3", "name": "Philomenis", "location": {"address": "Knesebeckstra\u00dfe 97", "lat": 52.50967970737149, "lng": 13.322901223192483, "labeledLatLngs": [{"label": "display", "lat": 52.50967970737149, "lng": 13.322901223192483}], "distance": 730, "postalCode": "10623", "cc": "DE", "city": "Berlin", "state": "Berlin", "country": "Deutschland", "formattedAddress": ["Knesebeckstra\u00dfe 97", "10623 Berlin", "Deutschland"]}, "categories": [{"id": "4bf58dd8d48988d1f9941735", "name": "Food & Drink Shop", "pluralName": "Food & Drink Shops", "shortName": "Food & Drink", "icon": {"prefix": "https://ss3.4sqi.net/img/categories_v2/shops/foodanddrink_", "suffix": ".png"}, "primary": true}], "photos": {"count": 0, "groups": []}}, "referralId": "e-0-4adcda90f964a5205c4b21e3-56"}, {"reasons": {"count": 0, "items": [{"summary": "This spot is popular", "type": "general", "reasonName": "globalInteractionReason"}]}, "venue": {"id": "4d9880f697d06ea83bf3340b", "name": "Caprivi", "location": {"address": "Am Spreebord", "crossStreet": "S\u00f6mmeringstra\u00dfe", "lat": 52.52086310226402, "lng": 13.3070714373998, "labeledLatLngs": [{"label": "display", "lat": 52.52086310226402, "lng": 13.3070714373998}], "distance": 970, "postalCode": "10589", "cc": "DE", "city": "Berlin", "state": "Berlin", "country": "Deutschland", "formattedAddress": ["Am Spreebord (S\u00f6mmeringstra\u00dfe)", "10589 Charlottenburg", "Deutschland"]}, "categories": [{"id": "4bf58dd8d48988d117941735", "name": "Beer Garden", "pluralName": "Beer Gardens", "shortName": "Beer Garden", "icon": {"prefix": "https://ss3.4sqi.net/img/categories_v2/nightlife/beergarden_", "suffix": ".png"}, "primary": true}], "photos": {"count": 0, "groups": []}}, "referralId": "e-0-4d9880f697d06ea83bf3340b-57"}, {"reasons": {"count": 0, "items": [{"summary": "This spot is popular", "type": "general", "reasonName": "globalInteractionReason"}]}, "venue": {"id": "57594559498ecc5153001fd1", "name": "Crispy D\u00f6ner", "location": {"lat": 52.512, "lng": 13.307591, "labeledLatLngs": [{"label": "display", "lat": 52.512, "lng": 13.307591}], "distance": 853, "postalCode": "10585", "cc": "DE", "city": "Berlin", "state": "Berlin", "country": "Deutschland", "formattedAddress": ["10585 Berlin", "Deutschland"]}, "categories": [{"id": "5283c7b4e4b094cb91ec88d8", "name": "Doner Restaurant", "pluralName": "Doner Restaurants", "shortName": "Doner", "icon": {"prefix": "https://ss3.4sqi.net/img/categories_v2/food/turkish_", "suffix": ".png"}, "primary": true}], "photos": {"count": 0, "groups": []}}, "referralId": "e-0-57594559498ecc5153001fd1-58"}, {"reasons": {"count": 0, "items": [{"summary": "This spot is popular", "type": "general", "reasonName": "globalInteractionReason"}]}, "venue": {"id": "4c2f3027452620a150091d0f", "name": "HOHMANN Golf", "location": {"address": "Franklinstra\u00dfe 12a-13", "lat": 52.520727842017806, "lng": 13.328613945229968, "labeledLatLngs": [{"label": "display", "lat": 52.520727842017806, "lng": 13.328613945229968}], "distance": 878, "postalCode": "10587", "cc": "DE", "city": "Berlin", "state": "Berlin", "country": "Deutschland", "formattedAddress": ["Franklinstra\u00dfe 12a-13", "10587 Berlin", "Deutschland"]}, "categories": [{"id": "4bf58dd8d48988d1f2941735", "name": "Sporting Goods Shop", "pluralName": "Sporting Goods Shops", "shortName": "Sporting Goods", "icon": {"prefix": "https://ss3.4sqi.net/img/categories_v2/shops/sports_outdoors_", "suffix": ".png"}, "primary": true}], "photos": {"count": 0, "groups": []}, "venuePage": {"id": "521392392"}}, "referralId": "e-0-4c2f3027452620a150091d0f-59"}, {"reasons": {"count": 0, "items": [{"summary": "This spot is popular", "type": "general", "reasonName": "globalInteractionReason"}]}, "venue": {"id": "4bf517deff90c9b677ea5528", "name": "Taverna Santorini", "location": {"address": "Cauerstr.", "lat": 52.51768262630932, "lng": 13.31759821249307, "labeledLatLngs": [{"label": "display", "lat": 52.51768262630932, "lng": 13.31759821249307}], "distance": 231, "postalCode": "10587", "cc": "DE", "city": "Berlin", "state": "Berlin", "country": "Deutschland", "formattedAddress": ["Cauerstr.", "10587 Berlin", "Deutschland"]}, "categories": [{"id": "53d6c1b0e4b02351e88a83d2", "name": "Taverna", "pluralName": "Tavernas", "shortName": "Tavernas", "icon": {"prefix": "https://ss3.4sqi.net/img/categories_v2/food/greek_", "suffix": ".png"}, "primary": true}], "photos": {"count": 0, "groups": []}}, "referralId": "e-0-4bf517deff90c9b677ea5528-60"}, {"reasons": {"count": 0, "items": [{"summary": "This spot is popular", "type": "general", "reasonName": "globalInteractionReason"}]}, "venue": {"id": "4adcda87f964a5202e4921e3", "name": "Satyam", "location": {"address": "Goethestr. 5", "lat": 52.508840869248495, "lng": 13.322101579712593, "labeledLatLngs": [{"label": "display", "lat": 52.508840869248495, "lng": 13.322101579712593}], "distance": 799, "postalCode": "10623", "cc": "DE", "city": "Berlin", "state": "Berlin", "country": "Deutschland", "formattedAddress": ["Goethestr. 5", "10623 Berlin", "Deutschland"]}, "categories": [{"id": "4bf58dd8d48988d10f941735", "name": "Indian Restaurant", "pluralName": "Indian Restaurants", "shortName": "Indian", "icon": {"prefix": "https://ss3.4sqi.net/img/categories_v2/food/indian_", "suffix": ".png"}, "primary": true}], "photos": {"count": 0, "groups": []}}, "referralId": "e-0-4adcda87f964a5202e4921e3-61"}, {"reasons": {"count": 0, "items": [{"summary": "This spot is popular", "type": "general", "reasonName": "globalInteractionReason"}]}, "venue": {"id": "4d2dc787f728b60c27859dfd", "name": "Exclusive Coffee", "location": {"address": "Bismarckstr. 46", "lat": 52.513408849631595, "lng": 13.305343609541598, "labeledLatLngs": [{"label": "display", "lat": 52.513408849631595, "lng": 13.305343609541598}], "distance": 935, "postalCode": "10627", "cc": "DE", "city": "Berlin", "state": "Berlin", "country": "Deutschland", "formattedAddress": ["Bismarckstr. 46", "10627 Berlin", "Deutschland"]}, "categories": [{"id": "4bf58dd8d48988d16d941735", "name": "Caf\u00e9", "pluralName": "Caf\u00e9s", "shortName": "Caf\u00e9", "icon": {"prefix": "https://ss3.4sqi.net/img/categories_v2/food/cafe_", "suffix": ".png"}, "primary": true}], "photos": {"count": 0, "groups": []}}, "referralId": "e-0-4d2dc787f728b60c27859dfd-62"}, {"reasons": {"count": 0, "items": [{"summary": "This spot is popular", "type": "general", "reasonName": "globalInteractionReason"}]}, "venue": {"id": "4b154b3ff964a52075aa23e3", "name": "Green Rice", "location": {"address": "Helmholtzstr. 40", "lat": 52.52105412923547, "lng": 13.321848103524346, "labeledLatLngs": [{"label": "display", "lat": 52.52105412923547, "lng": 13.321848103524346}], "distance": 634, "postalCode": "10587", "cc": "DE", "city": "Berlin", "state": "Berlin", "country": "Deutschland", "formattedAddress": ["Helmholtzstr. 40", "10587 Berlin", "Deutschland"]}, "categories": [{"id": "4bf58dd8d48988d142941735", "name": "Asian Restaurant", "pluralName": "Asian Restaurants", "shortName": "Asian", "icon": {"prefix": "https://ss3.4sqi.net/img/categories_v2/food/asian_", "suffix": ".png"}, "primary": true}], "photos": {"count": 0, "groups": []}}, "referralId": "e-0-4b154b3ff964a52075aa23e3-63"}, {"reasons": {"count": 0, "items": [{"summary": "This spot is popular", "type": "general", "reasonName": "globalInteractionReason"}]}, "venue": {"id": "4b110852f964a5209b7723e3", "name": "Caras", "location": {"address": "Hardenbergstr. 4-5", "crossStreet": "Knesebeckstr.", "lat": 52.51099091056185, "lng": 13.322671651840208, "labeledLatLngs": [{"label": "display", "lat": 52.51099091056185, "lng": 13.322671651840208}], "distance": 591, "postalCode": "10623", "cc": "DE", "city": "Berlin", "state": "Berlin", "country": "Deutschland", "formattedAddress": ["Hardenbergstr. 4-5 (Knesebeckstr.)", "10623 Berlin", "Deutschland"]}, "categories": [{"id": "4bf58dd8d48988d1e0931735", "name": "Coffee Shop", "pluralName": "Coffee Shops", "shortName": "Coffee Shop", "icon": {"prefix": "https://ss3.4sqi.net/img/categories_v2/food/coffeeshop_", "suffix": ".png"}, "primary": true}], "photos": {"count": 0, "groups": []}}, "referralId": "e-0-4b110852f964a5209b7723e3-64"}, {"reasons": {"count": 0, "items": [{"summary": "This spot is popular", "type": "general", "reasonName": "globalInteractionReason"}]}, "venue": {"id": "4c84d8ab51ada1cd472a3210", "name": "Genki Sushi", "location": {"address": "Wilmersdorfer Str. 22", "crossStreet": "Thrasoltstr.", "lat": 52.514541264691175, "lng": 13.304827067886682, "labeledLatLngs": [{"label": "display", "lat": 52.514541264691175, "lng": 13.304827067886682}], "distance": 943, "postalCode": "10585", "cc": "DE", "city": "Berlin", "state": "Berlin", "country": "Deutschland", "formattedAddress": ["Wilmersdorfer Str. 22 (Thrasoltstr.)", "10585 Berlin", "Deutschland"]}, "categories": [{"id": "4bf58dd8d48988d1d2941735", "name": "Sushi Restaurant", "pluralName": "Sushi Restaurants", "shortName": "Sushi", "icon": {"prefix": "https://ss3.4sqi.net/img/categories_v2/food/sushi_", "suffix": ".png"}, "primary": true}], "photos": {"count": 0, "groups": []}}, "referralId": "e-0-4c84d8ab51ada1cd472a3210-65"}, {"reasons": {"count": 0, "items": [{"summary": "This spot is popular", "type": "general", "reasonName": "globalInteractionReason"}]}, "venue": {"id": "4d3724a2db5ba35d4c2941c7", "name": "Trattoria Tot\u00f2", "location": {"address": "Bleibtreustr. 55", "crossStreet": "Pestalozzistr.", "lat": 52.50736515924636, "lng": 13.320367361414839, "labeledLatLngs": [{"label": "display", "lat": 52.50736515924636, "lng": 13.320367361414839}], "distance": 935, "postalCode": "10623", "cc": "DE", "city": "Berlin", "state": "Berlin", "country": "Deutschland", "formattedAddress": ["Bleibtreustr. 55 (Pestalozzistr.)", "10623 Berlin", "Deutschland"]}, "categories": [{"id": "55a5a1ebe4b013909087cb7f", "name": "Trattoria/Osteria", "pluralName": "Trattorias/Osterias", "shortName": "Trattoria/Osteria", "icon": {"prefix": "https://ss3.4sqi.net/img/categories_v2/food/italian_", "suffix": ".png"}, "primary": true}], "photos": {"count": 0, "groups": []}}, "referralId": "e-0-4d3724a2db5ba35d4c2941c7-66"}, {"reasons": {"count": 0, "items": [{"summary": "This spot is popular", "type": "general", "reasonName": "globalInteractionReason"}]}, "venue": {"id": "5485fead498ee8517154e694", "name": "Wilhelm Hoeck 1892", "location": {"address": "Wilmersdorfer Str. 149", "lat": 52.513985, "lng": 13.305006, "labeledLatLngs": [{"label": "display", "lat": 52.513985, "lng": 13.305006}], "distance": 942, "postalCode": "10585", "cc": "DE", "neighborhood": "Charlottenburg-Wilmersdorf", "city": "Berlin", "state": "Berlin", "country": "Deutschland", "formattedAddress": ["Wilmersdorfer Str. 149", "10585 Berlin", "Deutschland"]}, "categories": [{"id": "4bf58dd8d48988d11b941735", "name": "Pub", "pluralName": "Pubs", "shortName": "Pub", "icon": {"prefix": "https://ss3.4sqi.net/img/categories_v2/nightlife/pub_", "suffix": ".png"}, "primary": true}], "photos": {"count": 0, "groups": []}}, "referralId": "e-0-5485fead498ee8517154e694-67"}, {"reasons": {"count": 0, "items": [{"summary": "This spot is popular", "type": "general", "reasonName": "globalInteractionReason"}]}, "venue": {"id": "4adcda76f964a520d54521e3", "name": "Caf\u00e9 Savigny", "location": {"address": "Grolmanstr. 53-54", "lat": 52.50734344645246, "lng": 13.321165492025905, "labeledLatLngs": [{"label": "display", "lat": 52.50734344645246, "lng": 13.321165492025905}], "distance": 946, "postalCode": "10623", "cc": "DE", "city": "Berlin", "state": "Berlin", "country": "Deutschland", "formattedAddress": ["Grolmanstr. 53-54", "10623 Berlin", "Deutschland"]}, "categories": [{"id": "4bf58dd8d48988d16d941735", "name": "Caf\u00e9", "pluralName": "Caf\u00e9s", "shortName": "Caf\u00e9", "icon": {"prefix": "https://ss3.4sqi.net/img/categories_v2/food/cafe_", "suffix": ".png"}, "primary": true}], "photos": {"count": 0, "groups": []}}, "referralId": "e-0-4adcda76f964a520d54521e3-68"}, {"reasons": {"count": 0, "items": [{"summary": "This spot is popular", "type": "general", "reasonName": "globalInteractionReason"}]}, "venue": {"id": "4bb0708bf964a520b2453ce3", "name": "Kieser Training", "location": {"address": "Ernst-Reuter-Platz 3-5", "lat": 52.511864082696526, "lng": 13.321526790299181, "labeledLatLngs": [{"label": "display", "lat": 52.511864082696526, "lng": 13.321526790299181}], "distance": 470, "postalCode": "10587", "cc": "DE", "city": "Berlin", "state": "Berlin", "country": "Deutschland", "formattedAddress": ["Ernst-Reuter-Platz 3-5", "10587 Berlin", "Deutschland"]}, "categories": [{"id": "4bf58dd8d48988d175941735", "name": "Gym / Fitness Center", "pluralName": "Gyms or Fitness Centers", "shortName": "Gym / Fitness", "icon": {"prefix": "https://ss3.4sqi.net/img/categories_v2/building/gym_", "suffix": ".png"}, "primary": true}], "photos": {"count": 0, "groups": []}, "venuePage": {"id": "565110480"}}, "referralId": "e-0-4bb0708bf964a520b2453ce3-69"}, {"reasons": {"count": 0, "items": [{"summary": "This spot is popular", "type": "general", "reasonName": "globalInteractionReason"}]}, "venue": {"id": "526d121711d2a48aafe1bb56", "name": "Novum Style Hotel Berlin Centrum", "location": {"address": "Franklinstr. 23", "lat": 52.52085675198544, "lng": 13.327758769545358, "labeledLatLngs": [{"label": "display", "lat": 52.52085675198544, "lng": 13.327758769545358}], "distance": 843, "postalCode": "10587", "cc": "DE", "city": "Berlin", "state": "Berlin", "country": "Deutschland", "formattedAddress": ["Franklinstr. 23", "10587 Berlin", "Deutschland"]}, "categories": [{"id": "4bf58dd8d48988d1fa931735", "name": "Hotel", "pluralName": "Hotels", "shortName": "Hotel", "icon": {"prefix": "https://ss3.4sqi.net/img/categories_v2/travel/hotel_", "suffix": ".png"}, "primary": true}], "photos": {"count": 0, "groups": []}}, "referralId": "e-0-526d121711d2a48aafe1bb56-70"}, {"reasons": {"count": 0, "items": [{"summary": "This spot is popular", "type": "general", "reasonName": "globalInteractionReason"}]}, "venue": {"id": "4b5f03aaf964a52041a229e3", "name": "Cafeteria im Mathematikgeb\u00e4ude", "location": {"address": "Stra\u00dfe des 17. Juni 136", "crossStreet": "Technische Universit\u00e4t Berlin", "lat": 52.513472114606735, "lng": 13.32617998123169, "labeledLatLngs": [{"label": "display", "lat": 52.513472114606735, "lng": 13.32617998123169}], "distance": 568, "postalCode": "10623", "cc": "DE", "city": "Berlin", "state": "Berlin", "country": "Deutschland", "formattedAddress": ["Stra\u00dfe des 17. Juni 136 (Technische Universit\u00e4t Berlin)", "10623 Berlin", "Deutschland"]}, "categories": [{"id": "4bf58dd8d48988d1a1941735", "name": "College Cafeteria", "pluralName": "College Cafeterias", "shortName": "Cafeteria", "icon": {"prefix": "https://ss3.4sqi.net/img/categories_v2/education/cafeteria_", "suffix": ".png"}, "primary": true}], "photos": {"count": 0, "groups": []}}, "referralId": "e-0-4b5f03aaf964a52041a229e3-71"}, {"reasons": {"count": 0, "items": [{"summary": "This spot is popular", "type": "general", "reasonName": "globalInteractionReason"}]}, "venue": {"id": "4c4724591262ef3b4818cc41", "name": "Schropp", "location": {"address": "Hardenbergstra\u00dfe 9A", "lat": 52.50972980536281, "lng": 13.325198540249634, "labeledLatLngs": [{"label": "display", "lat": 52.50972980536281, "lng": 13.325198540249634}], "distance": 800, "postalCode": "10623", "cc": "DE", "city": "Berlin", "state": "Berlin", "country": "Deutschland", "formattedAddress": ["Hardenbergstra\u00dfe 9A", "10623 Berlin", "Deutschland"]}, "categories": [{"id": "4bf58dd8d48988d114951735", "name": "Bookstore", "pluralName": "Bookstores", "shortName": "Bookstore", "icon": {"prefix": "https://ss3.4sqi.net/img/categories_v2/shops/bookstore_", "suffix": ".png"}, "primary": true}], "photos": {"count": 0, "groups": []}}, "referralId": "e-0-4c4724591262ef3b4818cc41-72"}, {"reasons": {"count": 0, "items": [{"summary": "This spot is popular", "type": "general", "reasonName": "globalInteractionReason"}]}, "venue": {"id": "4d777e74f2c054816de6a9a1", "name": "boesner", "location": {"address": "Franklinstr. 12", "lat": 52.5207239, "lng": 13.3285051, "labeledLatLngs": [{"label": "display", "lat": 52.5207239, "lng": 13.3285051}], "distance": 872, "postalCode": "10587", "cc": "DE", "city": "Berlin", "state": "Berlin", "country": "Deutschland", "formattedAddress": ["Franklinstr. 12", "10587 Berlin", "Deutschland"]}, "categories": [{"id": "4bf58dd8d48988d127951735", "name": "Arts & Crafts Store", "pluralName": "Arts & Crafts Stores", "shortName": "Arts & Crafts", "icon": {"prefix": "https://ss3.4sqi.net/img/categories_v2/shops/artstore_", "suffix": ".png"}, "primary": true}], "photos": {"count": 0, "groups": []}}, "referralId": "e-0-4d777e74f2c054816de6a9a1-73"}, {"reasons": {"count": 0, "items": [{"summary": "This spot is popular", "type": "general", "reasonName": "globalInteractionReason"}]}, "venue": {"id": "536bdbde498e5706e395c524", "name": "Layalina Shisha Launge", "location": {"address": "Bismarckstra\u00dfe 106", "lat": 52.51216877887744, "lng": 13.315631011330927, "labeledLatLngs": [{"label": "display", "lat": 52.51216877887744, "lng": 13.315631011330927}], "distance": 442, "postalCode": "10625", "cc": "DE", "city": "Berlin", "state": "Berlin", "country": "Deutschland", "formattedAddress": ["Bismarckstra\u00dfe 106", "10625 Berlin", "Deutschland"]}, "categories": [{"id": "4bf58dd8d48988d119941735", "name": "Hookah Bar", "pluralName": "Hookah Bars", "shortName": "Hookah Bar", "icon": {"prefix": "https://ss3.4sqi.net/img/categories_v2/nightlife/hookahbar_", "suffix": ".png"}, "primary": true}], "photos": {"count": 0, "groups": []}, "venuePage": {"id": "557688439"}}, "referralId": "e-0-536bdbde498e5706e395c524-74"}, {"reasons": {"count": 0, "items": [{"summary": "This spot is popular", "type": "general", "reasonName": "globalInteractionReason"}]}, "venue": {"id": "4b9377c9f964a520eb4434e3", "name": "rdo - Restaurant Deutsche Oper", "location": {"address": "Bismarckstr. 35", "crossStreet": "Zillestr.", "lat": 52.51123055041827, "lng": 13.311988254300548, "labeledLatLngs": [{"label": "display", "lat": 52.51123055041827, "lng": 13.311988254300548}], "distance": 670, "postalCode": "10627", "cc": "DE", "city": "Berlin", "state": "Berlin", "country": "Deutschland", "formattedAddress": ["Bismarckstr. 35 (Zillestr.)", "10627 Berlin", "Deutschland"]}, "categories": [{"id": "4bf58dd8d48988d10d941735", "name": "German Restaurant", "pluralName": "German Restaurants", "shortName": "German", "icon": {"prefix": "https://ss3.4sqi.net/img/categories_v2/food/german_", "suffix": ".png"}, "primary": true}], "photos": {"count": 0, "groups": []}}, "referralId": "e-0-4b9377c9f964a520eb4434e3-75"}, {"reasons": {"count": 0, "items": [{"summary": "This spot is popular", "type": "general", "reasonName": "globalInteractionReason"}]}, "venue": {"id": "4db07a98a86e63d21158ca66", "name": "Rosati", "location": {"address": "Bismarckstr. 88", "lat": 52.51144145538995, "lng": 13.307747840881348, "labeledLatLngs": [{"label": "display", "lat": 52.51144145538995, "lng": 13.307747840881348}], "distance": 876, "postalCode": "10627", "cc": "DE", "city": "Berlin", "state": "Berlin", "country": "Deutschland", "formattedAddress": ["Bismarckstr. 88", "10627 Berlin", "Deutschland"]}, "categories": [{"id": "4bf58dd8d48988d110941735", "name": "Italian Restaurant", "pluralName": "Italian Restaurants", "shortName": "Italian", "icon": {"prefix": "https://ss3.4sqi.net/img/categories_v2/food/italian_", "suffix": ".png"}, "primary": true}], "photos": {"count": 0, "groups": []}}, "referralId": "e-0-4db07a98a86e63d21158ca66-76"}, {"reasons": {"count": 0, "items": [{"summary": "This spot is popular", "type": "general", "reasonName": "globalInteractionReason"}]}, "venue": {"id": "5b3622cc9e0d54002cb2dab7", "name": "The Temporary Bauhaus-Archiv / Museum f\u00fcr Gestaltung", "location": {"address": "Knesebeckstr. 1-2", "crossStreet": "Hardenbergstr.", "lat": 52.51078028568672, "lng": 13.3231330020407, "labeledLatLngs": [{"label": "display", "lat": 52.51078028568672, "lng": 13.3231330020407}], "distance": 627, "postalCode": "10623", "cc": "DE", "city": "Berlin", "state": "Berlin", "country": "Deutschland", "formattedAddress": ["Knesebeckstr. 1-2 (Hardenbergstr.)", "10623 Berlin", "Deutschland"]}, "categories": [{"id": "4bf58dd8d48988d181941735", "name": "Museum", "pluralName": "Museums", "shortName": "Museum", "icon": {"prefix": "https://ss3.4sqi.net/img/categories_v2/arts_entertainment/museum_", "suffix": ".png"}, "primary": true}], "photos": {"count": 0, "groups": []}}, "referralId": "e-0-5b3622cc9e0d54002cb2dab7-77"}, {"reasons": {"count": 0, "items": [{"summary": "This spot is popular", "type": "general", "reasonName": "globalInteractionReason"}]}, "venue": {"id": "4b6aafc4f964a52021dc2be3", "name": "Manjurani", "location": {"address": "Knesebeckstr. 4", "lat": 52.510178813034464, "lng": 13.32307231327683, "labeledLatLngs": [{"label": "display", "lat": 52.510178813034464, "lng": 13.32307231327683}], "distance": 684, "postalCode": "10623", "cc": "DE", "city": "Berlin", "state": "Berlin", "country": "Deutschland", "formattedAddress": ["Knesebeckstr. 4", "10623 Berlin", "Deutschland"]}, "categories": [{"id": "4bf58dd8d48988d10f941735", "name": "Indian Restaurant", "pluralName": "Indian Restaurants", "shortName": "Indian", "icon": {"prefix": "https://ss3.4sqi.net/img/categories_v2/food/indian_", "suffix": ".png"}, "primary": true}], "photos": {"count": 0, "groups": []}}, "referralId": "e-0-4b6aafc4f964a52021dc2be3-78"}, {"reasons": {"count": 0, "items": [{"summary": "This spot is popular", "type": "general", "reasonName": "globalInteractionReason"}]}, "venue": {"id": "5cc170f31fa763002cdd47cb", "name": "Edeka Zahl", "location": {"address": "Dovestr. 3c", "lat": 52.520199, "lng": 13.3200847, "labeledLatLngs": [{"label": "display", "lat": 52.520199, "lng": 13.3200847}], "distance": 510, "postalCode": "10587", "cc": "DE", "neighborhood": "Dovestr.", "city": "Berlin", "state": "Berlin", "country": "Deutschland", "formattedAddress": ["Dovestr. 3c", "10587 Berlin", "Deutschland"]}, "categories": [{"id": "52f2ab2ebcbc57f1066b8b46", "name": "Supermarket", "pluralName": "Supermarkets", "shortName": "Supermarket", "icon": {"prefix": "https://ss3.4sqi.net/img/categories_v2/shops/food_grocery_", "suffix": ".png"}, "primary": true}], "photos": {"count": 0, "groups": []}, "venuePage": {"id": "553456993"}}, "referralId": "e-0-5cc170f31fa763002cdd47cb-79"}, {"reasons": {"count": 0, "items": [{"summary": "This spot is popular", "type": "general", "reasonName": "globalInteractionReason"}]}, "venue": {"id": "508063c1e4b0134247bcc50a", "name": "Hutzelmann - die Schlesische Backstube", "location": {"address": "Wilmersdorfer Str. 19", "crossStreet": "Haubachstra\u00dfe", "lat": 52.51528069348672, "lng": 13.304572105407715, "labeledLatLngs": [{"label": "display", "lat": 52.51528069348672, "lng": 13.304572105407715}], "distance": 953, "postalCode": "10585", "cc": "DE", "city": "Berlin", "state": "Berlin", "country": "Deutschland", "formattedAddress": ["Wilmersdorfer Str. 19 (Haubachstra\u00dfe)", "10585 Berlin", "Deutschland"]}, "categories": [{"id": "4bf58dd8d48988d16a941735", "name": "Bakery", "pluralName": "Bakeries", "shortName": "Bakery", "icon": {"prefix": "https://ss3.4sqi.net/img/categories_v2/food/bakery_", "suffix": ".png"}, "primary": true}], "photos": {"count": 0, "groups": []}}, "referralId": "e-0-508063c1e4b0134247bcc50a-80"}, {"reasons": {"count": 0, "items": [{"summary": "This spot is popular", "type": "general", "reasonName": "globalInteractionReason"}]}, "venue": {"id": "4bd1bdaeb221c9b6c10ad6d0", "name": "Bat Viet", "location": {"address": "Wilmersdorfer Str. 142", "crossStreet": "Bismarckstr.", "lat": 52.51236864905278, "lng": 13.30495834350586, "labeledLatLngs": [{"label": "display", "lat": 52.51236864905278, "lng": 13.30495834350586}], "distance": 997, "postalCode": "10585", "cc": "DE", "city": "Berlin", "state": "Berlin", "country": "Deutschland", "formattedAddress": ["Wilmersdorfer Str. 142 (Bismarckstr.)", "10585 Berlin", "Deutschland"]}, "categories": [{"id": "4bf58dd8d48988d142941735", "name": "Asian Restaurant", "pluralName": "Asian Restaurants", "shortName": "Asian", "icon": {"prefix": "https://ss3.4sqi.net/img/categories_v2/food/asian_", "suffix": ".png"}, "primary": true}], "photos": {"count": 0, "groups": []}}, "referralId": "e-0-4bd1bdaeb221c9b6c10ad6d0-81"}, {"reasons": {"count": 0, "items": [{"summary": "This spot is popular", "type": "general", "reasonName": "globalInteractionReason"}]}, "venue": {"id": "4f1da380e4b095bc47f84228", "name": "Do Long", "location": {"address": "Wilmersdorfer Stra\u00dfe 29/30", "crossStreet": "Zillestrasse 79", "lat": 52.51334149348079, "lng": 13.304938355614079, "labeledLatLngs": [{"label": "display", "lat": 52.51334149348079, "lng": 13.304938355614079}], "distance": 963, "postalCode": "10585", "cc": "DE", "city": "Berlin", "state": "Berlin", "country": "Deutschland", "formattedAddress": ["Wilmersdorfer Stra\u00dfe 29/30 (Zillestrasse 79)", "10585 Berlin", "Deutschland"]}, "categories": [{"id": "4bf58dd8d48988d14a941735", "name": "Vietnamese Restaurant", "pluralName": "Vietnamese Restaurants", "shortName": "Vietnamese", "icon": {"prefix": "https://ss3.4sqi.net/img/categories_v2/food/vietnamese_", "suffix": ".png"}, "primary": true}], "photos": {"count": 0, "groups": []}}, "referralId": "e-0-4f1da380e4b095bc47f84228-82"}, {"reasons": {"count": 0, "items": [{"summary": "This spot is popular", "type": "general", "reasonName": "globalInteractionReason"}]}, "venue": {"id": "55ad5f29498eac224e1793fe", "name": "Aromafabrik", "location": {"lat": 52.510227907185964, "lng": 13.308305217707577, "labeledLatLngs": [{"label": "display", "lat": 52.510227907185964, "lng": 13.308305217707577}], "distance": 927, "cc": "DE", "city": "Berlin", "state": "Berlin", "country": "Deutschland", "formattedAddress": ["Berlin", "Deutschland"]}, "categories": [{"id": "4bf58dd8d48988d119941735", "name": "Hookah Bar", "pluralName": "Hookah Bars", "shortName": "Hookah Bar", "icon": {"prefix": "https://ss3.4sqi.net/img/categories_v2/nightlife/hookahbar_", "suffix": ".png"}, "primary": true}], "photos": {"count": 0, "groups": []}}, "referralId": "e-0-55ad5f29498eac224e1793fe-83"}, {"reasons": {"count": 0, "items": [{"summary": "This spot is popular", "type": "general", "reasonName": "globalInteractionReason"}]}, "venue": {"id": "4d2f2487a6df6dcbf639e07a", "name": "Rossmann", "location": {"address": "Otto-Suhr-Allee 94", "lat": 52.51666745168685, "lng": 13.309558079119974, "labeledLatLngs": [{"label": "display", "lat": 52.51666745168685, "lng": 13.309558079119974}], "distance": 623, "postalCode": "10585", "cc": "DE", "city": "Berlin", "state": "Berlin", "country": "Deutschland", "formattedAddress": ["Otto-Suhr-Allee 94", "10585 Berlin", "Deutschland"]}, "categories": [{"id": "5745c2e4498e11e7bccabdbd", "name": "Drugstore", "pluralName": "Drugstores", "shortName": "Drugstore", "icon": {"prefix": "https://ss3.4sqi.net/img/categories_v2/shops/pharmacy_", "suffix": ".png"}, "primary": true}], "photos": {"count": 0, "groups": []}}, "referralId": "e-0-4d2f2487a6df6dcbf639e07a-84"}, {"reasons": {"count": 0, "items": [{"summary": "This spot is popular", "type": "general", "reasonName": "globalInteractionReason"}]}, "venue": {"id": "4bdeba8b6198c9b6859a14ff", "name": "Einstein Kaffee", "location": {"address": "Franklinstr. 12", "lat": 52.5213186045329, "lng": 13.32931133140066, "labeledLatLngs": [{"label": "display", "lat": 52.5213186045329, "lng": 13.32931133140066}], "distance": 956, "postalCode": "10587", "cc": "DE", "city": "Berlin", "state": "Berlin", "country": "Deutschland", "formattedAddress": ["Franklinstr. 12", "10587 Berlin", "Deutschland"]}, "categories": [{"id": "4bf58dd8d48988d1e0931735", "name": "Coffee Shop", "pluralName": "Coffee Shops", "shortName": "Coffee Shop", "icon": {"prefix": "https://ss3.4sqi.net/img/categories_v2/food/coffeeshop_", "suffix": ".png"}, "primary": true}], "photos": {"count": 0, "groups": []}}, "referralId": "e-0-4bdeba8b6198c9b6859a14ff-85"}, {"reasons": {"count": 0, "items": [{"summary": "This spot is popular", "type": "general", "reasonName": "globalInteractionReason"}]}, "venue": {"id": "4f6f852ce4b062083371f462", "name": "Steinofen Pizza", "location": {"address": "Wilmersdorfer Str. 32", "lat": 52.51240857946598, "lng": 13.305084132506853, "labeledLatLngs": [{"label": "display", "lat": 52.51240857946598, "lng": 13.305084132506853}], "distance": 987, "postalCode": "10585", "cc": "DE", "city": "Berlin", "state": "Berlin", "country": "Deutschland", "formattedAddress": ["Wilmersdorfer Str. 32", "10585 Berlin", "Deutschland"]}, "categories": [{"id": "4bf58dd8d48988d1ca941735", "name": "Pizza Place", "pluralName": "Pizza Places", "shortName": "Pizza", "icon": {"prefix": "https://ss3.4sqi.net/img/categories_v2/food/pizza_", "suffix": ".png"}, "primary": true}], "photos": {"count": 0, "groups": []}}, "referralId": "e-0-4f6f852ce4b062083371f462-86"}, {"reasons": {"count": 0, "items": [{"summary": "This spot is popular", "type": "general", "reasonName": "globalInteractionReason"}]}, "venue": {"id": "58075a6c38fa7c1a492cbfab", "name": "Dave B.", "location": {"address": "Otto-Suhr-Allee 6", "lat": 52.514304946816544, "lng": 13.31870125060986, "labeledLatLngs": [{"label": "display", "lat": 52.514304946816544, "lng": 13.31870125060986}], "distance": 155, "postalCode": "10585", "cc": "DE", "city": "Berlin", "state": "Berlin", "country": "Deutschland", "formattedAddress": ["Otto-Suhr-Allee 6", "10585 Berlin", "Deutschland"]}, "categories": [{"id": "4bf58dd8d48988d1bd941735", "name": "Salad Place", "pluralName": "Salad Places", "shortName": "Salad", "icon": {"prefix": "https://ss3.4sqi.net/img/categories_v2/food/salad_", "suffix": ".png"}, "primary": true}], "photos": {"count": 0, "groups": []}}, "referralId": "e-0-58075a6c38fa7c1a492cbfab-87"}, {"reasons": {"count": 0, "items": [{"summary": "This spot is popular", "type": "general", "reasonName": "globalInteractionReason"}]}, "venue": {"id": "51e7ca7b498eb058cbe5294a", "name": "Bistro Schr\u00f6dingers", "location": {"address": "Helmholtzstr. 23", "lat": 52.52202072017027, "lng": 13.327195154246525, "labeledLatLngs": [{"label": "display", "lat": 52.52202072017027, "lng": 13.327195154246525}], "distance": 912, "postalCode": "10587", "cc": "DE", "city": "Berlin", "state": "Berlin", "country": "Deutschland", "formattedAddress": ["Helmholtzstr. 23", "10587 Berlin", "Deutschland"]}, "categories": [{"id": "4bf58dd8d48988d155941735", "name": "Gastropub", "pluralName": "Gastropubs", "shortName": "Gastropub", "icon": {"prefix": "https://ss3.4sqi.net/img/categories_v2/food/gastropub_", "suffix": ".png"}, "primary": true}], "photos": {"count": 0, "groups": []}}, "referralId": "e-0-51e7ca7b498eb058cbe5294a-88"}, {"reasons": {"count": 0, "items": [{"summary": "This spot is popular", "type": "general", "reasonName": "globalInteractionReason"}]}, "venue": {"id": "4d5e3faa922960fc59aa588b", "name": "Il Pozzetto Ristorante & Il Lucano Salumeria", "location": {"address": "Helmholtzstr. 30", "crossStreet": "Pascsalstr.", "lat": 52.521672823061756, "lng": 13.32497580694212, "labeledLatLngs": [{"label": "display", "lat": 52.521672823061756, "lng": 13.32497580694212}], "distance": 791, "postalCode": "10587", "cc": "DE", "city": "Berlin", "state": "Berlin", "country": "Deutschland", "formattedAddress": ["Helmholtzstr. 30 (Pascsalstr.)", "10587 Berlin", "Deutschland"]}, "categories": [{"id": "4bf58dd8d48988d110941735", "name": "Italian Restaurant", "pluralName": "Italian Restaurants", "shortName": "Italian", "icon": {"prefix": "https://ss3.4sqi.net/img/categories_v2/food/italian_", "suffix": ".png"}, "primary": true}], "photos": {"count": 0, "groups": []}, "venuePage": {"id": "151800745"}}, "referralId": "e-0-4d5e3faa922960fc59aa588b-89"}, {"reasons": {"count": 0, "items": [{"summary": "This spot is popular", "type": "general", "reasonName": "globalInteractionReason"}]}, "venue": {"id": "58fa4ed4e96d0c3bd11cc620", "name": "REWE City", "location": {"address": "Bismarckstr. 91", "crossStreet": "Krumme Str.", "lat": 52.51149410622222, "lng": 13.309624661822227, "labeledLatLngs": [{"label": "display", "lat": 52.51149410622222, "lng": 13.309624661822227}], "distance": 768, "postalCode": "10625", "cc": "DE", "neighborhood": "Charlottenburg", "city": "Berlin", "state": "Berlin", "country": "Deutschland", "formattedAddress": ["Bismarckstr. 91 (Krumme Str.)", "10625 Berlin", "Deutschland"]}, "categories": [{"id": "52f2ab2ebcbc57f1066b8b46", "name": "Supermarket", "pluralName": "Supermarkets", "shortName": "Supermarket", "icon": {"prefix": "https://ss3.4sqi.net/img/categories_v2/shops/food_grocery_", "suffix": ".png"}, "primary": true}], "photos": {"count": 0, "groups": []}, "venuePage": {"id": "559367132"}}, "referralId": "e-0-58fa4ed4e96d0c3bd11cc620-90"}, {"reasons": {"count": 0, "items": [{"summary": "This spot is popular", "type": "general", "reasonName": "globalInteractionReason"}]}, "venue": {"id": "576ae9de498ee62fca449e61", "name": "Chen's Wok", "location": {"address": "Otto-Suhr-Allee 11", "lat": 52.513431, "lng": 13.318671, "labeledLatLngs": [{"label": "display", "lat": 52.513431, "lng": 13.318671}], "distance": 252, "postalCode": "10585", "cc": "DE", "city": "Berlin", "state": "Berlin", "country": "Deutschland", "formattedAddress": ["Otto-Suhr-Allee 11", "10585 Berlin", "Deutschland"]}, "categories": [{"id": "4bf58dd8d48988d145941735", "name": "Chinese Restaurant", "pluralName": "Chinese Restaurants", "shortName": "Chinese", "icon": {"prefix": "https://ss3.4sqi.net/img/categories_v2/food/asian_", "suffix": ".png"}, "primary": true}], "photos": {"count": 0, "groups": []}}, "referralId": "e-0-576ae9de498ee62fca449e61-91"}, {"reasons": {"count": 0, "items": [{"summary": "This spot is popular", "type": "general", "reasonName": "globalInteractionReason"}]}, "venue": {"id": "56c46fc3cd1029b97fdbfb9b", "name": "IMAKI Today", "location": {"address": "Helmholtzstra\u00dfe", "lat": 52.52156771468048, "lng": 13.324481995627806, "labeledLatLngs": [{"label": "display", "lat": 52.52156771468048, "lng": 13.324481995627806}], "distance": 764, "cc": "DE", "city": "Berlin", "state": "Berlin", "country": "Deutschland", "formattedAddress": ["Helmholtzstra\u00dfe", "Berlin", "Deutschland"]}, "categories": [{"id": "4bf58dd8d48988d14a941735", "name": "Vietnamese Restaurant", "pluralName": "Vietnamese Restaurants", "shortName": "Vietnamese", "icon": {"prefix": "https://ss3.4sqi.net/img/categories_v2/food/vietnamese_", "suffix": ".png"}, "primary": true}], "photos": {"count": 0, "groups": []}}, "referralId": "e-0-56c46fc3cd1029b97fdbfb9b-92"}, {"reasons": {"count": 0, "items": [{"summary": "This spot is popular", "type": "general", "reasonName": "globalInteractionReason"}]}, "venue": {"id": "4adcda76f964a520cd4521e3", "name": "Caf\u00e9 Hardenberg", "location": {"address": "Hardenbergstr. 10", "lat": 52.509224396439436, "lng": 13.324828618068134, "labeledLatLngs": [{"label": "display", "lat": 52.509224396439436, "lng": 13.324828618068134}], "distance": 834, "postalCode": "10623", "cc": "DE", "city": "Berlin", "state": "Berlin", "country": "Deutschland", "formattedAddress": ["Hardenbergstr. 10", "10623 Berlin", "Deutschland"]}, "categories": [{"id": "4bf58dd8d48988d1c4941735", "name": "Restaurant", "pluralName": "Restaurants", "shortName": "Restaurant", "icon": {"prefix": "https://ss3.4sqi.net/img/categories_v2/food/default_", "suffix": ".png"}, "primary": true}], "photos": {"count": 0, "groups": []}}, "referralId": "e-0-4adcda76f964a520cd4521e3-93"}, {"reasons": {"count": 0, "items": [{"summary": "This spot is popular", "type": "general", "reasonName": "globalInteractionReason"}]}, "venue": {"id": "4be7e1b69a54a593cc430911", "name": "Pasta & Basta", "location": {"address": "Knesebeckstr. 194", "lat": 52.50908423485264, "lng": 13.322871113913928, "labeledLatLngs": [{"label": "display", "lat": 52.50908423485264, "lng": 13.322871113913928}], "distance": 790, "postalCode": "10623", "cc": "DE", "city": "Berlin", "state": "Berlin", "country": "Deutschland", "formattedAddress": ["Knesebeckstr. 194", "10623 Berlin", "Deutschland"]}, "categories": [{"id": "4bf58dd8d48988d110941735", "name": "Italian Restaurant", "pluralName": "Italian Restaurants", "shortName": "Italian", "icon": {"prefix": "https://ss3.4sqi.net/img/categories_v2/food/italian_", "suffix": ".png"}, "primary": true}], "photos": {"count": 0, "groups": []}}, "referralId": "e-0-4be7e1b69a54a593cc430911-94"}, {"reasons": {"count": 0, "items": [{"summary": "This spot is popular", "type": "general", "reasonName": "globalInteractionReason"}]}, "venue": {"id": "4b1cef0ef964a5208f0a24e3", "name": "Balzac Coffee", "location": {"address": "Knesebeckstr. 1-2", "lat": 52.510736397013005, "lng": 13.32312989669319, "labeledLatLngs": [{"label": "display", "lat": 52.510736397013005, "lng": 13.32312989669319}], "distance": 631, "postalCode": "10623", "cc": "DE", "city": "Berlin", "state": "Berlin", "country": "Deutschland", "formattedAddress": ["Knesebeckstr. 1-2", "10623 Berlin", "Deutschland"]}, "categories": [{"id": "4bf58dd8d48988d1e0931735", "name": "Coffee Shop", "pluralName": "Coffee Shops", "shortName": "Coffee Shop", "icon": {"prefix": "https://ss3.4sqi.net/img/categories_v2/food/coffeeshop_", "suffix": ".png"}, "primary": true}], "photos": {"count": 0, "groups": []}}, "referralId": "e-0-4b1cef0ef964a5208f0a24e3-95"}, {"reasons": {"count": 0, "items": [{"summary": "This spot is popular", "type": "general", "reasonName": "globalInteractionReason"}]}, "venue": {"id": "4d948d5e1646a35d0fd438a3", "name": "Pizza Napoli", "location": {"address": "Wilmersdorfer Str. 32", "lat": 52.513252443593636, "lng": 13.30490534828626, "labeledLatLngs": [{"label": "display", "lat": 52.513252443593636, "lng": 13.30490534828626}], "distance": 968, "postalCode": "10585", "cc": "DE", "city": "Berlin", "state": "Berlin", "country": "Deutschland", "formattedAddress": ["Wilmersdorfer Str. 32", "10585 Berlin", "Deutschland"]}, "categories": [{"id": "4bf58dd8d48988d1ca941735", "name": "Pizza Place", "pluralName": "Pizza Places", "shortName": "Pizza", "icon": {"prefix": "https://ss3.4sqi.net/img/categories_v2/food/pizza_", "suffix": ".png"}, "primary": true}], "photos": {"count": 0, "groups": []}}, "referralId": "e-0-4d948d5e1646a35d0fd438a3-96"}, {"reasons": {"count": 0, "items": [{"summary": "This spot is popular", "type": "general", "reasonName": "globalInteractionReason"}]}, "venue": {"id": "55e44242498e74dd93c527e4", "name": "Hit Ullrich", "location": {"address": "Wilmersdorfer Str. 26-28", "lat": 52.5134960962386, "lng": 13.304762239755654, "labeledLatLngs": [{"label": "display", "lat": 52.5134960962386, "lng": 13.304762239755654}], "distance": 970, "postalCode": "10585", "cc": "DE", "city": "Berlin", "state": "Berlin", "country": "Deutschland", "formattedAddress": ["Wilmersdorfer Str. 26-28", "10585 Berlin", "Deutschland"]}, "categories": [{"id": "52f2ab2ebcbc57f1066b8b46", "name": "Supermarket", "pluralName": "Supermarkets", "shortName": "Supermarket", "icon": {"prefix": "https://ss3.4sqi.net/img/categories_v2/shops/food_grocery_", "suffix": ".png"}, "primary": true}], "photos": {"count": 0, "groups": []}, "venuePage": {"id": "142258515"}}, "referralId": "e-0-55e44242498e74dd93c527e4-97"}, {"reasons": {"count": 0, "items": [{"summary": "This spot is popular", "type": "general", "reasonName": "globalInteractionReason"}]}, "venue": {"id": "596e4df12f97ec370bc1e95c", "name": "EDEKA Otto-Suhr-Allee", "location": {"address": "Otto-Suhr-Allee 105", "lat": 52.51693406, "lng": 13.3071315, "labeledLatLngs": [{"label": "display", "lat": 52.51693406, "lng": 13.3071315}], "distance": 790, "postalCode": "10585", "cc": "DE", "city": "Berlin", "state": "Berlin", "country": "Deutschland", "formattedAddress": ["Otto-Suhr-Allee 105", "10585 Berlin", "Deutschland"]}, "categories": [{"id": "52f2ab2ebcbc57f1066b8b46", "name": "Supermarket", "pluralName": "Supermarkets", "shortName": "Supermarket", "icon": {"prefix": "https://ss3.4sqi.net/img/categories_v2/shops/food_grocery_", "suffix": ".png"}, "primary": true}], "photos": {"count": 0, "groups": []}, "venuePage": {"id": "555663707"}}, "referralId": "e-0-596e4df12f97ec370bc1e95c-98"}, {"reasons": {"count": 0, "items": [{"summary": "This spot is popular", "type": "general", "reasonName": "globalInteractionReason"}]}, "venue": {"id": "4b97fe23f964a520a92435e3", "name": "Don Giovanni", "location": {"address": "Bismarckstr. 28", "lat": 52.51193821855951, "lng": 13.311147016054875, "labeledLatLngs": [{"label": "display", "lat": 52.51193821855951, "lng": 13.311147016054875}], "distance": 657, "postalCode": "10625", "cc": "DE", "city": "Berlin", "state": "Berlin", "country": "Deutschland", "formattedAddress": ["Bismarckstr. 28", "10625 Berlin", "Deutschland"]}, "categories": [{"id": "4bf58dd8d48988d110941735", "name": "Italian Restaurant", "pluralName": "Italian Restaurants", "shortName": "Italian", "icon": {"prefix": "https://ss3.4sqi.net/img/categories_v2/food/italian_", "suffix": ".png"}, "primary": true}], "photos": {"count": 0, "groups": []}}, "referralId": "e-0-4b97fe23f964a520a92435e3-99"}]