[{"reasons": {"count": 0, "items": [{"summary": "This spot is popular", "type": "general", "reasonName": "globalInteractionReason"}]}, "venue": {"id": "4c09effd7e3fc928ffe7f282", "name": "Schlosspark Niedersch\u00f6nhausen", "location": {"address": "Am Schlosspark 34", "crossStreet": "Ossietzkystr.", "lat": 52.577017, "lng": 13.407866, "labeledLatLngs": [{"label": "display", "lat": 52.577017, "lng": 13.407866}], "distance": 403, "postalCode": "13156", "cc": "DE", "city": "Berlin", "state": "Berlin", "country": "Deutschland", "formattedAddress": ["Am Schlosspark 34 (Ossietzkystr.)", "13156 Berlin", "Deutschland"]}, "categories": [{"id": "4bf58dd8d48988d163941735", "name": "Park", "pluralName": "Parks", "shortName": "Park", "icon": {"prefix": "https://ss3.4sqi.net/img/categories_v2/parks_outdoors/park_", "suffix": ".png"}, "primary": true}], "photos": {"count": 0, "groups": []}}, "referralId": "e-0-4c09effd7e3fc928ffe7f282-0"}, {"reasons": {"count": 0, "items": [{"summary": "This spot is popular", "type": "general", "reasonName": "globalInteractionReason"}]}, "venue": {"id": "5475d3f4498e156b2209f652", "name": "liebes bisschen", "location": {"address": "Berliner Str. 6", "crossStreet": "Schulstr.", "lat": 52.569593, "lng": 13.410874, "labeledLatLngs": [{"label": "display", "lat": 52.569593, "lng": 13.410874}], "distance": 642, "postalCode": "13187", "cc": "DE", "city": "Berlin", "state": "Berlin", "country": "Deutschland", "formattedAddress": ["Berliner Str. 6 (Schulstr.)", "13187 Berlin", "Deutschland"]}, "categories": [{"id": "4bf58dd8d48988d16d941735", "name": "Caf\u00e9", "pluralName": "Caf\u00e9s", "shortName": "Caf\u00e9", "icon": {"prefix": "https://ss3.4sqi.net/img/categories_v2/food/cafe_", "suffix": ".png"}, "primary": true}], "photos": {"count": 0, "groups": []}}, "referralId": "e-0-5475d3f4498e156b2209f652-1"}, {"reasons": {"count": 0, "items": [{"summary": "This spot is popular", "type": "general", "reasonName": "globalInteractionReason"}]}, "venue": {"id": "4d2889b2ebacb1f71a0af24f", "name": "Eden*****", "location": {"address": "Breite Str. 43a", "lat": 52.57134225789132, "lng": 13.411595043768896, "labeledLatLngs": [{"label": "display", "lat": 52.57134225789132, "lng": 13.411595043768896}], "distance": 442, "postalCode": "13187", "cc": "DE", "city": "Berlin", "state": "Berlin", "country": "Deutschland", "formattedAddress": ["Breite Str. 43a", "13187 Berlin", "Deutschland"]}, "categories": [{"id": "4bf58dd8d48988d16d941735", "name": "Caf\u00e9", "pluralName": "Caf\u00e9s", "shortName": "Caf\u00e9", "icon": {"prefix": "https://ss3.4sqi.net/img/categories_v2/food/cafe_", "suffix": ".png"}, "primary": true}], "photos": {"count": 0, "groups": []}}, "referralId": "e-0-4d2889b2ebacb1f71a0af24f-2"}, {"reasons": {"count": 0, "items": [{"summary": "This spot is popular", "type": "general", "reasonName": "globalInteractionReason"}]}, "venue": {"id": "55b10ac2498ee9542a83658e", "name": "Eisspatz", "location": {"address": "Berliner Stra\u00dfe 3", "lat": 52.56995919687778, "lng": 13.410834093739817, "labeledLatLngs": [{"label": "display", "lat": 52.56995919687778, "lng": 13.410834093739817}], "distance": 603, "postalCode": "13187", "cc": "DE", "city": "Berlin", "state": "Berlin", "country": "Deutschland", "formattedAddress": ["Berliner Stra\u00dfe 3", "13187 Pankow", "Deutschland"]}, "categories": [{"id": "4bf58dd8d48988d1c9941735", "name": "Ice Cream Shop", "pluralName": "Ice Cream Shops", "shortName": "Ice Cream", "icon": {"prefix": "https://ss3.4sqi.net/img/categories_v2/food/icecream_", "suffix": ".png"}, "primary": true}], "photos": {"count": 0, "groups": []}}, "referralId": "e-0-55b10ac2498ee9542a83658e-3"}, {"reasons": {"count": 0, "items": [{"summary": "This spot is popular", "type": "general", "reasonName": "globalInteractionReason"}]}, "venue": {"id": "55d9cd07498e86c4d8258a43", "name": "Caf\u00e9 Sommerlust", "location": {"address": "Tschaikowskistr. 1", "lat": 52.578126588792635, "lng": 13.4040766954422, "labeledLatLngs": [{"label": "display", "lat": 52.578126588792635, "lng": 13.4040766954422}], "distance": 688, "postalCode": "13156", "cc": "DE", "city": "Berlin", "state": "Berlin", "country": "Deutschland", "formattedAddress": ["Tschaikowskistr. 1", "13156 Berlin", "Deutschland"]}, "categories": [{"id": "4bf58dd8d48988d16d941735", "name": "Caf\u00e9", "pluralName": "Caf\u00e9s", "shortName": "Caf\u00e9", "icon": {"prefix": "https://ss3.4sqi.net/img/categories_v2/food/cafe_", "suffix": ".png"}, "primary": true}], "photos": {"count": 0, "groups": []}}, "referralId": "e-0-55d9cd07498e86c4d8258a43-4"}, {"reasons": {"count": 0, "items": [{"summary": "This spot is popular", "type": "general", "reasonName": "globalInteractionReason"}]}, "venue": {"id": "4d67ba63a88a6ea8c1bce672", "name": "Schloss Sch\u00f6nhausen", "location": {"address": "Tschaikowskistr. 1", "lat": 52.57841997382304, "lng": 13.405648469924927, "labeledLatLngs": [{"label": "display", "lat": 52.57841997382304, "lng": 13.405648469924927}], "distance": 614, "postalCode": "13156", "cc": "DE", "city": "Berlin", "state": "Berlin", "country": "Deutschland", "formattedAddress": ["Tschaikowskistr. 1", "13156 Berlin", "Deutschland"]}, "categories": [{"id": "52e81612bcbc57f1066b7a14", "name": "Palace", "pluralName": "Palaces", "shortName": "Palace", "icon": {"prefix": "https://ss3.4sqi.net/img/categories_v2/parks_outdoors/default_", "suffix": ".png"}, "primary": true}], "photos": {"count": 0, "groups": []}}, "referralId": "e-0-4d67ba63a88a6ea8c1bce672-5"}, {"reasons": {"count": 0, "items": [{"summary": "This spot is popular", "type": "general", "reasonName": "globalInteractionReason"}]}, "venue": {"id": "4b41beb0f964a520acc825e3", "name": "Rosenrot", "location": {"address": "Ossietzkystr. 2", "lat": 52.57128364104611, "lng": 13.409001231193542, "labeledLatLngs": [{"label": "display", "lat": 52.57128364104611, "lng": 13.409001231193542}], "distance": 516, "postalCode": "13187", "cc": "DE", "neighborhood": "Pankow", "city": "Berlin", "state": "Berlin", "country": "Deutschland", "formattedAddress": ["Ossietzkystr. 2", "13187 Berlin", "Deutschland"]}, "categories": [{"id": "4bf58dd8d48988d16d941735", "name": "Caf\u00e9", "pluralName": "Caf\u00e9s", "shortName": "Caf\u00e9", "icon": {"prefix": "https://ss3.4sqi.net/img/categories_v2/food/cafe_", "suffix": ".png"}, "primary": true}], "photos": {"count": 0, "groups": []}}, "referralId": "e-0-4b41beb0f964a520acc825e3-6"}, {"reasons": {"count": 0, "items": [{"summary": "This spot is popular", "type": "general", "reasonName": "globalInteractionReason"}]}, "venue": {"id": "4e6232f6e4cdf1e2bf2e3f3c", "name": "Janny's Eis", "location": {"address": "Breite Stra\u00dfe 12", "lat": 52.57074035407863, "lng": 13.40798224829901, "labeledLatLngs": [{"label": "display", "lat": 52.57074035407863, "lng": 13.40798224829901}], "distance": 604, "postalCode": "13187", "cc": "DE", "city": "Berlin", "state": "Berlin", "country": "Deutschland", "formattedAddress": ["Breite Stra\u00dfe 12", "13187 Berlin", "Deutschland"]}, "categories": [{"id": "4bf58dd8d48988d1c9941735", "name": "Ice Cream Shop", "pluralName": "Ice Cream Shops", "shortName": "Ice Cream", "icon": {"prefix": "https://ss3.4sqi.net/img/categories_v2/food/icecream_", "suffix": ".png"}, "primary": true}], "photos": {"count": 0, "groups": []}}, "referralId": "e-0-4e6232f6e4cdf1e2bf2e3f3c-7"}, {"reasons": {"count": 0, "items": [{"summary": "This spot is popular", "type": "general", "reasonName": "globalInteractionReason"}]}, "venue": {"id": "5a5120c34b78c52e9fdd2f45", "name": "Roji", "location": {"address": "M\u00fchlenstr. 1", "crossStreet": "Breite Str.", "lat": 52.569143, "lng": 13.40343, "labeledLatLngs": [{"label": "display", "lat": 52.569143, "lng": 13.40343}], "distance": 938, "postalCode": "13187", "cc": "DE", "neighborhood": "Pankow", "city": "Berlin", "state": "Berlin", "country": "Deutschland", "formattedAddress": ["M\u00fchlenstr. 1 (Breite Str.)", "13187 Berlin", "Deutschland"]}, "categories": [{"id": "4bf58dd8d48988d111941735", "name": "Japanese Restaurant", "pluralName": "Japanese Restaurants", "shortName": "Japanese", "icon": {"prefix": "https://ss3.4sqi.net/img/categories_v2/food/japanese_", "suffix": ".png"}, "primary": true}], "photos": {"count": 0, "groups": []}}, "referralId": "e-0-5a5120c34b78c52e9fdd2f45-8"}, {"reasons": {"count": 0, "items": [{"summary": "This spot is popular", "type": "general", "reasonName": "globalInteractionReason"}]}, "venue": {"id": "4b5c4210f964a520d62829e3", "name": "Hey Cheuk Lau", "location": {"address": "Breite Str. 2", "crossStreet": "Kavalierstr.", "lat": 52.57157373631524, "lng": 13.411797206606447, "labeledLatLngs": [{"label": "display", "lat": 52.57157373631524, "lng": 13.411797206606447}], "distance": 414, "postalCode": "13187", "cc": "DE", "city": "Berlin", "state": "Berlin", "country": "Deutschland", "formattedAddress": ["Breite Str. 2 (Kavalierstr.)", "13187 Berlin", "Deutschland"]}, "categories": [{"id": "4bf58dd8d48988d145941735", "name": "Chinese Restaurant", "pluralName": "Chinese Restaurants", "shortName": "Chinese", "icon": {"prefix": "https://ss3.4sqi.net/img/categories_v2/food/asian_", "suffix": ".png"}, "primary": true}], "photos": {"count": 0, "groups": []}}, "referralId": "e-0-4b5c4210f964a520d62829e3-9"}, {"reasons": {"count": 0, "items": [{"summary": "This spot is popular", "type": "general", "reasonName": "globalInteractionReason"}]}, "venue": {"id": "562363f4498ead0b0e39238e", "name": "Sch\u00e4fer\u2019s Marktcaf\u00e9", "location": {"address": "Ossietskystra\u00dfe 1", "lat": 52.57117009588285, "lng": 13.409052248971502, "labeledLatLngs": [{"label": "display", "lat": 52.57117009588285, "lng": 13.409052248971502}], "distance": 525, "postalCode": "14168", "cc": "DE", "city": "Berlin", "state": "Berlin", "country": "Deutschland", "formattedAddress": ["Ossietskystra\u00dfe 1", "14168 Berlin", "Deutschland"]}, "categories": [{"id": "4bf58dd8d48988d16a941735", "name": "Bakery", "pluralName": "Bakeries", "shortName": "Bakery", "icon": {"prefix": "https://ss3.4sqi.net/img/categories_v2/food/bakery_", "suffix": ".png"}, "primary": true}], "photos": {"count": 0, "groups": []}}, "referralId": "e-0-562363f4498ead0b0e39238e-10"}, {"reasons": {"count": 0, "items": [{"summary": "This spot is popular", "type": "general", "reasonName": "globalInteractionReason"}]}, "venue": {"id": "50f551a9e4b07833ccbbf834", "name": "dm-drogerie markt", "location": {"address": "Garbatyplatz 2", "lat": 52.567460454788986, "lng": 13.411328588954916, "labeledLatLngs": [{"label": "display", "lat": 52.567460454788986, "lng": 13.411328588954916}], "distance": 871, "postalCode": "13187", "cc": "DE", "city": "Berlin", "state": "Berlin", "country": "Deutschland", "formattedAddress": ["Garbatyplatz 2", "13187 Berlin", "Deutschland"]}, "categories": [{"id": "5745c2e4498e11e7bccabdbd", "name": "Drugstore", "pluralName": "Drugstores", "shortName": "Drugstore", "icon": {"prefix": "https://ss3.4sqi.net/img/categories_v2/shops/pharmacy_", "suffix": ".png"}, "primary": true}], "photos": {"count": 0, "groups": []}, "venuePage": {"id": "453282548"}}, "referralId": "e-0-50f551a9e4b07833ccbbf834-11"}, {"reasons": {"count": 0, "items": [{"summary": "This spot is popular", "type": "general", "reasonName": "globalInteractionReason"}]}, "venue": {"id": "4ecf67948231b9ef8754a30e", "name": "Milchmanns Kaffeehaus", "location": {"address": "Berliner Str. 119", "crossStreet": "Hadlichstr.", "lat": 52.56821197812331, "lng": 13.412189888627312, "labeledLatLngs": [{"label": "display", "lat": 52.56821197812331, "lng": 13.412189888627312}], "distance": 781, "postalCode": "13187", "cc": "DE", "city": "Berlin", "state": "Berlin", "country": "Deutschland", "formattedAddress": ["Berliner Str. 119 (Hadlichstr.)", "13187 Berlin", "Deutschland"]}, "categories": [{"id": "4bf58dd8d48988d1e0931735", "name": "Coffee Shop", "pluralName": "Coffee Shops", "shortName": "Coffee Shop", "icon": {"prefix": "https://ss3.4sqi.net/img/categories_v2/food/coffeeshop_", "suffix": ".png"}, "primary": true}], "photos": {"count": 0, "groups": []}}, "referralId": "e-0-4ecf67948231b9ef8754a30e-12"}, {"reasons": {"count": 0, "items": [{"summary": "This spot is popular", "type": "general", "reasonName": "globalInteractionReason"}]}, "venue": {"id": "4c5a540c2091a593bf425fd0", "name": "Sommerbad Pankow", "location": {"address": "Wolfshagener Str. 91 - 93", "lat": 52.57596848507071, "lng": 13.414341303134785, "labeledLatLngs": [{"label": "display", "lat": 52.57596848507071, "lng": 13.414341303134785}], "distance": 121, "postalCode": "13187", "cc": "DE", "city": "Berlin", "state": "Berlin", "country": "Deutschland", "formattedAddress": ["Wolfshagener Str. 91 - 93", "13187 Berlin", "Deutschland"]}, "categories": [{"id": "4bf58dd8d48988d15e941735", "name": "Pool", "pluralName": "Pools", "shortName": "Pool", "icon": {"prefix": "https://ss3.4sqi.net/img/categories_v2/parks_outdoors/pool_", "suffix": ".png"}, "primary": true}], "photos": {"count": 0, "groups": []}}, "referralId": "e-0-4c5a540c2091a593bf425fd0-13"}, {"reasons": {"count": 0, "items": [{"summary": "This spot is popular", "type": "general", "reasonName": "globalInteractionReason"}]}, "venue": {"id": "520e14f57e48c579dccfb3cd", "name": "Zweite Liebe", "location": {"address": "Florastra\u00dfe 59", "lat": 52.56663413066544, "lng": 13.409521579742432, "labeledLatLngs": [{"label": "display", "lat": 52.56663413066544, "lng": 13.409521579742432}], "distance": 984, "postalCode": "13187", "cc": "DE", "city": "Berlin", "state": "Berlin", "country": "Deutschland", "formattedAddress": ["Florastra\u00dfe 59", "13187 Berlin", "Deutschland"]}, "categories": [{"id": "52f2ab2ebcbc57f1066b8b21", "name": "Stationery Store", "pluralName": "Stationery Stores", "shortName": "Stationery Store", "icon": {"prefix": "https://ss3.4sqi.net/img/categories_v2/shops/default_", "suffix": ".png"}, "primary": true}], "photos": {"count": 0, "groups": []}}, "referralId": "e-0-520e14f57e48c579dccfb3cd-14"}, {"reasons": {"count": 0, "items": [{"summary": "This spot is popular", "type": "general", "reasonName": "globalInteractionReason"}]}, "venue": {"id": "4d9305274a254eb94445ce4f", "name": "Mamma Mia", "location": {"address": "Blankenburger Strasse 6", "lat": 52.581489396875696, "lng": 13.404951728333106, "labeledLatLngs": [{"label": "display", "lat": 52.581489396875696, "lng": 13.404951728333106}], "distance": 887, "postalCode": "13156", "cc": "DE", "city": "Berlin", "state": "Berlin", "country": "Deutschland", "formattedAddress": ["Blankenburger Strasse 6", "13156 Berlin", "Deutschland"]}, "categories": [{"id": "4bf58dd8d48988d110941735", "name": "Italian Restaurant", "pluralName": "Italian Restaurants", "shortName": "Italian", "icon": {"prefix": "https://ss3.4sqi.net/img/categories_v2/food/italian_", "suffix": ".png"}, "primary": true}], "photos": {"count": 0, "groups": []}}, "referralId": "e-0-4d9305274a254eb94445ce4f-15"}, {"reasons": {"count": 0, "items": [{"summary": "This spot is popular", "type": "general", "reasonName": "globalInteractionReason"}]}, "venue": {"id": "526262f5498edab2ccfa6937", "name": "dm-drogerie markt", "location": {"address": "Breite Stra\u00dfe 18-23", "lat": 52.569950103759766, "lng": 13.404806137084961, "labeledLatLngs": [{"label": "display", "lat": 52.569950103759766, "lng": 13.404806137084961}], "distance": 808, "postalCode": "13187", "cc": "DE", "city": "Berlin", "state": "Berlin", "country": "Deutschland", "formattedAddress": ["Breite Stra\u00dfe 18-23", "13187 Berlin", "Deutschland"]}, "categories": [{"id": "5745c2e4498e11e7bccabdbd", "name": "Drugstore", "pluralName": "Drugstores", "shortName": "Drugstore", "icon": {"prefix": "https://ss3.4sqi.net/img/categories_v2/shops/pharmacy_", "suffix": ".png"}, "primary": true}], "photos": {"count": 0, "groups": []}, "venuePage": {"id": "451538222"}}, "referralId": "e-0-526262f5498edab2ccfa6937-16"}, {"reasons": {"count": 0, "items": [{"summary": "This spot is popular", "type": "general", "reasonName": "globalInteractionReason"}]}, "venue": {"id": "4adcda8bf964a520ea4921e3", "name": "Blauer Stern Pankow", "location": {"address": "Hermann-Hesse-Str. 11", "lat": 52.58044953616789, "lng": 13.40124555905411, "labeledLatLngs": [{"label": "display", "lat": 52.58044953616789, "lng": 13.40124555905411}], "distance": 988, "postalCode": "13156", "cc": "DE", "city": "Berlin", "state": "Berlin", "country": "Deutschland", "formattedAddress": ["Hermann-Hesse-Str. 11", "13156 Berlin", "Deutschland"]}, "categories": [{"id": "4bf58dd8d48988d17f941735", "name": "Movie Theater", "pluralName": "Movie Theaters", "shortName": "Movie Theater", "icon": {"prefix": "https://ss3.4sqi.net/img/categories_v2/arts_entertainment/movietheater_", "suffix": ".png"}, "primary": true}], "photos": {"count": 0, "groups": []}}, "referralId": "e-0-4adcda8bf964a520ea4921e3-17"}, {"reasons": {"count": 0, "items": [{"summary": "This spot is popular", "type": "general", "reasonName": "globalInteractionReason"}]}, "venue": {"id": "5491cbcb498e4a392d5acf24", "name": "SchillerBurger", "location": {"address": "Berliner Str. 9-12", "crossStreet": "Hadlichstr.", "lat": 52.56864030996582, "lng": 13.411780190477359, "labeledLatLngs": [{"label": "display", "lat": 52.56864030996582, "lng": 13.411780190477359}], "distance": 736, "postalCode": "13187", "cc": "DE", "city": "Berlin", "state": "Berlin", "country": "Deutschland", "formattedAddress": ["Berliner Str. 9-12 (Hadlichstr.)", "13187 Berlin", "Deutschland"]}, "categories": [{"id": "4bf58dd8d48988d16c941735", "name": "Burger Joint", "pluralName": "Burger Joints", "shortName": "Burgers", "icon": {"prefix": "https://ss3.4sqi.net/img/categories_v2/food/burger_", "suffix": ".png"}, "primary": true}], "photos": {"count": 0, "groups": []}}, "referralId": "e-0-5491cbcb498e4a392d5acf24-18"}, {"reasons": {"count": 0, "items": [{"summary": "This spot is popular", "type": "general", "reasonName": "globalInteractionReason"}]}, "venue": {"id": "4e367897b3adaade0530c190", "name": "Fitness First Women Club", "location": {"address": "Breite Stra\u00dfe 33-34", "lat": 52.56982949933151, "lng": 13.406842052936554, "labeledLatLngs": [{"label": "display", "lat": 52.56982949933151, "lng": 13.406842052936554}], "distance": 731, "postalCode": "13187", "cc": "DE", "city": "Berlin", "state": "Berlin", "country": "Deutschland", "formattedAddress": ["Breite Stra\u00dfe 33-34", "13187 Berlin", "Deutschland"]}, "categories": [{"id": "4bf58dd8d48988d175941735", "name": "Gym / Fitness Center", "pluralName": "Gyms or Fitness Centers", "shortName": "Gym / Fitness", "icon": {"prefix": "https://ss3.4sqi.net/img/categories_v2/building/gym_", "suffix": ".png"}, "primary": true}], "photos": {"count": 0, "groups": []}}, "referralId": "e-0-4e367897b3adaade0530c190-19"}, {"reasons": {"count": 0, "items": [{"summary": "This spot is popular", "type": "general", "reasonName": "globalInteractionReason"}]}, "venue": {"id": "50f57bb2e4b0dca7e2e65cde", "name": "EDEKA Schmitt", "location": {"address": "Garb\u00e1typlatz 1", "lat": 52.56726423240363, "lng": 13.411041204475064, "labeledLatLngs": [{"label": "display", "lat": 52.56726423240363, "lng": 13.411041204475064}], "distance": 895, "postalCode": "13187", "cc": "DE", "city": "Berlin", "state": "Berlin", "country": "Deutschland", "formattedAddress": ["Garb\u00e1typlatz 1", "13187 Berlin", "Deutschland"]}, "categories": [{"id": "52f2ab2ebcbc57f1066b8b46", "name": "Supermarket", "pluralName": "Supermarkets", "shortName": "Supermarket", "icon": {"prefix": "https://ss3.4sqi.net/img/categories_v2/shops/food_grocery_", "suffix": ".png"}, "primary": true}], "photos": {"count": 0, "groups": []}, "venuePage": {"id": "556437492"}}, "referralId": "e-0-50f57bb2e4b0dca7e2e65cde-20"}, {"reasons": {"count": 0, "items": [{"summary": "This spot is popular", "type": "general", "reasonName": "globalInteractionReason"}]}, "venue": {"id": "4f2149bae4b0926f76aadbb9", "name": "Rossmann", "location": {"address": "Breite Stra\u00dfe 20", "lat": 52.5700206915857, "lng": 13.4047750151157, "labeledLatLngs": [{"label": "display", "lat": 52.5700206915857, "lng": 13.4047750151157}], "distance": 804, "postalCode": "13187", "cc": "DE", "city": "Berlin", "state": "Berlin", "country": "Deutschland", "formattedAddress": ["Breite Stra\u00dfe 20", "13187 Berlin", "Deutschland"]}, "categories": [{"id": "5745c2e4498e11e7bccabdbd", "name": "Drugstore", "pluralName": "Drugstores", "shortName": "Drugstore", "icon": {"prefix": "https://ss3.4sqi.net/img/categories_v2/shops/pharmacy_", "suffix": ".png"}, "primary": true}], "photos": {"count": 0, "groups": []}}, "referralId": "e-0-4f2149bae4b0926f76aadbb9-21"}, {"reasons": {"count": 0, "items": [{"summary": "This spot is popular", "type": "general", "reasonName": "globalInteractionReason"}]}, "venue": {"id": "4c42e314d691c9b69ffb8e0a", "name": "Cafe Kubitza", "location": {"address": "Dietzgenstr. 22", "lat": 52.581686631270166, "lng": 13.404260564864577, "labeledLatLngs": [{"label": "display", "lat": 52.581686631270166, "lng": 13.404260564864577}], "distance": 934, "postalCode": "13156", "cc": "DE", "city": "Berlin", "state": "Berlin", "country": "Deutschland", "formattedAddress": ["Dietzgenstr. 22", "13156 Berlin", "Deutschland"]}, "categories": [{"id": "4bf58dd8d48988d1d0941735", "name": "Dessert Shop", "pluralName": "Dessert Shops", "shortName": "Desserts", "icon": {"prefix": "https://ss3.4sqi.net/img/categories_v2/food/dessert_", "suffix": ".png"}, "primary": true}], "photos": {"count": 0, "groups": []}}, "referralId": "e-0-4c42e314d691c9b69ffb8e0a-22"}, {"reasons": {"count": 0, "items": [{"summary": "This spot is popular", "type": "general", "reasonName": "globalInteractionReason"}]}, "venue": {"id": "4f2cf2e0e4b094acc4322b10", "name": "BIO COMPANY", "location": {"address": "Breite Str. 20", "crossStreet": "Rathaus-Center", "lat": 52.570110292619646, "lng": 13.40475483997751, "labeledLatLngs": [{"label": "display", "lat": 52.570110292619646, "lng": 13.40475483997751}], "distance": 798, "postalCode": "13187", "cc": "DE", "city": "Berlin", "state": "Berlin", "country": "Deutschland", "formattedAddress": ["Breite Str. 20 (Rathaus-Center)", "13187 Berlin", "Deutschland"]}, "categories": [{"id": "52f2ab2ebcbc57f1066b8b45", "name": "Organic Grocery", "pluralName": "Organic Groceries", "shortName": "Organic Grocery", "icon": {"prefix": "https://ss3.4sqi.net/img/categories_v2/shops/food_grocery_", "suffix": ".png"}, "primary": true}], "photos": {"count": 0, "groups": []}, "venuePage": {"id": "476453862"}}, "referralId": "e-0-4f2cf2e0e4b094acc4322b10-23"}, {"reasons": {"count": 0, "items": [{"summary": "This spot is popular", "type": "general", "reasonName": "globalInteractionReason"}]}, "venue": {"id": "53f77eac498e07b7676ef67a", "name": "PandaGarten", "location": {"address": "Berliner Str. 8", "lat": 52.56914520263672, "lng": 13.41120433807373, "labeledLatLngs": [{"label": "display", "lat": 52.56914520263672, "lng": 13.41120433807373}], "distance": 687, "postalCode": "13187", "cc": "DE", "city": "Berlin", "state": "Berlin", "country": "Deutschland", "formattedAddress": ["Berliner Str. 8", "13187 Berlin", "Deutschland"]}, "categories": [{"id": "4bf58dd8d48988d1d2941735", "name": "Sushi Restaurant", "pluralName": "Sushi Restaurants", "shortName": "Sushi", "icon": {"prefix": "https://ss3.4sqi.net/img/categories_v2/food/sushi_", "suffix": ".png"}, "primary": true}], "photos": {"count": 0, "groups": []}}, "referralId": "e-0-53f77eac498e07b7676ef67a-24"}, {"reasons": {"count": 0, "items": [{"summary": "This spot is popular", "type": "general", "reasonName": "globalInteractionReason"}]}, "venue": {"id": "4fce5f84e4b0589b09b7a8b0", "name": "Garb\u00e1typlatz", "location": {"address": "Garb\u00e1typlatz", "crossStreet": "Florastr.", "lat": 52.56727322302387, "lng": 13.411275744438171, "labeledLatLngs": [{"label": "display", "lat": 52.56727322302387, "lng": 13.411275744438171}], "distance": 892, "postalCode": "13187", "cc": "DE", "city": "Berlin", "state": "Berlin", "country": "Deutschland", "formattedAddress": ["Garb\u00e1typlatz (Florastr.)", "13187 Berlin", "Deutschland"]}, "categories": [{"id": "4bf58dd8d48988d164941735", "name": "Plaza", "pluralName": "Plazas", "shortName": "Plaza", "icon": {"prefix": "https://ss3.4sqi.net/img/categories_v2/parks_outdoors/plaza_", "suffix": ".png"}, "primary": true}], "photos": {"count": 0, "groups": []}}, "referralId": "e-0-4fce5f84e4b0589b09b7a8b0-25"}, {"reasons": {"count": 0, "items": [{"summary": "This spot is popular", "type": "general", "reasonName": "globalInteractionReason"}]}, "venue": {"id": "4f200e0fe4b00a97be4c3bc7", "name": "Rossmann", "location": {"address": "Hermann-Hesse-Stra\u00dfe 10", "lat": 52.58086481383494, "lng": 13.401806420970882, "labeledLatLngs": [{"label": "display", "lat": 52.58086481383494, "lng": 13.401806420970882}], "distance": 986, "postalCode": "13156", "cc": "DE", "city": "Berlin", "state": "Berlin", "country": "Deutschland", "formattedAddress": ["Hermann-Hesse-Stra\u00dfe 10", "13156 Berlin", "Deutschland"]}, "categories": [{"id": "5745c2e4498e11e7bccabdbd", "name": "Drugstore", "pluralName": "Drugstores", "shortName": "Drugstore", "icon": {"prefix": "https://ss3.4sqi.net/img/categories_v2/shops/pharmacy_", "suffix": ".png"}, "primary": true}], "photos": {"count": 0, "groups": []}}, "referralId": "e-0-4f200e0fe4b00a97be4c3bc7-26"}, {"reasons": {"count": 0, "items": [{"summary": "This spot is popular", "type": "general", "reasonName": "globalInteractionReason"}]}, "venue": {"id": "4e32957d483bf02b1f8aa4f5", "name": "Lidl", "location": {"address": "Grabbeallee 27/29", "lat": 52.5737266, "lng": 13.3985589, "labeledLatLngs": [{"label": "display", "lat": 52.5737266, "lng": 13.3985589}], "distance": 994, "postalCode": "13156", "cc": "DE", "city": "Berlin-Pankow", "state": "Berlin", "country": "Deutschland", "formattedAddress": ["Grabbeallee 27/29", "13156 Pankow", "Deutschland"]}, "categories": [{"id": "52f2ab2ebcbc57f1066b8b46", "name": "Supermarket", "pluralName": "Supermarkets", "shortName": "Supermarket", "icon": {"prefix": "https://ss3.4sqi.net/img/categories_v2/shops/food_grocery_", "suffix": ".png"}, "primary": true}], "photos": {"count": 0, "groups": []}, "venuePage": {"id": "578267892"}}, "referralId": "e-0-4e32957d483bf02b1f8aa4f5-27"}, {"reasons": {"count": 0, "items": [{"summary": "This spot is popular", "type": "general", "reasonName": "globalInteractionReason"}]}, "venue": {"id": "4dbbe81c4b222080d3834a5e", "name": "C&A", "location": {"address": "Breite Str. 20", "lat": 52.570186793177726, "lng": 13.405027683319549, "labeledLatLngs": [{"label": "display", "lat": 52.570186793177726, "lng": 13.405027683319549}], "distance": 779, "postalCode": "13187", "cc": "DE", "city": "Berlin", "state": "Berlin", "country": "Deutschland", "formattedAddress": ["Breite Str. 20", "13187 Berlin", "Deutschland"]}, "categories": [{"id": "4bf58dd8d48988d103951735", "name": "Clothing Store", "pluralName": "Clothing Stores", "shortName": "Apparel", "icon": {"prefix": "https://ss3.4sqi.net/img/categories_v2/shops/apparel_", "suffix": ".png"}, "primary": true}], "photos": {"count": 0, "groups": []}}, "referralId": "e-0-4dbbe81c4b222080d3834a5e-28"}, {"reasons": {"count": 0, "items": [{"summary": "This spot is popular", "type": "general", "reasonName": "globalInteractionReason"}]}, "venue": {"id": "4e575a04fa7624d9bbaedd1b", "name": "denn's Biomarkt", "location": {"address": "Hermann-Hesse-Str. 4", "lat": 52.58079313872249, "lng": 13.402339964374764, "labeledLatLngs": [{"label": "display", "lat": 52.58079313872249, "lng": 13.402339964374764}], "distance": 954, "postalCode": "13156", "cc": "DE", "city": "Berlin", "state": "Berlin", "country": "Deutschland", "formattedAddress": ["Hermann-Hesse-Str. 4", "13156 Berlin", "Deutschland"]}, "categories": [{"id": "52f2ab2ebcbc57f1066b8b45", "name": "Organic Grocery", "pluralName": "Organic Groceries", "shortName": "Organic Grocery", "icon": {"prefix": "https://ss3.4sqi.net/img/categories_v2/shops/food_grocery_", "suffix": ".png"}, "primary": true}], "photos": {"count": 0, "groups": []}}, "referralId": "e-0-4e575a04fa7624d9bbaedd1b-29"}, {"reasons": {"count": 0, "items": [{"summary": "This spot is popular", "type": "general", "reasonName": "globalInteractionReason"}]}, "venue": {"id": "4d78dab50ddba35d32084776", "name": "BackWerk", "location": {"address": "Breite Str. 20", "lat": 52.56975066737121, "lng": 13.404282887699715, "labeledLatLngs": [{"label": "display", "lat": 52.56975066737121, "lng": 13.404282887699715}], "distance": 849, "postalCode": "13187", "cc": "DE", "city": "Berlin", "state": "Berlin", "country": "Deutschland", "formattedAddress": ["Breite Str. 20", "13187 Berlin", "Deutschland"]}, "categories": [{"id": "4bf58dd8d48988d16a941735", "name": "Bakery", "pluralName": "Bakeries", "shortName": "Bakery", "icon": {"prefix": "https://ss3.4sqi.net/img/categories_v2/food/bakery_", "suffix": ".png"}, "primary": true}], "photos": {"count": 0, "groups": []}}, "referralId": "e-0-4d78dab50ddba35d32084776-30"}, {"reasons": {"count": 0, "items": [{"summary": "This spot is popular", "type": "general", "reasonName": "globalInteractionReason"}]}, "venue": {"id": "4beeaba13686c9b6cec1246e", "name": "Kaufland", "location": {"address": "Breite Str. 19-21 A", "lat": 52.56982405511648, "lng": 13.404387279829386, "labeledLatLngs": [{"label": "display", "lat": 52.56982405511648, "lng": 13.404387279829386}], "distance": 838, "postalCode": "13187", "cc": "DE", "city": "Berlin-Pankow", "state": "Berlin", "country": "Deutschland", "formattedAddress": ["Breite Str. 19-21 A", "13187 Pankow", "Deutschland"]}, "categories": [{"id": "52f2ab2ebcbc57f1066b8b42", "name": "Big Box Store", "pluralName": "Big Box Stores", "shortName": "Big Box Store", "icon": {"prefix": "https://ss3.4sqi.net/img/categories_v2/shops/default_", "suffix": ".png"}, "primary": true}], "photos": {"count": 0, "groups": []}, "venuePage": {"id": "467166261"}}, "referralId": "e-0-4beeaba13686c9b6cec1246e-31"}, {"reasons": {"count": 0, "items": [{"summary": "This spot is popular", "type": "general", "reasonName": "globalInteractionReason"}]}, "venue": {"id": "4c81182274d7b60c242973d8", "name": "Edeka Hadlichstra\u00dfe", "location": {"address": "Hadlichstr.", "crossStreet": "Damerowstr.", "lat": 52.571597394214514, "lng": 13.417655916007982, "labeledLatLngs": [{"label": "display", "lat": 52.571597394214514, "lng": 13.417655916007982}], "distance": 509, "postalCode": "13187", "cc": "DE", "city": "Berlin", "state": "Berlin", "country": "Deutschland", "formattedAddress": ["Hadlichstr. (Damerowstr.)", "13187 Berlin", "Deutschland"]}, "categories": [{"id": "52f2ab2ebcbc57f1066b8b46", "name": "Supermarket", "pluralName": "Supermarkets", "shortName": "Supermarket", "icon": {"prefix": "https://ss3.4sqi.net/img/categories_v2/shops/food_grocery_", "suffix": ".png"}, "primary": true}], "photos": {"count": 0, "groups": []}}, "referralId": "e-0-4c81182274d7b60c242973d8-32"}, {"reasons": {"count": 0, "items": [{"summary": "This spot is popular", "type": "general", "reasonName": "globalInteractionReason"}]}, "venue": {"id": "4fef1d84e4b0283e9ac3cd63", "name": "H Mendelstra\u00dfe", "location": {"address": "Stiftsweg", "crossStreet": "Mendelstr.", "lat": 52.57483779014221, "lng": 13.418882107606311, "labeledLatLngs": [{"label": "display", "lat": 52.57483779014221, "lng": 13.418882107606311}], "distance": 396, "postalCode": "13187", "cc": "DE", "city": "Berlin", "state": "Berlin", "country": "Deutschland", "formattedAddress": ["Stiftsweg (Mendelstr.)", "13187 Berlin", "Deutschland"]}, "categories": [{"id": "52f2ab2ebcbc57f1066b8b51", "name": "Tram Station", "pluralName": "Tram Stations", "shortName": "Tram", "icon": {"prefix": "https://ss3.4sqi.net/img/categories_v2/travel/trainstation_", "suffix": ".png"}, "primary": true}], "photos": {"count": 0, "groups": []}}, "referralId": "e-0-4fef1d84e4b0283e9ac3cd63-33"}, {"reasons": {"count": 0, "items": [{"summary": "This spot is popular", "type": "general", "reasonName": "globalInteractionReason"}]}, "venue": {"id": "4bba44ab53649c74c6d548fb", "name": "Olivenbaum\u200e Bistro", "location": {"address": "Breite Stra\u00dfe 33", "lat": 52.56967982698153, "lng": 13.407156101346315, "labeledLatLngs": [{"label": "display", "lat": 52.56967982698153, "lng": 13.407156101346315}], "distance": 733, "postalCode": "13187", "cc": "DE", "neighborhood": "Pankow", "city": "Berlin", "state": "Berlin", "country": "Deutschland", "formattedAddress": ["Breite Stra\u00dfe 33", "13187 Berlin", "Deutschland"]}, "categories": [{"id": "4bf58dd8d48988d10e941735", "name": "Greek Restaurant", "pluralName": "Greek Restaurants", "shortName": "Greek", "icon": {"prefix": "https://ss3.4sqi.net/img/categories_v2/food/greek_", "suffix": ".png"}, "primary": true}], "photos": {"count": 0, "groups": []}}, "referralId": "e-0-4bba44ab53649c74c6d548fb-34"}, {"reasons": {"count": 0, "items": [{"summary": "This spot is popular", "type": "general", "reasonName": "globalInteractionReason"}]}, "venue": {"id": "4e832c8502d58d31af56f112", "name": "Forum Pankow", "location": {"address": "Hadlichstr. 19", "lat": 52.57215140317362, "lng": 13.41714728302819, "labeledLatLngs": [{"label": "display", "lat": 52.57215140317362, "lng": 13.41714728302819}], "distance": 439, "postalCode": "13187", "cc": "DE", "city": "Berlin", "state": "Berlin", "country": "Deutschland", "formattedAddress": ["Hadlichstr. 19", "13187 Berlin", "Deutschland"]}, "categories": [{"id": "4bf58dd8d48988d1fd941735", "name": "Shopping Mall", "pluralName": "Shopping Malls", "shortName": "Mall", "icon": {"prefix": "https://ss3.4sqi.net/img/categories_v2/shops/mall_", "suffix": ".png"}, "primary": true}], "photos": {"count": 0, "groups": []}}, "referralId": "e-0-4e832c8502d58d31af56f112-35"}, {"reasons": {"count": 0, "items": [{"summary": "This spot is popular", "type": "general", "reasonName": "globalInteractionReason"}]}, "venue": {"id": "4b51d0baf964a520935627e3", "name": "OBI", "location": {"address": "Blankenburger Str. 86-92", "lat": 52.58333674095601, "lng": 13.419314140644918, "labeledLatLngs": [{"label": "display", "lat": 52.58333674095601, "lng": 13.419314140644918}], "distance": 998, "postalCode": "13156", "cc": "DE", "city": "Berlin-Pankow", "state": "Berlin", "country": "Deutschland", "formattedAddress": ["Blankenburger Str. 86-92", "13156 Pankow", "Deutschland"]}, "categories": [{"id": "4bf58dd8d48988d112951735", "name": "Hardware Store", "pluralName": "Hardware Stores", "shortName": "Hardware", "icon": {"prefix": "https://ss3.4sqi.net/img/categories_v2/shops/hardware_", "suffix": ".png"}, "primary": true}], "photos": {"count": 0, "groups": []}}, "referralId": "e-0-4b51d0baf964a520935627e3-36"}, {"reasons": {"count": 0, "items": [{"summary": "This spot is popular", "type": "general", "reasonName": "globalInteractionReason"}]}, "venue": {"id": "4ed0b4546c2510ace1498bff", "name": "ALDI NORD", "location": {"address": "Damerowstr. 8", "lat": 52.57204178128823, "lng": 13.417623865593056, "labeledLatLngs": [{"label": "display", "lat": 52.57204178128823, "lng": 13.417623865593056}], "distance": 469, "postalCode": "13187", "cc": "DE", "city": "Berlin", "state": "Berlin", "country": "Deutschland", "formattedAddress": ["Damerowstr. 8", "13187 Berlin", "Deutschland"]}, "categories": [{"id": "52f2ab2ebcbc57f1066b8b46", "name": "Supermarket", "pluralName": "Supermarkets", "shortName": "Supermarket", "icon": {"prefix": "https://ss3.4sqi.net/img/categories_v2/shops/food_grocery_", "suffix": ".png"}, "primary": true}], "photos": {"count": 0, "groups": []}}, "referralId": "e-0-4ed0b4546c2510ace1498bff-37"}, {"reasons": {"count": 0, "items": [{"summary": "This spot is popular", "type": "general", "reasonName": "globalInteractionReason"}]}, "venue": {"id": "5738af10498eac23d92305bf", "name": "Packstation 121", "location": {"address": "Hadlichstr. 19", "lat": 52.571728, "lng": 13.418192, "labeledLatLngs": [{"label": "display", "lat": 52.571728, "lng": 13.418192}], "distance": 521, "postalCode": "13187", "cc": "DE", "neighborhood": "Pankow", "city": "Berlin", "state": "Berlin", "country": "Deutschland", "formattedAddress": ["Hadlichstr. 19", "13187 Berlin", "Deutschland"]}, "categories": [{"id": "52f2ab2ebcbc57f1066b8b1f", "name": "Shipping Store", "pluralName": "Shipping Stores", "shortName": "Shipping Store", "icon": {"prefix": "https://ss3.4sqi.net/img/categories_v2/shops/default_", "suffix": ".png"}, "primary": true}], "photos": {"count": 0, "groups": []}}, "referralId": "e-0-5738af10498eac23d92305bf-38"}, {"reasons": {"count": 0, "items": [{"summary": "This spot is popular", "type": "general", "reasonName": "globalInteractionReason"}]}, "venue": {"id": "4bfcdc2af61dc9b69a309ede", "name": "Caf\u00e9 Nord", "location": {"address": "Grunowstra\u00dfe 21", "crossStreet": "Schulstra\u00dfe", "lat": 52.569048988813115, "lng": 13.408895305942314, "labeledLatLngs": [{"label": "display", "lat": 52.569048988813115, "lng": 13.408895305942314}], "distance": 741, "postalCode": "13187", "cc": "DE", "city": "Berlin", "state": "Berlin", "country": "Deutschland", "formattedAddress": ["Grunowstra\u00dfe 21 (Schulstra\u00dfe)", "13187 Berlin", "Deutschland"]}, "categories": [{"id": "4bf58dd8d48988d16d941735", "name": "Caf\u00e9", "pluralName": "Caf\u00e9s", "shortName": "Caf\u00e9", "icon": {"prefix": "https://ss3.4sqi.net/img/categories_v2/food/cafe_", "suffix": ".png"}, "primary": true}], "photos": {"count": 0, "groups": []}}, "referralId": "e-0-4bfcdc2af61dc9b69a309ede-39"}, {"reasons": {"count": 0, "items": [{"summary": "This spot is popular", "type": "general", "reasonName": "globalInteractionReason"}]}, "venue": {"id": "4d7de4f7fb38a09074b925f4", "name": "Steak Company Berlin", "location": {"address": "Grunowstra\u00dfe 1", "lat": 52.56893591434627, "lng": 13.408665139057696, "labeledLatLngs": [{"label": "display", "lat": 52.56893591434627, "lng": 13.408665139057696}], "distance": 759, "postalCode": "13187", "cc": "DE", "city": "Berlin", "state": "Berlin", "country": "Deutschland", "formattedAddress": ["Grunowstra\u00dfe 1", "13187 Berlin", "Deutschland"]}, "categories": [{"id": "4bf58dd8d48988d1cc941735", "name": "Steakhouse", "pluralName": "Steakhouses", "shortName": "Steakhouse", "icon": {"prefix": "https://ss3.4sqi.net/img/categories_v2/food/steakhouse_", "suffix": ".png"}, "primary": true}], "photos": {"count": 0, "groups": []}}, "referralId": "e-0-4d7de4f7fb38a09074b925f4-40"}, {"reasons": {"count": 0, "items": [{"summary": "This spot is popular", "type": "general", "reasonName": "globalInteractionReason"}]}, "venue": {"id": "4b5250d2f964a520be7627e3", "name": "BFT Tankstelle", "location": {"address": "Blankenburger Stra\u00dfe 36", "crossStreet": "Siegfriedstr.", "lat": 52.581896, "lng": 13.409755, "labeledLatLngs": [{"label": "display", "lat": 52.581896, "lng": 13.409755}], "distance": 776, "postalCode": "13156", "cc": "DE", "city": "Berlin", "state": "Berlin", "country": "Deutschland", "formattedAddress": ["Blankenburger Stra\u00dfe 36 (Siegfriedstr.)", "13156 Berlin", "Deutschland"]}, "categories": [{"id": "4bf58dd8d48988d113951735", "name": "Gas Station", "pluralName": "Gas Stations", "shortName": "Gas Station", "icon": {"prefix": "https://ss3.4sqi.net/img/categories_v2/shops/gas_", "suffix": ".png"}, "primary": true}], "photos": {"count": 0, "groups": []}}, "referralId": "e-0-4b5250d2f964a520be7627e3-41"}, {"reasons": {"count": 0, "items": [{"summary": "This spot is popular", "type": "general", "reasonName": "globalInteractionReason"}]}, "venue": {"id": "527e6abb498eaf4167424763", "name": "Tchibo", "location": {"address": "Breite Str. 18-21a", "lat": 52.569697462377476, "lng": 13.404002089755926, "labeledLatLngs": [{"label": "display", "lat": 52.569697462377476, "lng": 13.404002089755926}], "distance": 867, "postalCode": "13187", "cc": "DE", "city": "Berlin", "state": "Berlin", "country": "Deutschland", "formattedAddress": ["Breite Str. 18-21a", "13187 Berlin", "Deutschland"]}, "categories": [{"id": "4bf58dd8d48988d1e0931735", "name": "Coffee Shop", "pluralName": "Coffee Shops", "shortName": "Coffee Shop", "icon": {"prefix": "https://ss3.4sqi.net/img/categories_v2/food/coffeeshop_", "suffix": ".png"}, "primary": true}], "photos": {"count": 0, "groups": []}}, "referralId": "e-0-527e6abb498eaf4167424763-42"}, {"reasons": {"count": 0, "items": [{"summary": "This spot is popular", "type": "general", "reasonName": "globalInteractionReason"}]}, "venue": {"id": "570cb0bacd10ab9f3f00275f", "name": "H Ossietzkyplatz", "location": {"lat": 52.581625, "lng": 13.405696, "labeledLatLngs": [{"label": "display", "lat": 52.581625, "lng": 13.405696}], "distance": 869, "cc": "DE", "city": "Berlin", "state": "Berlin", "country": "Deutschland", "formattedAddress": ["Berlin", "Deutschland"]}, "categories": [{"id": "52f2ab2ebcbc57f1066b8b4f", "name": "Bus Stop", "pluralName": "Bus Stops", "shortName": "Bus Stop", "icon": {"prefix": "https://ss3.4sqi.net/img/categories_v2/travel/busstation_", "suffix": ".png"}, "primary": true}], "photos": {"count": 0, "groups": []}}, "referralId": "e-0-570cb0bacd10ab9f3f00275f-43"}, {"reasons": {"count": 0, "items": [{"summary": "This spot is popular", "type": "general", "reasonName": "globalInteractionReason"}]}, "venue": {"id": "5139d1d7e4b08ec1eb9c2285", "name": "Netto Filiale", "location": {"address": "Damerowstr. 40", "lat": 52.57620068, "lng": 13.42605087, "labeledLatLngs": [{"label": "display", "lat": 52.57620068, "lng": 13.42605087}], "distance": 886, "postalCode": "13187", "cc": "DE", "city": "Berlin", "state": "Berlin", "country": "Deutschland", "formattedAddress": ["Damerowstr. 40", "13187 Berlin", "Deutschland"]}, "categories": [{"id": "52f2ab2ebcbc57f1066b8b46", "name": "Supermarket", "pluralName": "Supermarkets", "shortName": "Supermarket", "icon": {"prefix": "https://ss3.4sqi.net/img/categories_v2/shops/food_grocery_", "suffix": ".png"}, "primary": true}], "photos": {"count": 0, "groups": []}, "venuePage": {"id": "548524924"}}, "referralId": "e-0-5139d1d7e4b08ec1eb9c2285-44"}, {"reasons": {"count": 0, "items": [{"summary": "This spot is popular", "type": "general", "reasonName": "globalInteractionReason"}]}, "venue": {"id": "4c1fa33bb306c92885bd68b7", "name": "Hua Li Du", "location": {"address": "Dietzgenstr. 11a", "lat": 52.581008, "lng": 13.403326, "labeledLatLngs": [{"label": "display", "lat": 52.581008, "lng": 13.403326}], "distance": 921, "postalCode": "13156", "cc": "DE", "city": "Berlin", "state": "Berlin", "country": "Deutschland", "formattedAddress": ["Dietzgenstr. 11a", "13156 Berlin", "Deutschland"]}, "categories": [{"id": "4bf58dd8d48988d145941735", "name": "Chinese Restaurant", "pluralName": "Chinese Restaurants", "shortName": "Chinese", "icon": {"prefix": "https://ss3.4sqi.net/img/categories_v2/food/asian_", "suffix": ".png"}, "primary": true}], "photos": {"count": 0, "groups": []}}, "referralId": "e-0-4c1fa33bb306c92885bd68b7-45"}, {"reasons": {"count": 0, "items": [{"summary": "This spot is popular", "type": "general", "reasonName": "globalInteractionReason"}]}, "venue": {"id": "4e12043ae4cdef074b7895a4", "name": "H Hermann-Hesse-Stra\u00dfe / Waldstra\u00dfe", "location": {"address": "Hermann-Hesse-Str.", "crossStreet": "Waldstr.", "lat": 52.58063356054592, "lng": 13.402032893756106, "labeledLatLngs": [{"label": "display", "lat": 52.58063356054592, "lng": 13.402032893756106}], "distance": 958, "postalCode": "13156", "cc": "DE", "city": "Berlin", "state": "Berlin", "country": "Deutschland", "formattedAddress": ["Hermann-Hesse-Str. (Waldstr.)", "13156 Berlin", "Deutschland"]}, "categories": [{"id": "52f2ab2ebcbc57f1066b8b51", "name": "Tram Station", "pluralName": "Tram Stations", "shortName": "Tram", "icon": {"prefix": "https://ss3.4sqi.net/img/categories_v2/travel/trainstation_", "suffix": ".png"}, "primary": true}], "photos": {"count": 0, "groups": []}}, "referralId": "e-0-4e12043ae4cdef074b7895a4-46"}, {"reasons": {"count": 0, "items": [{"summary": "This spot is popular", "type": "general", "reasonName": "globalInteractionReason"}]}, "venue": {"id": "5662dad8498e347f6f4566b9", "name": "Let's Curry! & Burger", "location": {"address": "Hermann-Hesse-Str. 4", "lat": 52.580912571644326, "lng": 13.40198168162209, "labeledLatLngs": [{"label": "display", "lat": 52.580912571644326, "lng": 13.40198168162209}], "distance": 981, "postalCode": "13156", "cc": "DE", "city": "Niedersch\u00f6nhausen", "state": "Berlin", "country": "Deutschland", "formattedAddress": ["Hermann-Hesse-Str. 4", "13156 Berlin", "Deutschland"]}, "categories": [{"id": "4bf58dd8d48988d16c941735", "name": "Burger Joint", "pluralName": "Burger Joints", "shortName": "Burgers", "icon": {"prefix": "https://ss3.4sqi.net/img/categories_v2/food/burger_", "suffix": ".png"}, "primary": true}], "photos": {"count": 0, "groups": []}}, "referralId": "e-0-5662dad8498e347f6f4566b9-47"}, {"reasons": {"count": 0, "items": [{"summary": "This spot is popular", "type": "general", "reasonName": "globalInteractionReason"}]}, "venue": {"id": "4ef1fcb761af815c79271b01", "name": "H Tschaikowskistra\u00dfe", "location": {"address": "Grabbeallee", "crossStreet": "Tschaikowskistr.", "lat": 52.57631081776122, "lng": 13.39857816696167, "labeledLatLngs": [{"label": "display", "lat": 52.57631081776122, "lng": 13.39857816696167}], "distance": 986, "postalCode": "13156", "cc": "DE", "city": "Berlin", "state": "Berlin", "country": "Deutschland", "formattedAddress": ["Grabbeallee (Tschaikowskistr.)", "13156 Berlin", "Deutschland"]}, "categories": [{"id": "52f2ab2ebcbc57f1066b8b51", "name": "Tram Station", "pluralName": "Tram Stations", "shortName": "Tram", "icon": {"prefix": "https://ss3.4sqi.net/img/categories_v2/travel/trainstation_", "suffix": ".png"}, "primary": true}], "photos": {"count": 0, "groups": []}}, "referralId": "e-0-4ef1fcb761af815c79271b01-48"}, {"reasons": {"count": 0, "items": [{"summary": "This spot is popular", "type": "general", "reasonName": "globalInteractionReason"}]}, "venue": {"id": "4bb04693f964a520513f3ce3", "name": "Johns B\u00e4ckerei & Konditorei", "location": {"address": "Kissingenstr. 35", "lat": 52.56718, "lng": 13.419269, "labeledLatLngs": [{"label": "display", "lat": 52.56718, "lng": 13.419269}], "distance": 988, "postalCode": "13189", "cc": "DE", "neighborhood": "Vinetastra\u00dfe", "city": "Berlin", "state": "Berlin", "country": "Deutschland", "formattedAddress": ["Kissingenstr. 35", "13189 Berlin", "Deutschland"]}, "categories": [{"id": "4bf58dd8d48988d16a941735", "name": "Bakery", "pluralName": "Bakeries", "shortName": "Bakery", "icon": {"prefix": "https://ss3.4sqi.net/img/categories_v2/food/bakery_", "suffix": ".png"}, "primary": true}], "photos": {"count": 0, "groups": []}}, "referralId": "e-0-4bb04693f964a520513f3ce3-49"}, {"reasons": {"count": 0, "items": [{"summary": "This spot is popular", "type": "general", "reasonName": "globalInteractionReason"}]}, "venue": {"id": "5239909611d20bef4e1f74ee", "name": "Genial Bistro", "location": {"lat": 52.580678, "lng": 13.401442, "labeledLatLngs": [{"label": "display", "lat": 52.580678, "lng": 13.401442}], "distance": 993, "cc": "DE", "city": "Berlin", "state": "Berlin", "country": "Deutschland", "formattedAddress": ["Berlin", "Deutschland"]}, "categories": [{"id": "4f04af1f2fb6e1c99f3db0bb", "name": "Turkish Restaurant", "pluralName": "Turkish Restaurants", "shortName": "Turkish", "icon": {"prefix": "https://ss3.4sqi.net/img/categories_v2/food/turkish_", "suffix": ".png"}, "primary": true}], "photos": {"count": 0, "groups": []}}, "referralId": "e-0-5239909611d20bef4e1f74ee-50"}, {"reasons": {"count": 0, "items": [{"summary": "This spot is popular", "type": "general", "reasonName": "globalInteractionReason"}]}, "venue": {"id": "4e310a5bd4c0b2aebf6cc84d", "name": "H Lohmestra\u00dfe", "location": {"address": "Kissingenstr.", "crossStreet": "Lohmestr.", "lat": 52.56644295472066, "lng": 13.41593915729455, "labeledLatLngs": [{"label": "display", "lat": 52.56644295472066, "lng": 13.41593915729455}], "distance": 995, "cc": "DE", "city": "Berlin", "state": "Berlin", "country": "Deutschland", "formattedAddress": ["Kissingenstr. (Lohmestr.)", "Berlin", "Deutschland"]}, "categories": [{"id": "52f2ab2ebcbc57f1066b8b4f", "name": "Bus Stop", "pluralName": "Bus Stops", "shortName": "Bus Stop", "icon": {"prefix": "https://ss3.4sqi.net/img/categories_v2/travel/busstation_", "suffix": ".png"}, "primary": true}], "photos": {"count": 0, "groups": []}}, "referralId": "e-0-4e310a5bd4c0b2aebf6cc84d-51"}]