[{"reasons": {"count": 0, "items": [{"summary": "This spot is popular", "type": "general", "reasonName": "globalInteractionReason"}]}, "venue": {"id": "4f1c2ce6e4b035290f016877", "name": "Vilja Caf\u00e9 & Deli", "location": {"address": "Maximilianstr. 1", "lat": 52.56120172623039, "lng": 13.412622248349212, "labeledLatLngs": [{"label": "display", "lat": 52.56120172623039, "lng": 13.412622248349212}], "distance": 528, "postalCode": "13187", "cc": "DE", "city": "Berlin", "state": "Berlin", "country": "Deutschland", "formattedAddress": ["Maximilianstr. 1", "13187 Berlin", "Deutschland"]}, "categories": [{"id": "4bf58dd8d48988d16d941735", "name": "Caf\u00e9", "pluralName": "Caf\u00e9s", "shortName": "Caf\u00e9", "icon": {"prefix": "https://ss3.4sqi.net/img/categories_v2/food/cafe_", "suffix": ".png"}, "primary": true}], "photos": {"count": 0, "groups": []}}, "referralId": "e-0-4f1c2ce6e4b035290f016877-0"}, {"reasons": {"count": 0, "items": [{"summary": "This spot is popular", "type": "general", "reasonName": "globalInteractionReason"}]}, "venue": {"id": "509e988ee4b0642592e22a84", "name": "Berta Block", "location": {"address": "M\u00fchlenstr. 62", "lat": 52.56354796541086, "lng": 13.40975390909519, "labeledLatLngs": [{"label": "display", "lat": 52.56354796541086, "lng": 13.40975390909519}], "distance": 647, "postalCode": "13187", "cc": "DE", "neighborhood": "Vinetastra\u00dfe", "city": "Berlin", "state": "Berlin", "country": "Deutschland", "formattedAddress": ["M\u00fchlenstr. 62", "13187 Berlin", "Deutschland"]}, "categories": [{"id": "503289d391d4c4b30a586d6a", "name": "Climbing Gym", "pluralName": "Climbing Gyms", "shortName": "Climbing Gym", "icon": {"prefix": "https://ss3.4sqi.net/img/categories_v2/building/gym_", "suffix": ".png"}, "primary": true}], "photos": {"count": 0, "groups": []}}, "referralId": "e-0-509e988ee4b0642592e22a84-1"}, {"reasons": {"count": 0, "items": [{"summary": "This spot is popular", "type": "general", "reasonName": "globalInteractionReason"}]}, "venue": {"id": "5aae64f1c66666683f7f8f6f", "name": "Hokey Pokey", "location": {"address": "Berliner Str. 49", "crossStreet": "M\u00fchlenstr.", "lat": 52.55930867417204, "lng": 13.412988297951388, "labeledLatLngs": [{"label": "display", "lat": 52.55930867417204, "lng": 13.412988297951388}], "distance": 645, "postalCode": "13189", "cc": "DE", "city": "Berlin", "state": "Berlin", "country": "Deutschland", "formattedAddress": ["Berliner Str. 49 (M\u00fchlenstr.)", "13189 Berlin", "Deutschland"]}, "categories": [{"id": "4bf58dd8d48988d1c9941735", "name": "Ice Cream Shop", "pluralName": "Ice Cream Shops", "shortName": "Ice Cream", "icon": {"prefix": "https://ss3.4sqi.net/img/categories_v2/food/icecream_", "suffix": ".png"}, "primary": true}], "photos": {"count": 0, "groups": []}}, "referralId": "e-0-5aae64f1c66666683f7f8f6f-2"}, {"reasons": {"count": 0, "items": [{"summary": "This spot is popular", "type": "general", "reasonName": "globalInteractionReason"}]}, "venue": {"id": "561d27ed498ed5c87c26176b", "name": "Argo Athletics", "location": {"lat": 52.56423760038842, "lng": 13.409709276475512, "labeledLatLngs": [{"label": "display", "lat": 52.56423760038842, "lng": 13.409709276475512}], "distance": 653, "cc": "DE", "city": "Berlin", "state": "Berlin", "country": "Deutschland", "formattedAddress": ["Berlin", "Deutschland"]}, "categories": [{"id": "4bf58dd8d48988d175941735", "name": "Gym / Fitness Center", "pluralName": "Gyms or Fitness Centers", "shortName": "Gym / Fitness", "icon": {"prefix": "https://ss3.4sqi.net/img/categories_v2/building/gym_", "suffix": ".png"}, "primary": true}], "photos": {"count": 0, "groups": []}}, "referralId": "e-0-561d27ed498ed5c87c26176b-3"}, {"reasons": {"count": 0, "items": [{"summary": "This spot is popular", "type": "general", "reasonName": "globalInteractionReason"}]}, "venue": {"id": "59a8a9c8005ac1061c478c02", "name": "Two Fellas Brewery", "location": {"address": "M\u00fchlenstr. 30", "lat": 52.563103334478484, "lng": 13.40925612766999, "labeledLatLngs": [{"label": "display", "lat": 52.563103334478484, "lng": 13.40925612766999}], "distance": 683, "postalCode": "13187", "cc": "DE", "neighborhood": "Pankow", "city": "Berlin", "state": "Berlin", "country": "Deutschland", "formattedAddress": ["M\u00fchlenstr. 30", "13187 Pankow", "Deutschland"]}, "categories": [{"id": "50327c8591d4c4b30a586d5d", "name": "Brewery", "pluralName": "Breweries", "shortName": "Brewery", "icon": {"prefix": "https://ss3.4sqi.net/img/categories_v2/food/brewery_", "suffix": ".png"}, "primary": true}], "photos": {"count": 0, "groups": []}}, "referralId": "e-0-59a8a9c8005ac1061c478c02-4"}, {"reasons": {"count": 0, "items": [{"summary": "This spot is popular", "type": "general", "reasonName": "globalInteractionReason"}]}, "venue": {"id": "5475d3f4498e156b2209f652", "name": "liebes bisschen", "location": {"address": "Berliner Str. 6", "crossStreet": "Schulstr.", "lat": 52.569593, "lng": 13.410874, "labeledLatLngs": [{"label": "display", "lat": 52.569593, "lng": 13.410874}], "distance": 873, "postalCode": "13187", "cc": "DE", "city": "Berlin", "state": "Berlin", "country": "Deutschland", "formattedAddress": ["Berliner Str. 6 (Schulstr.)", "13187 Berlin", "Deutschland"]}, "categories": [{"id": "4bf58dd8d48988d16d941735", "name": "Caf\u00e9", "pluralName": "Caf\u00e9s", "shortName": "Caf\u00e9", "icon": {"prefix": "https://ss3.4sqi.net/img/categories_v2/food/cafe_", "suffix": ".png"}, "primary": true}], "photos": {"count": 0, "groups": []}}, "referralId": "e-0-5475d3f4498e156b2209f652-5"}, {"reasons": {"count": 0, "items": [{"summary": "This spot is popular", "type": "general", "reasonName": "globalInteractionReason"}]}, "venue": {"id": "4c18992c1436a593da878d75", "name": "Kissingen-Stadion", "location": {"address": "Forchheimer Str. 22", "crossStreet": "Kissingenplatz", "lat": 52.56580107509117, "lng": 13.422862080027704, "labeledLatLngs": [{"label": "display", "lat": 52.56580107509117, "lng": 13.422862080027704}], "distance": 338, "postalCode": "13189", "cc": "DE", "neighborhood": "Vinetastra\u00dfe", "city": "Berlin", "state": "Berlin", "country": "Deutschland", "formattedAddress": ["Forchheimer Str. 22 (Kissingenplatz)", "13189 Berlin", "Deutschland"]}, "categories": [{"id": "4cce455aebf7b749d5e191f5", "name": "Soccer Field", "pluralName": "Soccer Fields", "shortName": "Soccer Field", "icon": {"prefix": "https://ss3.4sqi.net/img/categories_v2/arts_entertainment/stadium_soccer_", "suffix": ".png"}, "primary": true}], "photos": {"count": 0, "groups": []}}, "referralId": "e-0-4c18992c1436a593da878d75-6"}, {"reasons": {"count": 0, "items": [{"summary": "This spot is popular", "type": "general", "reasonName": "globalInteractionReason"}]}, "venue": {"id": "56e540d6498e13426cb5fef0", "name": "Wo der B\u00e4r den Honig holt", "location": {"address": "Florastrasse 37", "lat": 52.56571158842466, "lng": 13.407565231482836, "labeledLatLngs": [{"label": "display", "lat": 52.56571158842466, "lng": 13.407565231482836}], "distance": 827, "postalCode": "13187", "cc": "DE", "city": "Berlin", "state": "Berlin", "country": "Deutschland", "formattedAddress": ["Florastrasse 37", "13187 Berlin", "Deutschland"]}, "categories": [{"id": "4bf58dd8d48988d16d941735", "name": "Caf\u00e9", "pluralName": "Caf\u00e9s", "shortName": "Caf\u00e9", "icon": {"prefix": "https://ss3.4sqi.net/img/categories_v2/food/cafe_", "suffix": ".png"}, "primary": true}], "photos": {"count": 0, "groups": []}}, "referralId": "e-0-56e540d6498e13426cb5fef0-7"}, {"reasons": {"count": 0, "items": [{"summary": "This spot is popular", "type": "general", "reasonName": "globalInteractionReason"}]}, "venue": {"id": "50f551a9e4b07833ccbbf834", "name": "dm-drogerie markt", "location": {"address": "Garbatyplatz 2", "lat": 52.567460454788986, "lng": 13.411328588954916, "labeledLatLngs": [{"label": "display", "lat": 52.567460454788986, "lng": 13.411328588954916}], "distance": 686, "postalCode": "13187", "cc": "DE", "city": "Berlin", "state": "Berlin", "country": "Deutschland", "formattedAddress": ["Garbatyplatz 2", "13187 Berlin", "Deutschland"]}, "categories": [{"id": "5745c2e4498e11e7bccabdbd", "name": "Drugstore", "pluralName": "Drugstores", "shortName": "Drugstore", "icon": {"prefix": "https://ss3.4sqi.net/img/categories_v2/shops/pharmacy_", "suffix": ".png"}, "primary": true}], "photos": {"count": 0, "groups": []}, "venuePage": {"id": "453282548"}}, "referralId": "e-0-50f551a9e4b07833ccbbf834-8"}, {"reasons": {"count": 0, "items": [{"summary": "This spot is popular", "type": "general", "reasonName": "globalInteractionReason"}]}, "venue": {"id": "55b10ac2498ee9542a83658e", "name": "Eisspatz", "location": {"address": "Berliner Stra\u00dfe 3", "lat": 52.56995919687778, "lng": 13.410834093739817, "labeledLatLngs": [{"label": "display", "lat": 52.56995919687778, "lng": 13.410834093739817}], "distance": 906, "postalCode": "13187", "cc": "DE", "city": "Berlin", "state": "Berlin", "country": "Deutschland", "formattedAddress": ["Berliner Stra\u00dfe 3", "13187 Pankow", "Deutschland"]}, "categories": [{"id": "4bf58dd8d48988d1c9941735", "name": "Ice Cream Shop", "pluralName": "Ice Cream Shops", "shortName": "Ice Cream", "icon": {"prefix": "https://ss3.4sqi.net/img/categories_v2/food/icecream_", "suffix": ".png"}, "primary": true}], "photos": {"count": 0, "groups": []}}, "referralId": "e-0-55b10ac2498ee9542a83658e-9"}, {"reasons": {"count": 0, "items": [{"summary": "This spot is popular", "type": "general", "reasonName": "globalInteractionReason"}]}, "venue": {"id": "520e14f57e48c579dccfb3cd", "name": "Zweite Liebe", "location": {"address": "Florastra\u00dfe 59", "lat": 52.56663413066544, "lng": 13.409521579742432, "labeledLatLngs": [{"label": "display", "lat": 52.56663413066544, "lng": 13.409521579742432}], "distance": 741, "postalCode": "13187", "cc": "DE", "city": "Berlin", "state": "Berlin", "country": "Deutschland", "formattedAddress": ["Florastra\u00dfe 59", "13187 Berlin", "Deutschland"]}, "categories": [{"id": "52f2ab2ebcbc57f1066b8b21", "name": "Stationery Store", "pluralName": "Stationery Stores", "shortName": "Stationery Store", "icon": {"prefix": "https://ss3.4sqi.net/img/categories_v2/shops/default_", "suffix": ".png"}, "primary": true}], "photos": {"count": 0, "groups": []}}, "referralId": "e-0-520e14f57e48c579dccfb3cd-10"}, {"reasons": {"count": 0, "items": [{"summary": "This spot is popular", "type": "general", "reasonName": "globalInteractionReason"}]}, "venue": {"id": "4ecf67948231b9ef8754a30e", "name": "Milchmanns Kaffeehaus", "location": {"address": "Berliner Str. 119", "crossStreet": "Hadlichstr.", "lat": 52.56821197812331, "lng": 13.412189888627312, "labeledLatLngs": [{"label": "display", "lat": 52.56821197812331, "lng": 13.412189888627312}], "distance": 699, "postalCode": "13187", "cc": "DE", "city": "Berlin", "state": "Berlin", "country": "Deutschland", "formattedAddress": ["Berliner Str. 119 (Hadlichstr.)", "13187 Berlin", "Deutschland"]}, "categories": [{"id": "4bf58dd8d48988d1e0931735", "name": "Coffee Shop", "pluralName": "Coffee Shops", "shortName": "Coffee Shop", "icon": {"prefix": "https://ss3.4sqi.net/img/categories_v2/food/coffeeshop_", "suffix": ".png"}, "primary": true}], "photos": {"count": 0, "groups": []}}, "referralId": "e-0-4ecf67948231b9ef8754a30e-11"}, {"reasons": {"count": 0, "items": [{"summary": "This spot is popular", "type": "general", "reasonName": "globalInteractionReason"}]}, "venue": {"id": "4bc09d124cdfc9b65e179321", "name": "ALDI NORD", "location": {"address": "Esplanade 9", "lat": 52.55745439793161, "lng": 13.412455950958346, "labeledLatLngs": [{"label": "display", "lat": 52.55745439793161, "lng": 13.412455950958346}], "distance": 831, "postalCode": "13189", "cc": "DE", "city": "Berlin", "state": "Berlin", "country": "Deutschland", "formattedAddress": ["Esplanade 9", "13189 Berlin", "Deutschland"]}, "categories": [{"id": "52f2ab2ebcbc57f1066b8b46", "name": "Supermarket", "pluralName": "Supermarkets", "shortName": "Supermarket", "icon": {"prefix": "https://ss3.4sqi.net/img/categories_v2/shops/food_grocery_", "suffix": ".png"}, "primary": true}], "photos": {"count": 0, "groups": []}}, "referralId": "e-0-4bc09d124cdfc9b65e179321-12"}, {"reasons": {"count": 0, "items": [{"summary": "This spot is popular", "type": "general", "reasonName": "globalInteractionReason"}]}, "venue": {"id": "50f57bb2e4b0dca7e2e65cde", "name": "EDEKA Schmitt", "location": {"address": "Garb\u00e1typlatz 1", "lat": 52.56726423240363, "lng": 13.411041204475064, "labeledLatLngs": [{"label": "display", "lat": 52.56726423240363, "lng": 13.411041204475064}], "distance": 689, "postalCode": "13187", "cc": "DE", "city": "Berlin", "state": "Berlin", "country": "Deutschland", "formattedAddress": ["Garb\u00e1typlatz 1", "13187 Berlin", "Deutschland"]}, "categories": [{"id": "52f2ab2ebcbc57f1066b8b46", "name": "Supermarket", "pluralName": "Supermarkets", "shortName": "Supermarket", "icon": {"prefix": "https://ss3.4sqi.net/img/categories_v2/shops/food_grocery_", "suffix": ".png"}, "primary": true}], "photos": {"count": 0, "groups": []}, "venuePage": {"id": "556437492"}}, "referralId": "e-0-50f57bb2e4b0dca7e2e65cde-13"}, {"reasons": {"count": 0, "items": [{"summary": "This spot is popular", "type": "general", "reasonName": "globalInteractionReason"}]}, "venue": {"id": "5223529f11d29e4efebfd792", "name": "Caf\u00e9 La Vineta", "location": {"address": "Berliner Str. 92", "lat": 52.55901973749812, "lng": 13.413727283477783, "labeledLatLngs": [{"label": "display", "lat": 52.55901973749812, "lng": 13.413727283477783}], "distance": 639, "postalCode": "13189", "cc": "DE", "city": "Berlin", "state": "Berlin", "country": "Deutschland", "formattedAddress": ["Berliner Str. 92", "13189 Berlin", "Deutschland"]}, "categories": [{"id": "4bf58dd8d48988d16d941735", "name": "Caf\u00e9", "pluralName": "Caf\u00e9s", "shortName": "Caf\u00e9", "icon": {"prefix": "https://ss3.4sqi.net/img/categories_v2/food/cafe_", "suffix": ".png"}, "primary": true}], "photos": {"count": 0, "groups": []}}, "referralId": "e-0-5223529f11d29e4efebfd792-14"}, {"reasons": {"count": 0, "items": [{"summary": "This spot is popular", "type": "general", "reasonName": "globalInteractionReason"}]}, "venue": {"id": "4cc703441e596dcb5d1ae267", "name": "Rossmann", "location": {"address": "Neumannstra\u00dfe 13", "lat": 52.561066, "lng": 13.423484, "labeledLatLngs": [{"label": "display", "lat": 52.561066, "lng": 13.423484}], "distance": 403, "postalCode": "13189", "cc": "DE", "city": "Berlin", "state": "Berlin", "country": "Deutschland", "formattedAddress": ["Neumannstra\u00dfe 13", "13189 Berlin", "Deutschland"]}, "categories": [{"id": "5745c2e4498e11e7bccabdbd", "name": "Drugstore", "pluralName": "Drugstores", "shortName": "Drugstore", "icon": {"prefix": "https://ss3.4sqi.net/img/categories_v2/shops/pharmacy_", "suffix": ".png"}, "primary": true}], "photos": {"count": 0, "groups": []}}, "referralId": "e-0-4cc703441e596dcb5d1ae267-15"}, {"reasons": {"count": 0, "items": [{"summary": "This spot is popular", "type": "general", "reasonName": "globalInteractionReason"}]}, "venue": {"id": "5787d487498ec9461f68193b", "name": "Flora Burger", "location": {"address": "Florastrasse 41", "lat": 52.56603, "lng": 13.408566, "labeledLatLngs": [{"label": "display", "lat": 52.56603, "lng": 13.408566}], "distance": 773, "postalCode": "13187", "cc": "DE", "city": "Berlin", "state": "Berlin", "country": "Deutschland", "formattedAddress": ["Florastrasse 41", "13187 Berlin", "Deutschland"]}, "categories": [{"id": "4bf58dd8d48988d16c941735", "name": "Burger Joint", "pluralName": "Burger Joints", "shortName": "Burgers", "icon": {"prefix": "https://ss3.4sqi.net/img/categories_v2/food/burger_", "suffix": ".png"}, "primary": true}], "photos": {"count": 0, "groups": []}}, "referralId": "e-0-5787d487498ec9461f68193b-16"}, {"reasons": {"count": 0, "items": [{"summary": "This spot is popular", "type": "general", "reasonName": "globalInteractionReason"}]}, "venue": {"id": "5491cbcb498e4a392d5acf24", "name": "SchillerBurger", "location": {"address": "Berliner Str. 9-12", "crossStreet": "Hadlichstr.", "lat": 52.56864030996582, "lng": 13.411780190477359, "labeledLatLngs": [{"label": "display", "lat": 52.56864030996582, "lng": 13.411780190477359}], "distance": 753, "postalCode": "13187", "cc": "DE", "city": "Berlin", "state": "Berlin", "country": "Deutschland", "formattedAddress": ["Berliner Str. 9-12 (Hadlichstr.)", "13187 Berlin", "Deutschland"]}, "categories": [{"id": "4bf58dd8d48988d16c941735", "name": "Burger Joint", "pluralName": "Burger Joints", "shortName": "Burgers", "icon": {"prefix": "https://ss3.4sqi.net/img/categories_v2/food/burger_", "suffix": ".png"}, "primary": true}], "photos": {"count": 0, "groups": []}}, "referralId": "e-0-5491cbcb498e4a392d5acf24-17"}, {"reasons": {"count": 0, "items": [{"summary": "This spot is popular", "type": "general", "reasonName": "globalInteractionReason"}]}, "venue": {"id": "525c2f11498eba9ac724347c", "name": "L'Antica Dogana", "location": {"address": "Berliner Stra\u00dfe 80-82", "crossStreet": "Eschengraben", "lat": 52.55582545640978, "lng": 13.414976707293876, "labeledLatLngs": [{"label": "display", "lat": 52.55582545640978, "lng": 13.414976707293876}], "distance": 919, "cc": "DE", "city": "Berlin", "state": "Berlin", "country": "Deutschland", "formattedAddress": ["Berliner Stra\u00dfe 80-82 (Eschengraben)", "Berlin", "Deutschland"]}, "categories": [{"id": "4bf58dd8d48988d110941735", "name": "Italian Restaurant", "pluralName": "Italian Restaurants", "shortName": "Italian", "icon": {"prefix": "https://ss3.4sqi.net/img/categories_v2/food/italian_", "suffix": ".png"}, "primary": true}], "photos": {"count": 0, "groups": []}}, "referralId": "e-0-525c2f11498eba9ac724347c-18"}, {"reasons": {"count": 0, "items": [{"summary": "This spot is popular", "type": "general", "reasonName": "globalInteractionReason"}]}, "venue": {"id": "4d691f38c16554817bafe781", "name": "Masurenspielplatz", "location": {"address": "Masurenstr.", "crossStreet": "Berliner Str.", "lat": 52.56255154545075, "lng": 13.411238193511963, "labeledLatLngs": [{"label": "display", "lat": 52.56255154545075, "lng": 13.411238193511963}], "distance": 560, "postalCode": "13189", "cc": "DE", "city": "Berlin", "state": "Berlin", "country": "Deutschland", "formattedAddress": ["Masurenstr. (Berliner Str.)", "13189 Berlin", "Deutschland"]}, "categories": [{"id": "4bf58dd8d48988d1e7941735", "name": "Playground", "pluralName": "Playgrounds", "shortName": "Playground", "icon": {"prefix": "https://ss3.4sqi.net/img/categories_v2/parks_outdoors/playground_", "suffix": ".png"}, "primary": true}], "photos": {"count": 0, "groups": []}}, "referralId": "e-0-4d691f38c16554817bafe781-19"}, {"reasons": {"count": 0, "items": [{"summary": "This spot is popular", "type": "general", "reasonName": "globalInteractionReason"}]}, "venue": {"id": "4fce5f84e4b0589b09b7a8b0", "name": "Garb\u00e1typlatz", "location": {"address": "Garb\u00e1typlatz", "crossStreet": "Florastr.", "lat": 52.56727322302387, "lng": 13.411275744438171, "labeledLatLngs": [{"label": "display", "lat": 52.56727322302387, "lng": 13.411275744438171}], "distance": 676, "postalCode": "13187", "cc": "DE", "city": "Berlin", "state": "Berlin", "country": "Deutschland", "formattedAddress": ["Garb\u00e1typlatz (Florastr.)", "13187 Berlin", "Deutschland"]}, "categories": [{"id": "4bf58dd8d48988d164941735", "name": "Plaza", "pluralName": "Plazas", "shortName": "Plaza", "icon": {"prefix": "https://ss3.4sqi.net/img/categories_v2/parks_outdoors/plaza_", "suffix": ".png"}, "primary": true}], "photos": {"count": 0, "groups": []}}, "referralId": "e-0-4fce5f84e4b0589b09b7a8b0-20"}, {"reasons": {"count": 0, "items": [{"summary": "This spot is popular", "type": "general", "reasonName": "globalInteractionReason"}]}, "venue": {"id": "4d44534414aa8cfa9a45653d", "name": "REWE", "location": {"address": "Neumannstr. 13", "lat": 52.56189, "lng": 13.422239, "labeledLatLngs": [{"label": "display", "lat": 52.56189, "lng": 13.422239}], "distance": 278, "postalCode": "13189", "cc": "DE", "city": "Berlin", "state": "Berlin", "country": "Deutschland", "formattedAddress": ["Neumannstr. 13", "13189 Berlin", "Deutschland"]}, "categories": [{"id": "52f2ab2ebcbc57f1066b8b46", "name": "Supermarket", "pluralName": "Supermarkets", "shortName": "Supermarket", "icon": {"prefix": "https://ss3.4sqi.net/img/categories_v2/shops/food_grocery_", "suffix": ".png"}, "primary": true}], "photos": {"count": 0, "groups": []}, "venuePage": {"id": "561844670"}}, "referralId": "e-0-4d44534414aa8cfa9a45653d-21"}, {"reasons": {"count": 0, "items": [{"summary": "This spot is popular", "type": "general", "reasonName": "globalInteractionReason"}]}, "venue": {"id": "4b226f9ef964a520c94624e3", "name": "EDEKA Kiezmarkt", "location": {"address": "Neumannstr. 70", "crossStreet": "Laudaerstr.", "lat": 52.56434304, "lng": 13.42078609, "labeledLatLngs": [{"label": "display", "lat": 52.56434304, "lng": 13.42078609}], "distance": 125, "postalCode": "13189", "cc": "DE", "city": "Berlin", "state": "Berlin", "country": "Deutschland", "formattedAddress": ["Neumannstr. 70 (Laudaerstr.)", "13189 Berlin", "Deutschland"]}, "categories": [{"id": "52f2ab2ebcbc57f1066b8b46", "name": "Supermarket", "pluralName": "Supermarkets", "shortName": "Supermarket", "icon": {"prefix": "https://ss3.4sqi.net/img/categories_v2/shops/food_grocery_", "suffix": ".png"}, "primary": true}], "photos": {"count": 0, "groups": []}, "venuePage": {"id": "554938117"}}, "referralId": "e-0-4b226f9ef964a520c94624e3-22"}, {"reasons": {"count": 0, "items": [{"summary": "This spot is popular", "type": "general", "reasonName": "globalInteractionReason"}]}, "venue": {"id": "4baa3a98f964a52087553ae3", "name": "Lidl", "location": {"address": "Berliner Stra\u00dfe 27-28", "lat": 52.56367494644978, "lng": 13.41230034828186, "labeledLatLngs": [{"label": "display", "lat": 52.56367494644978, "lng": 13.41230034828186}], "distance": 474, "postalCode": "13189", "cc": "DE", "city": "Berlin-Pankow", "state": "Berlin", "country": "Deutschland", "formattedAddress": ["Berliner Stra\u00dfe 27-28", "13189 Pankow", "Deutschland"]}, "categories": [{"id": "52f2ab2ebcbc57f1066b8b46", "name": "Supermarket", "pluralName": "Supermarkets", "shortName": "Supermarket", "icon": {"prefix": "https://ss3.4sqi.net/img/categories_v2/shops/food_grocery_", "suffix": ".png"}, "primary": true}], "photos": {"count": 0, "groups": []}, "venuePage": {"id": "575516848"}}, "referralId": "e-0-4baa3a98f964a52087553ae3-23"}, {"reasons": {"count": 0, "items": [{"summary": "This spot is popular", "type": "general", "reasonName": "globalInteractionReason"}]}, "venue": {"id": "4c8d0936ed3ab60cb3dc6c21", "name": "Ristorante Laurus", "location": {"address": "M\u00fchlenstr. 38", "crossStreet": "Maximilianstr.", "lat": 52.56101321820321, "lng": 13.411197761442674, "labeledLatLngs": [{"label": "display", "lat": 52.56101321820321, "lng": 13.411197761442674}], "distance": 622, "postalCode": "13187", "cc": "DE", "city": "Berlin", "state": "Berlin", "country": "Deutschland", "formattedAddress": ["M\u00fchlenstr. 38 (Maximilianstr.)", "13187 Berlin", "Deutschland"]}, "categories": [{"id": "4bf58dd8d48988d110941735", "name": "Italian Restaurant", "pluralName": "Italian Restaurants", "shortName": "Italian", "icon": {"prefix": "https://ss3.4sqi.net/img/categories_v2/food/italian_", "suffix": ".png"}, "primary": true}], "photos": {"count": 0, "groups": []}}, "referralId": "e-0-4c8d0936ed3ab60cb3dc6c21-24"}, {"reasons": {"count": 0, "items": [{"summary": "This spot is popular", "type": "general", "reasonName": "globalInteractionReason"}]}, "venue": {"id": "593bd307829b0c53a1d7d754", "name": "REWE", "location": {"address": "Eschengraben 47", "lat": 52.55651993, "lng": 13.42434092, "labeledLatLngs": [{"label": "display", "lat": 52.55651993, "lng": 13.42434092}], "distance": 863, "postalCode": "13189", "cc": "DE", "city": "Berlin", "state": "Berlin", "country": "Deutschland", "formattedAddress": ["Eschengraben 47", "13189 Berlin", "Deutschland"]}, "categories": [{"id": "52f2ab2ebcbc57f1066b8b46", "name": "Supermarket", "pluralName": "Supermarkets", "shortName": "Supermarket", "icon": {"prefix": "https://ss3.4sqi.net/img/categories_v2/shops/food_grocery_", "suffix": ".png"}, "primary": true}], "photos": {"count": 0, "groups": []}, "venuePage": {"id": "569915954"}}, "referralId": "e-0-593bd307829b0c53a1d7d754-25"}, {"reasons": {"count": 0, "items": [{"summary": "This spot is popular", "type": "general", "reasonName": "globalInteractionReason"}]}, "venue": {"id": "53f77eac498e07b7676ef67a", "name": "PandaGarten", "location": {"address": "Berliner Str. 8", "lat": 52.56914520263672, "lng": 13.41120433807373, "labeledLatLngs": [{"label": "display", "lat": 52.56914520263672, "lng": 13.41120433807373}], "distance": 821, "postalCode": "13187", "cc": "DE", "city": "Berlin", "state": "Berlin", "country": "Deutschland", "formattedAddress": ["Berliner Str. 8", "13187 Berlin", "Deutschland"]}, "categories": [{"id": "4bf58dd8d48988d1d2941735", "name": "Sushi Restaurant", "pluralName": "Sushi Restaurants", "shortName": "Sushi", "icon": {"prefix": "https://ss3.4sqi.net/img/categories_v2/food/sushi_", "suffix": ".png"}, "primary": true}], "photos": {"count": 0, "groups": []}}, "referralId": "e-0-53f77eac498e07b7676ef67a-26"}, {"reasons": {"count": 0, "items": [{"summary": "This spot is popular", "type": "general", "reasonName": "globalInteractionReason"}]}, "venue": {"id": "52b59511498e1468aae26f90", "name": "McDonald's", "location": {"address": "Prenzlauer Promenade 45-46", "lat": 52.560936, "lng": 13.428827, "labeledLatLngs": [{"label": "display", "lat": 52.560936, "lng": 13.428827}], "distance": 711, "postalCode": "13089", "cc": "DE", "city": "Berlin", "state": "Berlin", "country": "Deutschland", "formattedAddress": ["Prenzlauer Promenade 45-46", "13089 Berlin", "Deutschland"]}, "categories": [{"id": "4bf58dd8d48988d16e941735", "name": "Fast Food Restaurant", "pluralName": "Fast Food Restaurants", "shortName": "Fast Food", "icon": {"prefix": "https://ss3.4sqi.net/img/categories_v2/food/fastfood_", "suffix": ".png"}, "primary": true}], "photos": {"count": 0, "groups": []}}, "referralId": "e-0-52b59511498e1468aae26f90-27"}, {"reasons": {"count": 0, "items": [{"summary": "This spot is popular", "type": "general", "reasonName": "globalInteractionReason"}]}, "venue": {"id": "5153421fe4b01a2c9502abc5", "name": "Al Letany Insel", "location": {"address": "Florastr. 34a", "crossStreet": "M\u00fchlenstr.", "lat": 52.56546916115643, "lng": 13.405662057290053, "labeledLatLngs": [{"label": "display", "lat": 52.56546916115643, "lng": 13.405662057290053}], "distance": 945, "postalCode": "13187", "cc": "DE", "neighborhood": "Pankow", "city": "Berlin", "state": "Berlin", "country": "Deutschland", "formattedAddress": ["Florastr. 34a (M\u00fchlenstr.)", "13187 Berlin", "Deutschland"]}, "categories": [{"id": "4bf58dd8d48988d10b941735", "name": "Falafel Restaurant", "pluralName": "Falafel Restaurants", "shortName": "Falafel", "icon": {"prefix": "https://ss3.4sqi.net/img/categories_v2/food/falafel_", "suffix": ".png"}, "primary": true}], "photos": {"count": 0, "groups": []}}, "referralId": "e-0-5153421fe4b01a2c9502abc5-28"}, {"reasons": {"count": 0, "items": [{"summary": "This spot is popular", "type": "general", "reasonName": "globalInteractionReason"}]}, "venue": {"id": "4e310a5bd4c0b2aebf6cc84d", "name": "H Lohmestra\u00dfe", "location": {"address": "Kissingenstr.", "crossStreet": "Lohmestr.", "lat": 52.56644295472066, "lng": 13.41593915729455, "labeledLatLngs": [{"label": "display", "lat": 52.56644295472066, "lng": 13.41593915729455}], "distance": 385, "cc": "DE", "city": "Berlin", "state": "Berlin", "country": "Deutschland", "formattedAddress": ["Kissingenstr. (Lohmestr.)", "Berlin", "Deutschland"]}, "categories": [{"id": "52f2ab2ebcbc57f1066b8b4f", "name": "Bus Stop", "pluralName": "Bus Stops", "shortName": "Bus Stop", "icon": {"prefix": "https://ss3.4sqi.net/img/categories_v2/travel/busstation_", "suffix": ".png"}, "primary": true}], "photos": {"count": 0, "groups": []}}, "referralId": "e-0-4e310a5bd4c0b2aebf6cc84d-29"}, {"reasons": {"count": 0, "items": [{"summary": "This spot is popular", "type": "general", "reasonName": "globalInteractionReason"}]}, "venue": {"id": "4c5ce81a2815c928049fb367", "name": "Aral", "location": {"address": "M\u00fchlenstra\u00dfe 26", "lat": 52.56389236617938, "lng": 13.407984334654492, "labeledLatLngs": [{"label": "display", "lat": 52.56389236617938, "lng": 13.407984334654492}], "distance": 767, "postalCode": "13187", "cc": "DE", "city": "Berlin", "state": "Berlin", "country": "Deutschland", "formattedAddress": ["M\u00fchlenstra\u00dfe 26", "13187 Berlin", "Deutschland"]}, "categories": [{"id": "4bf58dd8d48988d113951735", "name": "Gas Station", "pluralName": "Gas Stations", "shortName": "Gas Station", "icon": {"prefix": "https://ss3.4sqi.net/img/categories_v2/shops/gas_", "suffix": ".png"}, "primary": true}], "photos": {"count": 0, "groups": []}, "venuePage": {"id": "586948808"}}, "referralId": "e-0-4c5ce81a2815c928049fb367-30"}, {"reasons": {"count": 0, "items": [{"summary": "This spot is popular", "type": "general", "reasonName": "globalInteractionReason"}]}, "venue": {"id": "50884332e4b092a5bd436b36", "name": "Ballettschule Jaskola", "location": {"address": "Berliner Str. 29", "lat": 52.56322598692596, "lng": 13.411989050138265, "labeledLatLngs": [{"label": "display", "lat": 52.56322598692596, "lng": 13.411989050138265}], "distance": 497, "postalCode": "13189", "cc": "DE", "city": "Berlin", "state": "Berlin", "country": "Deutschland", "formattedAddress": ["Berliner Str. 29", "13189 Berlin", "Deutschland"]}, "categories": [{"id": "4bf58dd8d48988d134941735", "name": "Dance Studio", "pluralName": "Dance Studios", "shortName": "Dance Studio", "icon": {"prefix": "https://ss3.4sqi.net/img/categories_v2/arts_entertainment/performingarts_dancestudio_", "suffix": ".png"}, "primary": true}], "photos": {"count": 0, "groups": []}}, "referralId": "e-0-50884332e4b092a5bd436b36-31"}, {"reasons": {"count": 0, "items": [{"summary": "This spot is popular", "type": "general", "reasonName": "globalInteractionReason"}]}, "venue": {"id": "52236f3f11d2750f441d1163", "name": "Heinz-Knobloch-Platz", "location": {"address": "Masurenstr.", "crossStreet": "Berliner Str.", "lat": 52.562432, "lng": 13.411346, "labeledLatLngs": [{"label": "display", "lat": 52.562432, "lng": 13.411346}], "distance": 556, "postalCode": "13189", "cc": "DE", "city": "Berlin", "state": "Berlin", "country": "Deutschland", "formattedAddress": ["Masurenstr. (Berliner Str.)", "13189 Berlin", "Deutschland"]}, "categories": [{"id": "4bf58dd8d48988d163941735", "name": "Park", "pluralName": "Parks", "shortName": "Park", "icon": {"prefix": "https://ss3.4sqi.net/img/categories_v2/parks_outdoors/park_", "suffix": ".png"}, "primary": true}], "photos": {"count": 0, "groups": []}}, "referralId": "e-0-52236f3f11d2750f441d1163-32"}, {"reasons": {"count": 0, "items": [{"summary": "This spot is popular", "type": "general", "reasonName": "globalInteractionReason"}]}, "venue": {"id": "4e292142fa762797e5a49433", "name": "H Treskowstra\u00dfe", "location": {"address": "Prenzlauer Promenade", "crossStreet": "Treskowstr.", "lat": 52.56204858856771, "lng": 13.427531188215372, "labeledLatLngs": [{"label": "display", "lat": 52.56204858856771, "lng": 13.427531188215372}], "distance": 584, "cc": "DE", "city": "Berlin", "state": "Berlin", "country": "Deutschland", "formattedAddress": ["Prenzlauer Promenade (Treskowstr.)", "Berlin", "Deutschland"]}, "categories": [{"id": "52f2ab2ebcbc57f1066b8b4f", "name": "Bus Stop", "pluralName": "Bus Stops", "shortName": "Bus Stop", "icon": {"prefix": "https://ss3.4sqi.net/img/categories_v2/travel/busstation_", "suffix": ".png"}, "primary": true}], "photos": {"count": 0, "groups": []}}, "referralId": "e-0-4e292142fa762797e5a49433-33"}, {"reasons": {"count": 0, "items": [{"summary": "This spot is popular", "type": "general", "reasonName": "globalInteractionReason"}]}, "venue": {"id": "4c0cfffec700c9b6a7b0a1dd", "name": "Janny's Eis", "location": {"address": "Elsa-Br\u00e4ndstr\u00f6m-Str- 1", "lat": 52.55981408679059, "lng": 13.413345390753108, "labeledLatLngs": [{"label": "display", "lat": 52.55981408679059, "lng": 13.413345390753108}], "distance": 588, "postalCode": "13189", "cc": "DE", "city": "Berlin", "state": "Berlin", "country": "Deutschland", "formattedAddress": ["Elsa-Br\u00e4ndstr\u00f6m-Str- 1", "13189 Berlin", "Deutschland"]}, "categories": [{"id": "4bf58dd8d48988d1c9941735", "name": "Ice Cream Shop", "pluralName": "Ice Cream Shops", "shortName": "Ice Cream", "icon": {"prefix": "https://ss3.4sqi.net/img/categories_v2/food/icecream_", "suffix": ".png"}, "primary": true}], "photos": {"count": 0, "groups": []}}, "referralId": "e-0-4c0cfffec700c9b6a7b0a1dd-34"}, {"reasons": {"count": 0, "items": [{"summary": "This spot is popular", "type": "general", "reasonName": "globalInteractionReason"}]}, "venue": {"id": "4bc8e761762beee16bac3d38", "name": "Hotel Sedes", "location": {"address": "Prenzlauer Promenade 48", "lat": 52.5627, "lng": 13.42791, "labeledLatLngs": [{"label": "display", "lat": 52.5627, "lng": 13.42791}], "distance": 591, "postalCode": "13089", "cc": "DE", "city": "Berlin", "state": "Berlin", "country": "Deutschland", "formattedAddress": ["Prenzlauer Promenade 48", "13089 Berlin", "Deutschland"]}, "categories": [{"id": "4bf58dd8d48988d1f8931735", "name": "Bed & Breakfast", "pluralName": "Bed & Breakfasts", "shortName": "B & B", "icon": {"prefix": "https://ss3.4sqi.net/img/categories_v2/travel/bedandbreakfast_", "suffix": ".png"}, "primary": true}], "photos": {"count": 0, "groups": []}, "venuePage": {"id": "151379086"}}, "referralId": "e-0-4bc8e761762beee16bac3d38-35"}, {"reasons": {"count": 0, "items": [{"summary": "This spot is popular", "type": "general", "reasonName": "globalInteractionReason"}]}, "venue": {"id": "587e7ac4c45ee34e4ce2fae1", "name": "Kompakt KAUF", "location": {"address": "Berliner Str.", "crossStreet": "Florastr.", "lat": 52.566839, "lng": 13.412035, "labeledLatLngs": [{"label": "display", "lat": 52.566839, "lng": 13.412035}], "distance": 606, "postalCode": "13089", "cc": "DE", "city": "Berlin", "state": "Berlin", "country": "Deutschland", "formattedAddress": ["Berliner Str. (Florastr.)", "13089 Berlin", "Deutschland"]}, "categories": [{"id": "52f2ab2ebcbc57f1066b8b38", "name": "Lottery Retailer", "pluralName": "Lottery Retailers", "shortName": "Lottery", "icon": {"prefix": "https://ss3.4sqi.net/img/categories_v2/shops/financial_", "suffix": ".png"}, "primary": true}], "photos": {"count": 0, "groups": []}}, "referralId": "e-0-587e7ac4c45ee34e4ce2fae1-36"}, {"reasons": {"count": 0, "items": [{"summary": "This spot is popular", "type": "general", "reasonName": "globalInteractionReason"}]}, "venue": {"id": "5499f560498ece50b14b38fd", "name": "H S+U Pankow", "location": {"address": "Florastr.", "crossStreet": "Berliner Str.", "lat": 52.56733191471233, "lng": 13.411828279495237, "labeledLatLngs": [{"label": "display", "lat": 52.56733191471233, "lng": 13.411828279495237}], "distance": 651, "postalCode": "13187", "cc": "DE", "city": "Berlin", "state": "Berlin", "country": "Deutschland", "formattedAddress": ["Florastr. (Berliner Str.)", "13187 Berlin", "Deutschland"]}, "categories": [{"id": "52f2ab2ebcbc57f1066b8b51", "name": "Tram Station", "pluralName": "Tram Stations", "shortName": "Tram", "icon": {"prefix": "https://ss3.4sqi.net/img/categories_v2/travel/trainstation_", "suffix": ".png"}, "primary": true}], "photos": {"count": 0, "groups": []}}, "referralId": "e-0-5499f560498ece50b14b38fd-37"}, {"reasons": {"count": 0, "items": [{"summary": "This spot is popular", "type": "general", "reasonName": "globalInteractionReason"}]}, "venue": {"id": "4c81182274d7b60c242973d8", "name": "Edeka Hadlichstra\u00dfe", "location": {"address": "Hadlichstr.", "crossStreet": "Damerowstr.", "lat": 52.571597394214514, "lng": 13.417655916007982, "labeledLatLngs": [{"label": "display", "lat": 52.571597394214514, "lng": 13.417655916007982}], "distance": 891, "postalCode": "13187", "cc": "DE", "city": "Berlin", "state": "Berlin", "country": "Deutschland", "formattedAddress": ["Hadlichstr. (Damerowstr.)", "13187 Berlin", "Deutschland"]}, "categories": [{"id": "52f2ab2ebcbc57f1066b8b46", "name": "Supermarket", "pluralName": "Supermarkets", "shortName": "Supermarket", "icon": {"prefix": "https://ss3.4sqi.net/img/categories_v2/shops/food_grocery_", "suffix": ".png"}, "primary": true}], "photos": {"count": 0, "groups": []}}, "referralId": "e-0-4c81182274d7b60c242973d8-38"}, {"reasons": {"count": 0, "items": [{"summary": "This spot is popular", "type": "general", "reasonName": "globalInteractionReason"}]}, "venue": {"id": "50ab30d5498eb85ed8c31915", "name": "Der Havelb\u00e4cker", "location": {"lat": 52.560487511559685, "lng": 13.428693797362437, "labeledLatLngs": [{"label": "display", "lat": 52.560487511559685, "lng": 13.428693797362437}], "distance": 726, "cc": "DE", "city": "Berlin", "state": "Berlin", "country": "Deutschland", "formattedAddress": ["Berlin", "Deutschland"]}, "categories": [{"id": "4bf58dd8d48988d16a941735", "name": "Bakery", "pluralName": "Bakeries", "shortName": "Bakery", "icon": {"prefix": "https://ss3.4sqi.net/img/categories_v2/food/bakery_", "suffix": ".png"}, "primary": true}], "photos": {"count": 0, "groups": []}}, "referralId": "e-0-50ab30d5498eb85ed8c31915-39"}, {"reasons": {"count": 0, "items": [{"summary": "This spot is popular", "type": "general", "reasonName": "globalInteractionReason"}]}, "venue": {"id": "4bfcdc2af61dc9b69a309ede", "name": "Caf\u00e9 Nord", "location": {"address": "Grunowstra\u00dfe 21", "crossStreet": "Schulstra\u00dfe", "lat": 52.569048988813115, "lng": 13.408895305942314, "labeledLatLngs": [{"label": "display", "lat": 52.569048988813115, "lng": 13.408895305942314}], "distance": 926, "postalCode": "13187", "cc": "DE", "city": "Berlin", "state": "Berlin", "country": "Deutschland", "formattedAddress": ["Grunowstra\u00dfe 21 (Schulstra\u00dfe)", "13187 Berlin", "Deutschland"]}, "categories": [{"id": "4bf58dd8d48988d16d941735", "name": "Caf\u00e9", "pluralName": "Caf\u00e9s", "shortName": "Caf\u00e9", "icon": {"prefix": "https://ss3.4sqi.net/img/categories_v2/food/cafe_", "suffix": ".png"}, "primary": true}], "photos": {"count": 0, "groups": []}}, "referralId": "e-0-4bfcdc2af61dc9b69a309ede-40"}, {"reasons": {"count": 0, "items": [{"summary": "This spot is popular", "type": "general", "reasonName": "globalInteractionReason"}]}, "venue": {"id": "5d2be7653fffb40025042d0a", "name": "Netto Filiale", "location": {"address": "Prenzlauer Promenade 43", "lat": 52.56039232, "lng": 13.4293879, "labeledLatLngs": [{"label": "display", "lat": 52.56039232, "lng": 13.4293879}], "distance": 772, "postalCode": "13089", "cc": "DE", "city": "Berlin", "state": "Berlin", "country": "Deutschland", "formattedAddress": ["Prenzlauer Promenade 43", "13089 Berlin", "Deutschland"]}, "categories": [{"id": "52f2ab2ebcbc57f1066b8b46", "name": "Supermarket", "pluralName": "Supermarkets", "shortName": "Supermarket", "icon": {"prefix": "https://ss3.4sqi.net/img/categories_v2/shops/food_grocery_", "suffix": ".png"}, "primary": true}], "photos": {"count": 0, "groups": []}, "venuePage": {"id": "555472334"}}, "referralId": "e-0-5d2be7653fffb40025042d0a-41"}, {"reasons": {"count": 0, "items": [{"summary": "This spot is popular", "type": "general", "reasonName": "globalInteractionReason"}]}, "venue": {"id": "4d7de4f7fb38a09074b925f4", "name": "Steak Company Berlin", "location": {"address": "Grunowstra\u00dfe 1", "lat": 52.56893591434627, "lng": 13.408665139057696, "labeledLatLngs": [{"label": "display", "lat": 52.56893591434627, "lng": 13.408665139057696}], "distance": 930, "postalCode": "13187", "cc": "DE", "city": "Berlin", "state": "Berlin", "country": "Deutschland", "formattedAddress": ["Grunowstra\u00dfe 1", "13187 Berlin", "Deutschland"]}, "categories": [{"id": "4bf58dd8d48988d1cc941735", "name": "Steakhouse", "pluralName": "Steakhouses", "shortName": "Steakhouse", "icon": {"prefix": "https://ss3.4sqi.net/img/categories_v2/food/steakhouse_", "suffix": ".png"}, "primary": true}], "photos": {"count": 0, "groups": []}}, "referralId": "e-0-4d7de4f7fb38a09074b925f4-42"}, {"reasons": {"count": 0, "items": [{"summary": "This spot is popular", "type": "general", "reasonName": "globalInteractionReason"}]}, "venue": {"id": "51b46f06498e94a1b4a51594", "name": "Andreas-Hofer-Platz", "location": {"address": "Tiroler Str.", "crossStreet": "Toblacher Str.", "lat": 52.558612077463984, "lng": 13.408277034759521, "labeledLatLngs": [{"label": "display", "lat": 52.558612077463984, "lng": 13.408277034759521}], "distance": 934, "postalCode": "10439", "cc": "DE", "city": "Berlin", "state": "Berlin", "country": "Deutschland", "formattedAddress": ["Tiroler Str. (Toblacher Str.)", "10439 Berlin", "Deutschland"]}, "categories": [{"id": "4bf58dd8d48988d163941735", "name": "Park", "pluralName": "Parks", "shortName": "Park", "icon": {"prefix": "https://ss3.4sqi.net/img/categories_v2/parks_outdoors/park_", "suffix": ".png"}, "primary": true}], "photos": {"count": 0, "groups": []}}, "referralId": "e-0-51b46f06498e94a1b4a51594-43"}]