[{"reasons": {"count": 0, "items": [{"summary": "This spot is popular", "type": "general", "reasonName": "globalInteractionReason"}]}, "venue": {"id": "4bebf42dca97d13a8fb06c77", "name": "Volkspark Rehberge", "location": {"address": "Transvaalstr.", "crossStreet": "Afrikanische Str.", "lat": 52.54979264830959, "lng": 13.332767486572266, "labeledLatLngs": [{"label": "display", "lat": 52.54979264830959, "lng": 13.332767486572266}], "distance": 357, "postalCode": "13351", "cc": "DE", "city": "Berlin", "state": "Berlin", "country": "Deutschland", "formattedAddress": ["Transvaalstr. (Afrikanische Str.)", "13351 Berlin", "Deutschland"]}, "categories": [{"id": "4bf58dd8d48988d163941735", "name": "Park", "pluralName": "Parks", "shortName": "Park", "icon": {"prefix": "https://ss3.4sqi.net/img/categories_v2/parks_outdoors/park_", "suffix": ".png"}, "primary": true}], "photos": {"count": 0, "groups": []}}, "referralId": "e-0-4bebf42dca97d13a8fb06c77-0"}, {"reasons": {"count": 0, "items": [{"summary": "This spot is popular", "type": "general", "reasonName": "globalInteractionReason"}]}, "venue": {"id": "51c4bcc28bbdfbe02ac1f84a", "name": "Eiscaf\u00e9 Kibo", "location": {"address": "Transvaalstr. 13", "lat": 52.5520339786886, "lng": 13.341582787328937, "labeledLatLngs": [{"label": "display", "lat": 52.5520339786886, "lng": 13.341582787328937}], "distance": 409, "postalCode": "13351", "cc": "DE", "city": "Berlin", "state": "Berlin", "country": "Deutschland", "formattedAddress": ["Transvaalstr. 13", "13351 Berlin", "Deutschland"]}, "categories": [{"id": "4bf58dd8d48988d1c9941735", "name": "Ice Cream Shop", "pluralName": "Ice Cream Shops", "shortName": "Ice Cream", "icon": {"prefix": "https://ss3.4sqi.net/img/categories_v2/food/icecream_", "suffix": ".png"}, "primary": true}], "photos": {"count": 0, "groups": []}}, "referralId": "e-0-51c4bcc28bbdfbe02ac1f84a-1"}, {"reasons": {"count": 0, "items": [{"summary": "This spot is popular", "type": "general", "reasonName": "globalInteractionReason"}]}, "venue": {"id": "4f454e9be4b0cc9b7fbbffed", "name": "Opatija-Grill", "location": {"address": "M\u00fcllerstra\u00dfe 70, 13349 Berlin", "lat": 52.556848858156314, "lng": 13.341031750472574, "labeledLatLngs": [{"label": "display", "lat": 52.556848858156314, "lng": 13.341031750472574}], "distance": 607, "postalCode": "13349", "cc": "DE", "city": "Berlin", "state": "Berlin", "country": "Deutschland", "formattedAddress": ["M\u00fcllerstra\u00dfe 70, 13349 Berlin", "13349 Berlin", "Deutschland"]}, "categories": [{"id": "4bf58dd8d48988d1c4941735", "name": "Restaurant", "pluralName": "Restaurants", "shortName": "Restaurant", "icon": {"prefix": "https://ss3.4sqi.net/img/categories_v2/food/default_", "suffix": ".png"}, "primary": true}], "photos": {"count": 0, "groups": []}}, "referralId": "e-0-4f454e9be4b0cc9b7fbbffed-2"}, {"reasons": {"count": 0, "items": [{"summary": "This spot is popular", "type": "general", "reasonName": "globalInteractionReason"}]}, "venue": {"id": "50718287e4b02bfe662a736d", "name": "Schatulle", "location": {"lat": 52.554296, "lng": 13.331135, "labeledLatLngs": [{"label": "display", "lat": 52.554296, "lng": 13.331135}], "distance": 361, "cc": "DE", "city": "Berlin", "state": "Berlin", "country": "Deutschland", "formattedAddress": ["Berlin", "Deutschland"]}, "categories": [{"id": "4bf58dd8d48988d16d941735", "name": "Caf\u00e9", "pluralName": "Caf\u00e9s", "shortName": "Caf\u00e9", "icon": {"prefix": "https://ss3.4sqi.net/img/categories_v2/food/cafe_", "suffix": ".png"}, "primary": true}], "photos": {"count": 0, "groups": []}}, "referralId": "e-0-50718287e4b02bfe662a736d-3"}, {"reasons": {"count": 0, "items": [{"summary": "This spot is popular", "type": "general", "reasonName": "globalInteractionReason"}]}, "venue": {"id": "4d7b736b86cfa143e76bb4a0", "name": "Y\u0131ld\u0131z Caf\u00e9 G\u00f6zleme", "location": {"address": "M\u00fcllerstr. 133 a", "lat": 52.5513354526172, "lng": 13.350238441132605, "labeledLatLngs": [{"label": "display", "lat": 52.5513354526172, "lng": 13.350238441132605}], "distance": 1000, "postalCode": "13349", "cc": "DE", "neighborhood": "Schillerpark", "city": "Berlin", "state": "Berlin", "country": "Deutschland", "formattedAddress": ["M\u00fcllerstr. 133 a", "13349 Berlin", "Deutschland"]}, "categories": [{"id": "4bf58dd8d48988d16d941735", "name": "Caf\u00e9", "pluralName": "Caf\u00e9s", "shortName": "Caf\u00e9", "icon": {"prefix": "https://ss3.4sqi.net/img/categories_v2/food/cafe_", "suffix": ".png"}, "primary": true}], "photos": {"count": 0, "groups": []}}, "referralId": "e-0-4d7b736b86cfa143e76bb4a0-4"}, {"reasons": {"count": 0, "items": [{"summary": "This spot is popular", "type": "general", "reasonName": "globalInteractionReason"}]}, "venue": {"id": "4c0116309a950f47928008c6", "name": "Goethepark", "location": {"address": "Senegalstra\u00dfe 6", "lat": 52.54682890763911, "lng": 13.338853467149123, "labeledLatLngs": [{"label": "display", "lat": 52.54682890763911, "lng": 13.338853467149123}], "distance": 669, "postalCode": "13351", "cc": "DE", "city": "Berlin", "state": "Berlin", "country": "Deutschland", "formattedAddress": ["Senegalstra\u00dfe 6", "13351 Berlin", "Deutschland"]}, "categories": [{"id": "4bf58dd8d48988d163941735", "name": "Park", "pluralName": "Parks", "shortName": "Park", "icon": {"prefix": "https://ss3.4sqi.net/img/categories_v2/parks_outdoors/park_", "suffix": ".png"}, "primary": true}], "photos": {"count": 0, "groups": []}}, "referralId": "e-0-4c0116309a950f47928008c6-5"}, {"reasons": {"count": 0, "items": [{"summary": "This spot is popular", "type": "general", "reasonName": "globalInteractionReason"}]}, "venue": {"id": "5607fc83498e5cc56b26594a", "name": "Flop Caf\u00e9", "location": {"address": "Otawistr. 11", "lat": 52.55515, "lng": 13.341183, "labeledLatLngs": [{"label": "display", "lat": 52.55515, "lng": 13.341183}], "distance": 479, "postalCode": "13351", "cc": "DE", "city": "Berlin", "state": "Berlin", "country": "Deutschland", "formattedAddress": ["Otawistr. 11", "13351 Berlin", "Deutschland"]}, "categories": [{"id": "4bf58dd8d48988d16d941735", "name": "Caf\u00e9", "pluralName": "Caf\u00e9s", "shortName": "Caf\u00e9", "icon": {"prefix": "https://ss3.4sqi.net/img/categories_v2/food/cafe_", "suffix": ".png"}, "primary": true}], "photos": {"count": 0, "groups": []}}, "referralId": "e-0-5607fc83498e5cc56b26594a-6"}, {"reasons": {"count": 0, "items": [{"summary": "This spot is popular", "type": "general", "reasonName": "globalInteractionReason"}]}, "venue": {"id": "4bfb2cf765fbc9b66f23916c", "name": "U Rehberge", "location": {"address": "M\u00fcllerstr.", "crossStreet": "Dubliner Str.", "lat": 52.55557021151001, "lng": 13.343411678190035, "labeledLatLngs": [{"label": "display", "lat": 52.55557021151001, "lng": 13.343411678190035}], "distance": 630, "postalCode": "13349", "cc": "DE", "city": "Berlin", "state": "Berlin", "country": "Deutschland", "formattedAddress": ["M\u00fcllerstr. (Dubliner Str.)", "13349 Berlin", "Deutschland"]}, "categories": [{"id": "4bf58dd8d48988d1fd931735", "name": "Metro Station", "pluralName": "Metro Stations", "shortName": "Metro", "icon": {"prefix": "https://ss3.4sqi.net/img/categories_v2/travel/subway_", "suffix": ".png"}, "primary": true}], "photos": {"count": 0, "groups": []}}, "referralId": "e-0-4bfb2cf765fbc9b66f23916c-7"}, {"reasons": {"count": 0, "items": [{"summary": "This spot is popular", "type": "general", "reasonName": "globalInteractionReason"}]}, "venue": {"id": "5239f36211d29b920a8f82e6", "name": "Flop", "location": {"address": "L\u00fcderitzstr 74", "lat": 52.554813351937966, "lng": 13.341457509071999, "labeledLatLngs": [{"label": "display", "lat": 52.554813351937966, "lng": 13.341457509071999}], "distance": 473, "postalCode": "13351", "cc": "DE", "city": "Berlin-Wedding", "state": "Berlin", "country": "Deutschland", "formattedAddress": ["L\u00fcderitzstr 74", "13351 Berlin-Wedding", "Deutschland"]}, "categories": [{"id": "4bf58dd8d48988d116941735", "name": "Bar", "pluralName": "Bars", "shortName": "Bar", "icon": {"prefix": "https://ss3.4sqi.net/img/categories_v2/nightlife/pub_", "suffix": ".png"}, "primary": true}], "photos": {"count": 0, "groups": []}}, "referralId": "e-0-5239f36211d29b920a8f82e6-8"}, {"reasons": {"count": 0, "items": [{"summary": "This spot is popular", "type": "general", "reasonName": "globalInteractionReason"}]}, "venue": {"id": "551ba080498e6bec4bcb0454", "name": "City Kino Wedding", "location": {"address": "M\u00fcllerstr. 74", "lat": 52.55847041337959, "lng": 13.339238274410109, "labeledLatLngs": [{"label": "display", "lat": 52.55847041337959, "lng": 13.339238274410109}], "distance": 708, "postalCode": "13349", "cc": "DE", "city": "Berlin", "state": "Berlin", "country": "Deutschland", "formattedAddress": ["M\u00fcllerstr. 74", "13349 Berlin", "Deutschland"]}, "categories": [{"id": "4bf58dd8d48988d17f941735", "name": "Movie Theater", "pluralName": "Movie Theaters", "shortName": "Movie Theater", "icon": {"prefix": "https://ss3.4sqi.net/img/categories_v2/arts_entertainment/movietheater_", "suffix": ".png"}, "primary": true}], "photos": {"count": 0, "groups": []}}, "referralId": "e-0-551ba080498e6bec4bcb0454-9"}, {"reasons": {"count": 0, "items": [{"summary": "This spot is popular", "type": "general", "reasonName": "globalInteractionReason"}]}, "venue": {"id": "52a05fb0498e423e3ff0f917", "name": "Kaufland", "location": {"address": "M\u00fcllerstr. 123-125", "lat": 52.55356695576731, "lng": 13.345989707322405, "labeledLatLngs": [{"label": "display", "lat": 52.55356695576731, "lng": 13.345989707322405}], "distance": 714, "postalCode": "13349", "cc": "DE", "city": "Berlin", "state": "Berlin", "country": "Deutschland", "formattedAddress": ["M\u00fcllerstr. 123-125", "13349 Berlin", "Deutschland"]}, "categories": [{"id": "52f2ab2ebcbc57f1066b8b42", "name": "Big Box Store", "pluralName": "Big Box Stores", "shortName": "Big Box Store", "icon": {"prefix": "https://ss3.4sqi.net/img/categories_v2/shops/default_", "suffix": ".png"}, "primary": true}], "photos": {"count": 0, "groups": []}, "venuePage": {"id": "456066628"}}, "referralId": "e-0-52a05fb0498e423e3ff0f917-10"}, {"reasons": {"count": 0, "items": [{"summary": "This spot is popular", "type": "general", "reasonName": "globalInteractionReason"}]}, "venue": {"id": "4fde3329e4b08d627ad69bd3", "name": "Lale", "location": {"address": "M\u00fcllerstra\u00dfe", "lat": 52.55424181558181, "lng": 13.345153017174328, "labeledLatLngs": [{"label": "display", "lat": 52.55424181558181, "lng": 13.345153017174328}], "distance": 675, "cc": "DE", "city": "Berlin", "state": "Berlin", "country": "Deutschland", "formattedAddress": ["M\u00fcllerstra\u00dfe", "Berlin", "Deutschland"]}, "categories": [{"id": "4bf58dd8d48988d116941735", "name": "Bar", "pluralName": "Bars", "shortName": "Bar", "icon": {"prefix": "https://ss3.4sqi.net/img/categories_v2/nightlife/pub_", "suffix": ".png"}, "primary": true}], "photos": {"count": 0, "groups": []}}, "referralId": "e-0-4fde3329e4b08d627ad69bd3-11"}, {"reasons": {"count": 0, "items": [{"summary": "This spot is popular", "type": "general", "reasonName": "globalInteractionReason"}]}, "venue": {"id": "58b2eb74a8b75911adda2b70", "name": "Zaunk\u00f6nig Familiencaf\u00e9", "location": {"address": "L\u00fcderitzstra\u00dfe 14", "lat": 52.550636, "lng": 13.348629, "labeledLatLngs": [{"label": "display", "lat": 52.550636, "lng": 13.348629}], "distance": 907, "cc": "DE", "city": "Berlin", "state": "Berlin", "country": "Deutschland", "formattedAddress": ["L\u00fcderitzstra\u00dfe 14", "Berlin", "Deutschland"]}, "categories": [{"id": "4bf58dd8d48988d16d941735", "name": "Caf\u00e9", "pluralName": "Caf\u00e9s", "shortName": "Caf\u00e9", "icon": {"prefix": "https://ss3.4sqi.net/img/categories_v2/food/cafe_", "suffix": ".png"}, "primary": true}], "photos": {"count": 0, "groups": []}}, "referralId": "e-0-58b2eb74a8b75911adda2b70-12"}, {"reasons": {"count": 0, "items": [{"summary": "This spot is popular", "type": "general", "reasonName": "globalInteractionReason"}]}, "venue": {"id": "4c5912d66407d13a676db128", "name": "EDEKA Fromm", "location": {"address": "M\u00fcllerstr. 127", "lat": 52.5526436, "lng": 13.3475541, "labeledLatLngs": [{"label": "display", "lat": 52.5526436, "lng": 13.3475541}], "distance": 810, "postalCode": "13349", "cc": "DE", "city": "Berlin", "state": "Berlin", "country": "Deutschland", "formattedAddress": ["M\u00fcllerstr. 127", "13349 Berlin", "Deutschland"]}, "categories": [{"id": "52f2ab2ebcbc57f1066b8b46", "name": "Supermarket", "pluralName": "Supermarkets", "shortName": "Supermarket", "icon": {"prefix": "https://ss3.4sqi.net/img/categories_v2/shops/food_grocery_", "suffix": ".png"}, "primary": true}], "photos": {"count": 0, "groups": []}, "venuePage": {"id": "555439402"}}, "referralId": "e-0-4c5912d66407d13a676db128-13"}, {"reasons": {"count": 0, "items": [{"summary": "This spot is popular", "type": "general", "reasonName": "globalInteractionReason"}]}, "venue": {"id": "5208f53f11d280d89dbfca8a", "name": "Sporthalle M\u00f6vensee", "location": {"address": "Afrikanische Stra\u00dfe 123", "lat": 52.555145629838954, "lng": 13.334683331826357, "labeledLatLngs": [{"label": "display", "lat": 52.555145629838954, "lng": 13.334683331826357}], "distance": 300, "cc": "DE", "city": "Berlin", "state": "Berlin", "country": "Deutschland", "formattedAddress": ["Afrikanische Stra\u00dfe 123", "Berlin", "Deutschland"]}, "categories": [{"id": "4bf58dd8d48988d176941735", "name": "Gym", "pluralName": "Gyms", "shortName": "Gym", "icon": {"prefix": "https://ss3.4sqi.net/img/categories_v2/building/gym_", "suffix": ".png"}, "primary": true}], "photos": {"count": 0, "groups": []}}, "referralId": "e-0-5208f53f11d280d89dbfca8a-14"}, {"reasons": {"count": 0, "items": [{"summary": "This spot is popular", "type": "general", "reasonName": "globalInteractionReason"}]}, "venue": {"id": "50a35d88498eb13a3d7b8084", "name": "Backstube", "location": {"address": "Transvaalstra\u00dfe 16", "lat": 52.55149489283434, "lng": 13.340916411992046, "labeledLatLngs": [{"label": "display", "lat": 52.55149489283434, "lng": 13.340916411992046}], "distance": 378, "cc": "DE", "city": "Berlin", "state": "Berlin", "country": "Deutschland", "formattedAddress": ["Transvaalstra\u00dfe 16", "Berlin", "Deutschland"]}, "categories": [{"id": "4bf58dd8d48988d16a941735", "name": "Bakery", "pluralName": "Bakeries", "shortName": "Bakery", "icon": {"prefix": "https://ss3.4sqi.net/img/categories_v2/food/bakery_", "suffix": ".png"}, "primary": true}], "photos": {"count": 0, "groups": []}}, "referralId": "e-0-50a35d88498eb13a3d7b8084-15"}, {"reasons": {"count": 0, "items": [{"summary": "This spot is popular", "type": "general", "reasonName": "globalInteractionReason"}]}, "venue": {"id": "4ec6a18c0e017e2f98de3a04", "name": "BSC Rehberge 1945 e.V.", "location": {"address": "Sambesistr. 11", "crossStreet": "Afrikanische Str.", "lat": 52.549662170075635, "lng": 13.338990211486815, "labeledLatLngs": [{"label": "display", "lat": 52.549662170075635, "lng": 13.338990211486815}], "distance": 391, "postalCode": "13351", "cc": "DE", "city": "Berlin", "state": "Berlin", "country": "Deutschland", "formattedAddress": ["Sambesistr. 11 (Afrikanische Str.)", "13351 Berlin", "Deutschland"]}, "categories": [{"id": "4e39a956bd410d7aed40cbc3", "name": "Tennis Court", "pluralName": "Tennis Courts", "shortName": "Tennis Court", "icon": {"prefix": "https://ss3.4sqi.net/img/categories_v2/arts_entertainment/stadium_tennis_", "suffix": ".png"}, "primary": true}], "photos": {"count": 0, "groups": []}}, "referralId": "e-0-4ec6a18c0e017e2f98de3a04-16"}, {"reasons": {"count": 0, "items": [{"summary": "This spot is popular", "type": "general", "reasonName": "globalInteractionReason"}]}, "venue": {"id": "4e249aa688774a43b7892de7", "name": "Mephisto Pizza & Pasta", "location": {"address": "Muellerstr. 63", "lat": 52.55582838132762, "lng": 13.342649917441307, "labeledLatLngs": [{"label": "display", "lat": 52.55582838132762, "lng": 13.342649917441307}], "distance": 604, "postalCode": "13349", "cc": "DE", "city": "Berlin", "state": "Berlin", "country": "Deutschland", "formattedAddress": ["Muellerstr. 63", "13349 Berlin", "Deutschland"]}, "categories": [{"id": "4bf58dd8d48988d1ca941735", "name": "Pizza Place", "pluralName": "Pizza Places", "shortName": "Pizza", "icon": {"prefix": "https://ss3.4sqi.net/img/categories_v2/food/pizza_", "suffix": ".png"}, "primary": true}], "photos": {"count": 0, "groups": []}}, "referralId": "e-0-4e249aa688774a43b7892de7-17"}, {"reasons": {"count": 0, "items": [{"summary": "This spot is popular", "type": "general", "reasonName": "globalInteractionReason"}]}, "venue": {"id": "508bd2e7e4b0d2cf8af188cb", "name": "Hasina eatery", "location": {"address": "Ofener Str.", "lat": 52.55555835118086, "lng": 13.34417739107632, "labeledLatLngs": [{"label": "display", "lat": 52.55555835118086, "lng": 13.34417739107632}], "distance": 673, "cc": "DE", "city": "Berlin", "state": "Berlin", "country": "Deutschland", "formattedAddress": ["Ofener Str.", "Berlin", "Deutschland"]}, "categories": [{"id": "4bf58dd8d48988d10f941735", "name": "Indian Restaurant", "pluralName": "Indian Restaurants", "shortName": "Indian", "icon": {"prefix": "https://ss3.4sqi.net/img/categories_v2/food/indian_", "suffix": ".png"}, "primary": true}], "photos": {"count": 0, "groups": []}}, "referralId": "e-0-508bd2e7e4b0d2cf8af188cb-18"}, {"reasons": {"count": 0, "items": [{"summary": "This spot is popular", "type": "general", "reasonName": "globalInteractionReason"}]}, "venue": {"id": "50bfa702e4b04b6b16a95bb6", "name": "Escape Lounge", "location": {"address": "M\u00fcller Stra\u00dfe 83", "lat": 52.56041778846742, "lng": 13.334640254870678, "labeledLatLngs": [{"label": "display", "lat": 52.56041778846742, "lng": 13.334640254870678}], "distance": 882, "postalCode": "13349", "cc": "DE", "city": "Berlin", "state": "Berlin", "country": "Deutschland", "formattedAddress": ["M\u00fcller Stra\u00dfe 83", "13349 Berlin", "Deutschland"]}, "categories": [{"id": "4bf58dd8d48988d119941735", "name": "Hookah Bar", "pluralName": "Hookah Bars", "shortName": "Hookah Bar", "icon": {"prefix": "https://ss3.4sqi.net/img/categories_v2/nightlife/hookahbar_", "suffix": ".png"}, "primary": true}], "photos": {"count": 0, "groups": []}}, "referralId": "e-0-50bfa702e4b04b6b16a95bb6-19"}, {"reasons": {"count": 0, "items": [{"summary": "This spot is popular", "type": "general", "reasonName": "globalInteractionReason"}]}, "venue": {"id": "4de0f390b0fbe2cfa6128731", "name": "Aral", "location": {"address": "Seestr. 18/19", "lat": 52.546403, "lng": 13.345187, "labeledLatLngs": [{"label": "display", "lat": 52.546403, "lng": 13.345187}], "distance": 940, "postalCode": "13353", "cc": "DE", "city": "Berlin", "state": "Berlin", "country": "Deutschland", "formattedAddress": ["Seestr. 18/19", "13353 Berlin", "Deutschland"]}, "categories": [{"id": "4bf58dd8d48988d113951735", "name": "Gas Station", "pluralName": "Gas Stations", "shortName": "Gas Station", "icon": {"prefix": "https://ss3.4sqi.net/img/categories_v2/shops/gas_", "suffix": ".png"}, "primary": true}], "photos": {"count": 0, "groups": []}, "venuePage": {"id": "582444249"}}, "referralId": "e-0-4de0f390b0fbe2cfa6128731-20"}, {"reasons": {"count": 0, "items": [{"summary": "This spot is popular", "type": "general", "reasonName": "globalInteractionReason"}]}, "venue": {"id": "4c4337e9e26920a1152261e7", "name": "Il Padrino", "location": {"address": "M\u00fcllerstr. 62 a", "lat": 52.555566860657855, "lng": 13.343381876403294, "labeledLatLngs": [{"label": "display", "lat": 52.555566860657855, "lng": 13.343381876403294}], "distance": 628, "postalCode": "13349", "cc": "DE", "city": "Berlin", "state": "Berlin", "country": "Deutschland", "formattedAddress": ["M\u00fcllerstr. 62 a", "13349 Berlin", "Deutschland"]}, "categories": [{"id": "4bf58dd8d48988d1ca941735", "name": "Pizza Place", "pluralName": "Pizza Places", "shortName": "Pizza", "icon": {"prefix": "https://ss3.4sqi.net/img/categories_v2/food/pizza_", "suffix": ".png"}, "primary": true}], "photos": {"count": 0, "groups": []}}, "referralId": "e-0-4c4337e9e26920a1152261e7-21"}, {"reasons": {"count": 0, "items": [{"summary": "This spot is popular", "type": "general", "reasonName": "globalInteractionReason"}]}, "venue": {"id": "4d3dc9018edf37049d66bda5", "name": "Wedding Apotheke", "location": {"address": "M\u00fcllerstr. 139", "lat": 52.549369300845655, "lng": 13.343505534020196, "labeledLatLngs": [{"label": "display", "lat": 52.549369300845655, "lng": 13.343505534020196}], "distance": 639, "cc": "DE", "city": "Berlin", "state": "Berlin", "country": "Deutschland", "formattedAddress": ["M\u00fcllerstr. 139", "Berlin", "Deutschland"]}, "categories": [{"id": "4bf58dd8d48988d10f951735", "name": "Pharmacy", "pluralName": "Pharmacies", "shortName": "Pharmacy", "icon": {"prefix": "https://ss3.4sqi.net/img/categories_v2/shops/pharmacy_", "suffix": ".png"}, "primary": true}], "photos": {"count": 0, "groups": []}}, "referralId": "e-0-4d3dc9018edf37049d66bda5-22"}, {"reasons": {"count": 0, "items": [{"summary": "This spot is popular", "type": "general", "reasonName": "globalInteractionReason"}]}, "venue": {"id": "58302279c5f8a71707a11f68", "name": "Diamantfabrikken", "location": {"address": "Ofener Str. 1", "lat": 52.555298, "lng": 13.343908, "labeledLatLngs": [{"label": "display", "lat": 52.555298, "lng": 13.343908}], "distance": 643, "postalCode": "13349", "cc": "DE", "city": "Berlin", "state": "Berlin", "country": "Deutschland", "formattedAddress": ["Ofener Str. 1", "13349 Berlin", "Deutschland"]}, "categories": [{"id": "4bf58dd8d48988d1de931735", "name": "Tattoo Parlor", "pluralName": "Tattoo Parlors", "shortName": "Tattoo", "icon": {"prefix": "https://ss3.4sqi.net/img/categories_v2/shops/tattoos_", "suffix": ".png"}, "primary": true}], "photos": {"count": 0, "groups": []}}, "referralId": "e-0-58302279c5f8a71707a11f68-23"}, {"reasons": {"count": 0, "items": [{"summary": "This spot is popular", "type": "general", "reasonName": "globalInteractionReason"}]}, "venue": {"id": "4dc6f37252b1e8f9f7f9c185", "name": "D\u00f6neria", "location": {"address": "M\u00fcllerstr. 122A", "crossStreet": "Barfu\u00dfstr.", "lat": 52.553946273383296, "lng": 13.346005290786541, "labeledLatLngs": [{"label": "display", "lat": 52.553946273383296, "lng": 13.346005290786541}], "distance": 723, "postalCode": "13349", "cc": "DE", "city": "Berlin", "state": "Berlin", "country": "Deutschland", "formattedAddress": ["M\u00fcllerstr. 122A (Barfu\u00dfstr.)", "13349 Berlin", "Deutschland"]}, "categories": [{"id": "5283c7b4e4b094cb91ec88d8", "name": "Doner Restaurant", "pluralName": "Doner Restaurants", "shortName": "Doner", "icon": {"prefix": "https://ss3.4sqi.net/img/categories_v2/food/turkish_", "suffix": ".png"}, "primary": true}], "photos": {"count": 0, "groups": []}}, "referralId": "e-0-4dc6f37252b1e8f9f7f9c185-24"}, {"reasons": {"count": 0, "items": [{"summary": "This spot is popular", "type": "general", "reasonName": "globalInteractionReason"}]}, "venue": {"id": "4f91a93fe4b07f1dece7698a", "name": "H T\u00fcrkenstra\u00dfe", "location": {"address": "M\u00fcllerstr.", "crossStreet": "T\u00fcrkenstr.", "lat": 52.55342691262654, "lng": 13.346908807071836, "labeledLatLngs": [{"label": "display", "lat": 52.55342691262654, "lng": 13.346908807071836}], "distance": 773, "postalCode": "13349", "cc": "DE", "city": "Berlin", "state": "Berlin", "country": "Deutschland", "formattedAddress": ["M\u00fcllerstr. (T\u00fcrkenstr.)", "13349 Berlin", "Deutschland"]}, "categories": [{"id": "52f2ab2ebcbc57f1066b8b4f", "name": "Bus Stop", "pluralName": "Bus Stops", "shortName": "Bus Stop", "icon": {"prefix": "https://ss3.4sqi.net/img/categories_v2/travel/busstation_", "suffix": ".png"}, "primary": true}], "photos": {"count": 0, "groups": []}}, "referralId": "e-0-4f91a93fe4b07f1dece7698a-25"}, {"reasons": {"count": 0, "items": [{"summary": "This spot is popular", "type": "general", "reasonName": "globalInteractionReason"}]}, "venue": {"id": "509f6e16e4b07873492afb45", "name": "Kiran B\u00e4ckerei", "location": {"address": "M\u00fcllerstr. 54", "lat": 52.553531, "lng": 13.347135, "labeledLatLngs": [{"label": "display", "lat": 52.553531, "lng": 13.347135}], "distance": 790, "postalCode": "13349", "cc": "DE", "city": "Berlin", "state": "Berlin", "country": "Deutschland", "formattedAddress": ["M\u00fcllerstr. 54", "13349 Berlin", "Deutschland"]}, "categories": [{"id": "4bf58dd8d48988d16a941735", "name": "Bakery", "pluralName": "Bakeries", "shortName": "Bakery", "icon": {"prefix": "https://ss3.4sqi.net/img/categories_v2/food/bakery_", "suffix": ".png"}, "primary": true}], "photos": {"count": 0, "groups": []}}, "referralId": "e-0-509f6e16e4b07873492afb45-26"}, {"reasons": {"count": 0, "items": [{"summary": "This spot is popular", "type": "general", "reasonName": "globalInteractionReason"}]}, "venue": {"id": "4ddfce77922e8b06acd4ddaa", "name": "ALDI NORD", "location": {"address": "M\u00fcllerstr. 128", "lat": 52.55270561849789, "lng": 13.347823034442998, "labeledLatLngs": [{"label": "display", "lat": 52.55270561849789, "lng": 13.347823034442998}], "distance": 828, "postalCode": "13349", "cc": "DE", "city": "Berlin", "state": "Berlin", "country": "Deutschland", "formattedAddress": ["M\u00fcllerstr. 128", "13349 Berlin", "Deutschland"]}, "categories": [{"id": "52f2ab2ebcbc57f1066b8b46", "name": "Supermarket", "pluralName": "Supermarkets", "shortName": "Supermarket", "icon": {"prefix": "https://ss3.4sqi.net/img/categories_v2/shops/food_grocery_", "suffix": ".png"}, "primary": true}], "photos": {"count": 0, "groups": []}}, "referralId": "e-0-4ddfce77922e8b06acd4ddaa-27"}, {"reasons": {"count": 0, "items": [{"summary": "This spot is popular", "type": "general", "reasonName": "globalInteractionReason"}]}, "venue": {"id": "4ddfcb45922e8b06acd4d2ed", "name": "Lidl", "location": {"address": "M\u00fcllerstr. 48/48a", "lat": 52.552419291146585, "lng": 13.350109968848756, "labeledLatLngs": [{"label": "display", "lat": 52.552419291146585, "lng": 13.350109968848756}], "distance": 983, "postalCode": "13349", "cc": "DE", "city": "Berlin", "state": "Berlin", "country": "Deutschland", "formattedAddress": ["M\u00fcllerstr. 48/48a", "13349 Berlin-Mitte", "Deutschland"]}, "categories": [{"id": "52f2ab2ebcbc57f1066b8b46", "name": "Supermarket", "pluralName": "Supermarkets", "shortName": "Supermarket", "icon": {"prefix": "https://ss3.4sqi.net/img/categories_v2/shops/food_grocery_", "suffix": ".png"}, "primary": true}], "photos": {"count": 0, "groups": []}, "venuePage": {"id": "578520698"}}, "referralId": "e-0-4ddfcb45922e8b06acd4d2ed-28"}, {"reasons": {"count": 0, "items": [{"summary": "This spot is popular", "type": "general", "reasonName": "globalInteractionReason"}]}, "venue": {"id": "5034caad582fedb7d0c57412", "name": "Vitalina", "location": {"address": "Wedding-M\u00fcllerstra\u00dfe 90-D", "crossStreet": "Neben ubahn strasse afrikanische", "lat": 52.560650131006, "lng": 13.333740103023812, "labeledLatLngs": [{"label": "display", "lat": 52.560650131006, "lng": 13.333740103023812}], "distance": 915, "postalCode": "13349", "cc": "DE", "city": "Berlin", "state": "Berlin", "country": "Deutschland", "formattedAddress": ["Wedding-M\u00fcllerstra\u00dfe 90-D (Neben ubahn strasse afrikanische)", "13349 Berlin", "Deutschland"]}, "categories": [{"id": "4bf58dd8d48988d16a941735", "name": "Bakery", "pluralName": "Bakeries", "shortName": "Bakery", "icon": {"prefix": "https://ss3.4sqi.net/img/categories_v2/food/bakery_", "suffix": ".png"}, "primary": true}], "photos": {"count": 0, "groups": []}}, "referralId": "e-0-5034caad582fedb7d0c57412-29"}, {"reasons": {"count": 0, "items": [{"summary": "This spot is popular", "type": "general", "reasonName": "globalInteractionReason"}]}, "venue": {"id": "512a7c25e4b09295222edb17", "name": "Sp\u00e4tkauf Sunside", "location": {"address": "Seestra\u00dfe 102", "lat": 52.549449, "lng": 13.348966, "labeledLatLngs": [{"label": "display", "lat": 52.549449, "lng": 13.348966}], "distance": 967, "postalCode": "13353", "cc": "DE", "city": "Berlin", "state": "Berlin", "country": "Deutschland", "formattedAddress": ["Seestra\u00dfe 102", "13353 Berlin", "Deutschland"]}, "categories": [{"id": "4d954b0ea243a5684a65b473", "name": "Convenience Store", "pluralName": "Convenience Stores", "shortName": "Convenience Store", "icon": {"prefix": "https://ss3.4sqi.net/img/categories_v2/shops/conveniencestore_", "suffix": ".png"}, "primary": true}], "photos": {"count": 0, "groups": []}}, "referralId": "e-0-512a7c25e4b09295222edb17-30"}, {"reasons": {"count": 0, "items": [{"summary": "This spot is popular", "type": "general", "reasonName": "globalInteractionReason"}]}, "venue": {"id": "510f8ddce4b0470c6b423b80", "name": "Offizierheim", "location": {"lat": 52.552396661865195, "lng": 13.321269429209229, "labeledLatLngs": [{"label": "display", "lat": 52.552396661865195, "lng": 13.321269429209229}], "distance": 968, "cc": "DE", "city": "Berlin", "state": "Berlin", "country": "Deutschland", "formattedAddress": ["Berlin", "Deutschland"]}, "categories": [{"id": "4bf58dd8d48988d10d941735", "name": "German Restaurant", "pluralName": "German Restaurants", "shortName": "German", "icon": {"prefix": "https://ss3.4sqi.net/img/categories_v2/food/german_", "suffix": ".png"}, "primary": true}], "photos": {"count": 0, "groups": []}}, "referralId": "e-0-510f8ddce4b0470c6b423b80-31"}, {"reasons": {"count": 0, "items": [{"summary": "This spot is popular", "type": "general", "reasonName": "globalInteractionReason"}]}, "venue": {"id": "5202b177498e382fbf25d37b", "name": "H Antwerpener Stra\u00dfe", "location": {"address": "Seestr.", "crossStreet": "Antwerpener Str.", "lat": 52.548745147747454, "lng": 13.348613780548865, "labeledLatLngs": [{"label": "display", "lat": 52.548745147747454, "lng": 13.348613780548865}], "distance": 976, "postalCode": "13353", "cc": "DE", "city": "Berlin", "state": "Berlin", "country": "Deutschland", "formattedAddress": ["Seestr. (Antwerpener Str.)", "13353 Berlin", "Deutschland"]}, "categories": [{"id": "52f2ab2ebcbc57f1066b8b4f", "name": "Bus Stop", "pluralName": "Bus Stops", "shortName": "Bus Stop", "icon": {"prefix": "https://ss3.4sqi.net/img/categories_v2/travel/busstation_", "suffix": ".png"}, "primary": true}], "photos": {"count": 0, "groups": []}}, "referralId": "e-0-5202b177498e382fbf25d37b-32"}, {"reasons": {"count": 0, "items": [{"summary": "This spot is popular", "type": "general", "reasonName": "globalInteractionReason"}]}, "venue": {"id": "56c8640dcd106132b5669bc2", "name": "Baba Sultan K\u00f6fteci", "location": {"lat": 52.551697, "lng": 13.350054, "labeledLatLngs": [{"label": "display", "lat": 52.551697, "lng": 13.350054}], "distance": 983, "cc": "DE", "city": "Berlin", "state": "Berlin", "country": "Deutschland", "formattedAddress": ["Berlin", "Deutschland"]}, "categories": [{"id": "5283c7b4e4b094cb91ec88db", "name": "Kofte Place", "pluralName": "Kofte Places", "shortName": "Kofte", "icon": {"prefix": "https://ss3.4sqi.net/img/categories_v2/food/turkish_", "suffix": ".png"}, "primary": true}], "photos": {"count": 0, "groups": []}}, "referralId": "e-0-56c8640dcd106132b5669bc2-33"}, {"reasons": {"count": 0, "items": [{"summary": "This spot is popular", "type": "general", "reasonName": "globalInteractionReason"}]}, "venue": {"id": "4c39dccfae2da593042303c6", "name": "Pl\u00f6tzensee", "location": {"address": "Dohnagestell", "lat": 52.54440357440819, "lng": 13.32967758178711, "labeledLatLngs": [{"label": "display", "lat": 52.54440357440819, "lng": 13.32967758178711}], "distance": 986, "postalCode": "13351", "cc": "DE", "city": "Berlin", "state": "Berlin", "country": "Deutschland", "formattedAddress": ["Dohnagestell", "13351 Berlin", "Deutschland"]}, "categories": [{"id": "4bf58dd8d48988d161941735", "name": "Lake", "pluralName": "Lakes", "shortName": "Lake", "icon": {"prefix": "https://ss3.4sqi.net/img/categories_v2/parks_outdoors/lake_", "suffix": ".png"}, "primary": true}], "photos": {"count": 0, "groups": []}}, "referralId": "e-0-4c39dccfae2da593042303c6-34"}, {"reasons": {"count": 0, "items": [{"summary": "This spot is popular", "type": "general", "reasonName": "globalInteractionReason"}]}, "venue": {"id": "4b213376f964a520233824e3", "name": "Schillerpark-Center", "location": {"address": "M\u00fcllerstr. 46", "crossStreet": "Ungarnstr.", "lat": 52.55155662344292, "lng": 13.35020098215693, "labeledLatLngs": [{"label": "display", "lat": 52.55155662344292, "lng": 13.35020098215693}], "distance": 994, "postalCode": "13349", "cc": "DE", "city": "Berlin", "state": "Berlin", "country": "Deutschland", "formattedAddress": ["M\u00fcllerstr. 46 (Ungarnstr.)", "13349 Berlin", "Deutschland"]}, "categories": [{"id": "4bf58dd8d48988d1fd941735", "name": "Shopping Mall", "pluralName": "Shopping Malls", "shortName": "Mall", "icon": {"prefix": "https://ss3.4sqi.net/img/categories_v2/shops/mall_", "suffix": ".png"}, "primary": true}], "photos": {"count": 0, "groups": []}}, "referralId": "e-0-4b213376f964a520233824e3-35"}]