[{"reasons": {"count": 0, "items": [{"summary": "This spot is popular", "type": "general", "reasonName": "globalInteractionReason"}]}, "venue": {"id": "572456ac498e0f352f556c58", "name": "AtayaCaffe Vegan Restaurant", "location": {"address": "Zelterstra\u00dfe 6", "lat": 52.54724172849327, "lng": 13.426902294158936, "labeledLatLngs": [{"label": "display", "lat": 52.54724172849327, "lng": 13.426902294158936}], "distance": 218, "postalCode": "10439", "cc": "DE", "neighborhood": "Prenzlauer Berg", "city": "Berlin", "state": "Berlin", "country": "Deutschland", "formattedAddress": ["Zelterstra\u00dfe 6", "10439 Berlin", "Deutschland"]}, "categories": [{"id": "4bf58dd8d48988d1d3941735", "name": "Vegetarian / Vegan Restaurant", "pluralName": "Vegetarian / Vegan Restaurants", "shortName": "Vegetarian / Vegan", "icon": {"prefix": "https://ss3.4sqi.net/img/categories_v2/food/vegetarian_", "suffix": ".png"}, "primary": true}], "photos": {"count": 0, "groups": []}, "venuePage": {"id": "183199409"}}, "referralId": "e-0-572456ac498e0f352f556c58-0"}, {"reasons": {"count": 0, "items": [{"summary": "This spot is popular", "type": "general", "reasonName": "globalInteractionReason"}]}, "venue": {"id": "56802b1d498e9566e231deb7", "name": "Agni", "location": {"address": "Prenzlauer Allee 145", "lat": 52.5492117638926, "lng": 13.429127175015285, "labeledLatLngs": [{"label": "display", "lat": 52.5492117638926, "lng": 13.429127175015285}], "distance": 176, "cc": "DE", "city": "Berlin", "state": "Berlin", "country": "Deutschland", "formattedAddress": ["Prenzlauer Allee 145", "Berlin", "Deutschland"]}, "categories": [{"id": "4bf58dd8d48988d10f941735", "name": "Indian Restaurant", "pluralName": "Indian Restaurants", "shortName": "Indian", "icon": {"prefix": "https://ss3.4sqi.net/img/categories_v2/food/indian_", "suffix": ".png"}, "primary": true}], "photos": {"count": 0, "groups": []}}, "referralId": "e-0-56802b1d498e9566e231deb7-1"}, {"reasons": {"count": 0, "items": [{"summary": "This spot is popular", "type": "general", "reasonName": "globalInteractionReason"}]}, "venue": {"id": "4b328411f964a5209a0d25e3", "name": "Orange Coffee", "location": {"address": "Prenzlauer Allee 171", "lat": 52.54719253091416, "lng": 13.428360230863493, "labeledLatLngs": [{"label": "display", "lat": 52.54719253091416, "lng": 13.428360230863493}], "distance": 128, "postalCode": "10409", "cc": "DE", "neighborhood": "Prenzlauer Berg", "city": "Berlin", "state": "Berlin", "country": "Deutschland", "formattedAddress": ["Prenzlauer Allee 171", "10409 Berlin", "Deutschland"]}, "categories": [{"id": "4bf58dd8d48988d16d941735", "name": "Caf\u00e9", "pluralName": "Caf\u00e9s", "shortName": "Caf\u00e9", "icon": {"prefix": "https://ss3.4sqi.net/img/categories_v2/food/cafe_", "suffix": ".png"}, "primary": true}], "photos": {"count": 0, "groups": []}, "venuePage": {"id": "380946811"}}, "referralId": "e-0-4b328411f964a5209a0d25e3-2"}, {"reasons": {"count": 0, "items": [{"summary": "This spot is popular", "type": "general", "reasonName": "globalInteractionReason"}]}, "venue": {"id": "51d1c560498e48b086ab415c", "name": "Lao Xiang", "location": {"address": "Wichertstr. 43", "lat": 52.546011, "lng": 13.427489, "labeledLatLngs": [{"label": "display", "lat": 52.546011, "lng": 13.427489}], "distance": 257, "postalCode": "10439", "cc": "DE", "city": "Berlin", "state": "Berlin", "country": "Deutschland", "formattedAddress": ["Wichertstr. 43", "10439 Berlin", "Deutschland"]}, "categories": [{"id": "4bf58dd8d48988d145941735", "name": "Chinese Restaurant", "pluralName": "Chinese Restaurants", "shortName": "Chinese", "icon": {"prefix": "https://ss3.4sqi.net/img/categories_v2/food/asian_", "suffix": ".png"}, "primary": true}], "photos": {"count": 0, "groups": []}}, "referralId": "e-0-51d1c560498e48b086ab415c-3"}, {"reasons": {"count": 0, "items": [{"summary": "This spot is popular", "type": "general", "reasonName": "globalInteractionReason"}]}, "venue": {"id": "51729e7d498ebf7fc4a310e3", "name": "dm-drogerie markt", "location": {"address": "Goethestra\u00dfe 3", "lat": 52.55058446405281, "lng": 13.434062191697308, "labeledLatLngs": [{"label": "display", "lat": 52.55058446405281, "lng": 13.434062191697308}], "distance": 418, "postalCode": "10409", "cc": "DE", "city": "Berlin", "state": "Berlin", "country": "Deutschland", "formattedAddress": ["Goethestra\u00dfe 3", "10409 Berlin", "Deutschland"]}, "categories": [{"id": "5745c2e4498e11e7bccabdbd", "name": "Drugstore", "pluralName": "Drugstores", "shortName": "Drugstore", "icon": {"prefix": "https://ss3.4sqi.net/img/categories_v2/shops/pharmacy_", "suffix": ".png"}, "primary": true}], "photos": {"count": 0, "groups": []}, "venuePage": {"id": "452540929"}}, "referralId": "e-0-51729e7d498ebf7fc4a310e3-4"}, {"reasons": {"count": 0, "items": [{"summary": "This spot is popular", "type": "general", "reasonName": "globalInteractionReason"}]}, "venue": {"id": "535ba1cb498e1b5778d7b98e", "name": "Eckstern", "location": {"address": "Erich-Weinert-Str. 101", "lat": 52.54637854156583, "lng": 13.433402108555219, "labeledLatLngs": [{"label": "display", "lat": 52.54637854156583, "lng": 13.433402108555219}], "distance": 272, "postalCode": "10409", "cc": "DE", "city": "Berlin", "state": "Berlin", "country": "Deutschland", "formattedAddress": ["Erich-Weinert-Str. 101", "10409 Berlin", "Deutschland"]}, "categories": [{"id": "4bf58dd8d48988d16d941735", "name": "Caf\u00e9", "pluralName": "Caf\u00e9s", "shortName": "Caf\u00e9", "icon": {"prefix": "https://ss3.4sqi.net/img/categories_v2/food/cafe_", "suffix": ".png"}, "primary": true}], "photos": {"count": 0, "groups": []}}, "referralId": "e-0-535ba1cb498e1b5778d7b98e-5"}, {"reasons": {"count": 0, "items": [{"summary": "This spot is popular", "type": "general", "reasonName": "globalInteractionReason"}]}, "venue": {"id": "4dbadd2a6a23e294ba059b1c", "name": "Getr\u00e4nke Hoffmann", "location": {"address": "Erich-Weinert-Stra\u00dfe 95", "lat": 52.547793057567134, "lng": 13.430528708003976, "labeledLatLngs": [{"label": "display", "lat": 52.547793057567134, "lng": 13.430528708003976}], "distance": 34, "postalCode": "10409", "cc": "DE", "city": "Berlin", "state": "Berlin", "country": "Deutschland", "formattedAddress": ["Erich-Weinert-Stra\u00dfe 95", "10409 Berlin", "Deutschland"]}, "categories": [{"id": "4bf58dd8d48988d1f9941735", "name": "Food & Drink Shop", "pluralName": "Food & Drink Shops", "shortName": "Food & Drink", "icon": {"prefix": "https://ss3.4sqi.net/img/categories_v2/shops/foodanddrink_", "suffix": ".png"}, "primary": true}], "photos": {"count": 0, "groups": []}}, "referralId": "e-0-4dbadd2a6a23e294ba059b1c-6"}, {"reasons": {"count": 0, "items": [{"summary": "This spot is popular", "type": "general", "reasonName": "globalInteractionReason"}]}, "venue": {"id": "4b196aa8f964a520f4dc23e3", "name": "Zaika", "location": {"address": "Wichertstr. 57", "crossStreet": "Gudvanger Str.", "lat": 52.548138, "lng": 13.422789, "labeledLatLngs": [{"label": "display", "lat": 52.548138, "lng": 13.422789}], "distance": 492, "postalCode": "10439", "cc": "DE", "city": "Berlin", "state": "Berlin", "country": "Deutschland", "formattedAddress": ["Wichertstr. 57 (Gudvanger Str.)", "10439 Berlin", "Deutschland"]}, "categories": [{"id": "4bf58dd8d48988d10f941735", "name": "Indian Restaurant", "pluralName": "Indian Restaurants", "shortName": "Indian", "icon": {"prefix": "https://ss3.4sqi.net/img/categories_v2/food/indian_", "suffix": ".png"}, "primary": true}], "photos": {"count": 0, "groups": []}}, "referralId": "e-0-4b196aa8f964a520f4dc23e3-7"}, {"reasons": {"count": 0, "items": [{"summary": "This spot is popular", "type": "general", "reasonName": "globalInteractionReason"}]}, "venue": {"id": "4adcda7df964a520914721e3", "name": "Zeiss-Gro\u00dfplanetarium", "location": {"address": "Prenzlauer Allee 80", "crossStreet": "Diesterwegstr.", "lat": 52.542954, "lng": 13.428055, "labeledLatLngs": [{"label": "display", "lat": 52.542954, "lng": 13.428055}], "distance": 547, "postalCode": "10405", "cc": "DE", "city": "Berlin", "state": "Berlin", "country": "Deutschland", "formattedAddress": ["Prenzlauer Allee 80 (Diesterwegstr.)", "10405 Berlin", "Deutschland"]}, "categories": [{"id": "4bf58dd8d48988d192941735", "name": "Planetarium", "pluralName": "Planetariums", "shortName": "Planetarium", "icon": {"prefix": "https://ss3.4sqi.net/img/categories_v2/arts_entertainment/museum_planetarium_", "suffix": ".png"}, "primary": true}], "photos": {"count": 0, "groups": []}, "venuePage": {"id": "72906030"}}, "referralId": "e-0-4adcda7df964a520914721e3-8"}, {"reasons": {"count": 0, "items": [{"summary": "This spot is popular", "type": "general", "reasonName": "globalInteractionReason"}]}, "venue": {"id": "4bd4528eb221c9b6134edbd0", "name": "Spielplatz am Humannplatz", "location": {"address": "Stahlheimer Str.", "crossStreet": "Rodenbergstr.", "lat": 52.54904272576531, "lng": 13.421953896660204, "labeledLatLngs": [{"label": "display", "lat": 52.54904272576531, "lng": 13.421953896660204}], "distance": 566, "postalCode": "10439", "cc": "DE", "city": "Berlin", "state": "Berlin", "country": "Deutschland", "formattedAddress": ["Stahlheimer Str. (Rodenbergstr.)", "10439 Berlin", "Deutschland"]}, "categories": [{"id": "4bf58dd8d48988d1e7941735", "name": "Playground", "pluralName": "Playgrounds", "shortName": "Playground", "icon": {"prefix": "https://ss3.4sqi.net/img/categories_v2/parks_outdoors/playground_", "suffix": ".png"}, "primary": true}], "photos": {"count": 0, "groups": []}}, "referralId": "e-0-4bd4528eb221c9b6134edbd0-9"}, {"reasons": {"count": 0, "items": [{"summary": "This spot is popular", "type": "general", "reasonName": "globalInteractionReason"}]}, "venue": {"id": "4c964da358d4b60cf5d03929", "name": "Theater im Delphi", "location": {"address": "Gustav-Adolf-Str. 2", "lat": 52.55192765185302, "lng": 13.431232230749847, "labeledLatLngs": [{"label": "display", "lat": 52.55192765185302, "lng": 13.431232230749847}], "distance": 474, "postalCode": "13086", "cc": "DE", "city": "Berlin", "state": "Berlin", "country": "Deutschland", "formattedAddress": ["Gustav-Adolf-Str. 2", "13086 Berlin", "Deutschland"]}, "categories": [{"id": "4bf58dd8d48988d171941735", "name": "Event Space", "pluralName": "Event Spaces", "shortName": "Event Space", "icon": {"prefix": "https://ss3.4sqi.net/img/categories_v2/building/eventspace_", "suffix": ".png"}, "primary": true}], "photos": {"count": 0, "groups": []}, "venuePage": {"id": "583800915"}}, "referralId": "e-0-4c964da358d4b60cf5d03929-10"}, {"reasons": {"count": 0, "items": [{"summary": "This spot is popular", "type": "general", "reasonName": "globalInteractionReason"}]}, "venue": {"id": "5aef2f729ba3e5003971c596", "name": "Nabil Falafel Schawarma", "location": {"address": "Erich-Weinert-Str. 56", "lat": 52.54996553137204, "lng": 13.422583937644958, "labeledLatLngs": [{"label": "display", "lat": 52.54996553137204, "lng": 13.422583937644958}], "distance": 562, "postalCode": "10439", "cc": "DE", "city": "Berlin", "state": "Berlin", "country": "Deutschland", "formattedAddress": ["Erich-Weinert-Str. 56", "10439 Berlin", "Deutschland"]}, "categories": [{"id": "4bf58dd8d48988d10b941735", "name": "Falafel Restaurant", "pluralName": "Falafel Restaurants", "shortName": "Falafel", "icon": {"prefix": "https://ss3.4sqi.net/img/categories_v2/food/falafel_", "suffix": ".png"}, "primary": true}], "photos": {"count": 0, "groups": []}}, "referralId": "e-0-5aef2f729ba3e5003971c596-11"}, {"reasons": {"count": 0, "items": [{"summary": "This spot is popular", "type": "general", "reasonName": "globalInteractionReason"}]}, "venue": {"id": "585584250a3d541975c956d6", "name": "Walid Speisemeisterei", "location": {"address": "Wichertstra\u00dfe 55", "lat": 52.547723, "lng": 13.42335, "labeledLatLngs": [{"label": "display", "lat": 52.547723, "lng": 13.42335}], "distance": 452, "postalCode": "10439", "cc": "DE", "city": "Berlin", "state": "Berlin", "country": "Deutschland", "formattedAddress": ["Wichertstra\u00dfe 55", "10439 Berlin", "Deutschland"]}, "categories": [{"id": "4bf58dd8d48988d10d941735", "name": "German Restaurant", "pluralName": "German Restaurants", "shortName": "German", "icon": {"prefix": "https://ss3.4sqi.net/img/categories_v2/food/german_", "suffix": ".png"}, "primary": true}], "photos": {"count": 0, "groups": []}, "venuePage": {"id": "394703628"}}, "referralId": "e-0-585584250a3d541975c956d6-12"}, {"reasons": {"count": 0, "items": [{"summary": "This spot is popular", "type": "general", "reasonName": "globalInteractionReason"}]}, "venue": {"id": "4adcda8af964a520b44921e3", "name": "Brotfabrik", "location": {"address": "Caligariplatz 1", "lat": 52.552555433837014, "lng": 13.43052864074707, "labeledLatLngs": [{"label": "display", "lat": 52.552555433837014, "lng": 13.43052864074707}], "distance": 538, "postalCode": "13086", "cc": "DE", "city": "Berlin", "state": "Berlin", "country": "Deutschland", "formattedAddress": ["Caligariplatz 1", "13086 Berlin", "Deutschland"]}, "categories": [{"id": "4bf58dd8d48988d135941735", "name": "Indie Theater", "pluralName": "Indie Theaters", "shortName": "Indie", "icon": {"prefix": "https://ss3.4sqi.net/img/categories_v2/arts_entertainment/performingarts_theater_", "suffix": ".png"}, "primary": true}], "photos": {"count": 0, "groups": []}}, "referralId": "e-0-4adcda8af964a520b44921e3-13"}, {"reasons": {"count": 0, "items": [{"summary": "This spot is popular", "type": "general", "reasonName": "globalInteractionReason"}]}, "venue": {"id": "4b178156f964a52004c623e3", "name": "Bekarei", "location": {"address": "Dunckerstr. 23", "crossStreet": "Stargarder Str.", "lat": 52.54435463910769, "lng": 13.422632217407227, "labeledLatLngs": [{"label": "display", "lat": 52.54435463910769, "lng": 13.422632217407227}], "distance": 626, "postalCode": "10437", "cc": "DE", "city": "Berlin", "state": "Berlin", "country": "Deutschland", "formattedAddress": ["Dunckerstr. 23 (Stargarder Str.)", "10437 Berlin", "Deutschland"]}, "categories": [{"id": "4bf58dd8d48988d16a941735", "name": "Bakery", "pluralName": "Bakeries", "shortName": "Bakery", "icon": {"prefix": "https://ss3.4sqi.net/img/categories_v2/food/bakery_", "suffix": ".png"}, "primary": true}], "photos": {"count": 0, "groups": []}, "venuePage": {"id": "60206179"}}, "referralId": "e-0-4b178156f964a52004c623e3-14"}, {"reasons": {"count": 0, "items": [{"summary": "This spot is popular", "type": "general", "reasonName": "globalInteractionReason"}]}, "venue": {"id": "4aee9683f964a5200bd421e3", "name": "Zur Haxe", "location": {"address": "Erich-Weinert-Str. 128", "crossStreet": "Hosemannstr.", "lat": 52.544731, "lng": 13.436748, "labeledLatLngs": [{"label": "display", "lat": 52.544731, "lng": 13.436748}], "distance": 563, "postalCode": "10409", "cc": "DE", "city": "Berlin", "state": "Berlin", "country": "Deutschland", "formattedAddress": ["Erich-Weinert-Str. 128 (Hosemannstr.)", "10409 Berlin", "Deutschland"]}, "categories": [{"id": "4bf58dd8d48988d10d941735", "name": "German Restaurant", "pluralName": "German Restaurants", "shortName": "German", "icon": {"prefix": "https://ss3.4sqi.net/img/categories_v2/food/german_", "suffix": ".png"}, "primary": true}], "photos": {"count": 0, "groups": []}}, "referralId": "e-0-4aee9683f964a5200bd421e3-15"}, {"reasons": {"count": 0, "items": [{"summary": "This spot is popular", "type": "general", "reasonName": "globalInteractionReason"}]}, "venue": {"id": "534d1382498ef814e3c131e2", "name": "Caf\u00e9 Gold St\u00fcck", "location": {"address": "Erich-Weinert-Str. 128", "lat": 52.54472, "lng": 13.437095, "labeledLatLngs": [{"label": "display", "lat": 52.54472, "lng": 13.437095}], "distance": 583, "postalCode": "10409", "cc": "DE", "city": "Berlin", "state": "Berlin", "country": "Deutschland", "formattedAddress": ["Erich-Weinert-Str. 128", "10409 Berlin", "Deutschland"]}, "categories": [{"id": "4bf58dd8d48988d16d941735", "name": "Caf\u00e9", "pluralName": "Caf\u00e9s", "shortName": "Caf\u00e9", "icon": {"prefix": "https://ss3.4sqi.net/img/categories_v2/food/cafe_", "suffix": ".png"}, "primary": true}], "photos": {"count": 0, "groups": []}}, "referralId": "e-0-534d1382498ef814e3c131e2-16"}, {"reasons": {"count": 0, "items": [{"summary": "This spot is popular", "type": "general", "reasonName": "globalInteractionReason"}]}, "venue": {"id": "4f2beffce4b0167576f86f97", "name": "Park hinter dem Planetarium", "location": {"address": "Diesterwegstr.", "lat": 52.54266796907242, "lng": 13.429155349731445, "labeledLatLngs": [{"label": "display", "lat": 52.54266796907242, "lng": 13.429155349731445}], "distance": 566, "postalCode": "10409", "cc": "DE", "neighborhood": "Prenzlauer Berg", "city": "Berlin", "state": "Berlin", "country": "Deutschland", "formattedAddress": ["Diesterwegstr.", "10409 Berlin", "Deutschland"]}, "categories": [{"id": "4bf58dd8d48988d163941735", "name": "Park", "pluralName": "Parks", "shortName": "Park", "icon": {"prefix": "https://ss3.4sqi.net/img/categories_v2/parks_outdoors/park_", "suffix": ".png"}, "primary": true}], "photos": {"count": 0, "groups": []}}, "referralId": "e-0-4f2beffce4b0167576f86f97-17"}, {"reasons": {"count": 0, "items": [{"summary": "This spot is popular", "type": "general", "reasonName": "globalInteractionReason"}]}, "venue": {"id": "5c83b977db2aeb002cdd2841", "name": "Kajumi", "location": {"address": "Dunckerstr. 73", "lat": 52.544094, "lng": 13.421894, "labeledLatLngs": [{"label": "display", "lat": 52.544094, "lng": 13.421894}], "distance": 683, "postalCode": "10437", "cc": "DE", "city": "Berlin", "state": "Berlin", "country": "Deutschland", "formattedAddress": ["Dunckerstr. 73", "10437 Berlin", "Deutschland"]}, "categories": [{"id": "4bf58dd8d48988d1e0931735", "name": "Coffee Shop", "pluralName": "Coffee Shops", "shortName": "Coffee Shop", "icon": {"prefix": "https://ss3.4sqi.net/img/categories_v2/food/coffeeshop_", "suffix": ".png"}, "primary": true}], "photos": {"count": 0, "groups": []}}, "referralId": "e-0-5c83b977db2aeb002cdd2841-18"}, {"reasons": {"count": 0, "items": [{"summary": "This spot is popular", "type": "general", "reasonName": "globalInteractionReason"}]}, "venue": {"id": "5ca3a5c9598e64002c13c42d", "name": "BR\u00c4UGIER BrewPub", "location": {"address": "Stubbenkammerstr. 6", "lat": 52.54215282039202, "lng": 13.423850798790227, "labeledLatLngs": [{"label": "display", "lat": 52.54215282039202, "lng": 13.423850798790227}], "distance": 748, "postalCode": "10437", "cc": "DE", "city": "Berlin", "state": "Berlin", "country": "Deutschland", "formattedAddress": ["Stubbenkammerstr. 6", "10437 Berlin", "Deutschland"]}, "categories": [{"id": "56aa371ce4b08b9a8d57356c", "name": "Beer Bar", "pluralName": "Beer Bars", "shortName": "Beer Bar", "icon": {"prefix": "https://ss3.4sqi.net/img/categories_v2/nightlife/pub_", "suffix": ".png"}, "primary": true}], "photos": {"count": 0, "groups": []}, "venuePage": {"id": "540999516"}}, "referralId": "e-0-5ca3a5c9598e64002c13c42d-19"}, {"reasons": {"count": 0, "items": [{"summary": "This spot is popular", "type": "general", "reasonName": "globalInteractionReason"}]}, "venue": {"id": "50bcfaa1e4b0de82eb92e1bb", "name": "Falafel Aladdin", "location": {"address": "Stargarder Str. 50", "lat": 52.543959892355346, "lng": 13.42430591583252, "labeledLatLngs": [{"label": "display", "lat": 52.543959892355346, "lng": 13.42430591583252}], "distance": 571, "postalCode": "10437", "cc": "DE", "city": "Berlin", "state": "Berlin", "country": "Deutschland", "formattedAddress": ["Stargarder Str. 50", "10437 Berlin", "Deutschland"]}, "categories": [{"id": "4bf58dd8d48988d10b941735", "name": "Falafel Restaurant", "pluralName": "Falafel Restaurants", "shortName": "Falafel", "icon": {"prefix": "https://ss3.4sqi.net/img/categories_v2/food/falafel_", "suffix": ".png"}, "primary": true}], "photos": {"count": 0, "groups": []}}, "referralId": "e-0-50bcfaa1e4b0de82eb92e1bb-20"}, {"reasons": {"count": 0, "items": [{"summary": "This spot is popular", "type": "general", "reasonName": "globalInteractionReason"}]}, "venue": {"id": "585007f4e7f1cf147f820715", "name": "Mitte Meer", "location": {"address": "Prenzlauer Promenade 192", "crossStreet": "Wisbyer Str.", "lat": 52.55169083217036, "lng": 13.430069066424117, "labeledLatLngs": [{"label": "display", "lat": 52.55169083217036, "lng": 13.430069066424117}], "distance": 441, "postalCode": "13189", "cc": "DE", "city": "Berlin", "state": "Berlin", "country": "Deutschland", "formattedAddress": ["Prenzlauer Promenade 192 (Wisbyer Str.)", "13189 Berlin", "Deutschland"]}, "categories": [{"id": "4bf58dd8d48988d1f5941735", "name": "Gourmet Shop", "pluralName": "Gourmet Shops", "shortName": "Gourmet", "icon": {"prefix": "https://ss3.4sqi.net/img/categories_v2/shops/food_gourmet_", "suffix": ".png"}, "primary": true}], "photos": {"count": 0, "groups": []}}, "referralId": "e-0-585007f4e7f1cf147f820715-21"}, {"reasons": {"count": 0, "items": [{"summary": "This spot is popular", "type": "general", "reasonName": "globalInteractionReason"}]}, "venue": {"id": "4af28718f964a520d7e721e3", "name": "Fr\u00e4ulein Dickes", "location": {"address": "Stargarder Str. 60", "crossStreet": "Schliemannstr.", "lat": 52.545261669938675, "lng": 13.421142883356502, "labeledLatLngs": [{"label": "display", "lat": 52.545261669938675, "lng": 13.421142883356502}], "distance": 661, "postalCode": "10437", "cc": "DE", "city": "Berlin", "state": "Berlin", "country": "Deutschland", "formattedAddress": ["Stargarder Str. 60 (Schliemannstr.)", "10437 Berlin", "Deutschland"]}, "categories": [{"id": "4bf58dd8d48988d16d941735", "name": "Caf\u00e9", "pluralName": "Caf\u00e9s", "shortName": "Caf\u00e9", "icon": {"prefix": "https://ss3.4sqi.net/img/categories_v2/food/cafe_", "suffix": ".png"}, "primary": true}], "photos": {"count": 0, "groups": []}}, "referralId": "e-0-4af28718f964a520d7e721e3-22"}, {"reasons": {"count": 0, "items": [{"summary": "This spot is popular", "type": "general", "reasonName": "globalInteractionReason"}]}, "venue": {"id": "575174f7498ef99e3c3913c0", "name": "Mo's Coffee", "location": {"address": "Stargarder Str. 45", "lat": 52.543444432574134, "lng": 13.425362706184387, "labeledLatLngs": [{"label": "display", "lat": 52.543444432574134, "lng": 13.425362706184387}], "distance": 572, "postalCode": "10437", "cc": "DE", "city": "Berlin", "state": "Berlin", "country": "Deutschland", "formattedAddress": ["Stargarder Str. 45", "10437 Berlin", "Deutschland"]}, "categories": [{"id": "4bf58dd8d48988d16d941735", "name": "Caf\u00e9", "pluralName": "Caf\u00e9s", "shortName": "Caf\u00e9", "icon": {"prefix": "https://ss3.4sqi.net/img/categories_v2/food/cafe_", "suffix": ".png"}, "primary": true}], "photos": {"count": 0, "groups": []}}, "referralId": "e-0-575174f7498ef99e3c3913c0-23"}, {"reasons": {"count": 0, "items": [{"summary": "This spot is popular", "type": "general", "reasonName": "globalInteractionReason"}]}, "venue": {"id": "4d821ed66282721ee9f4eb4d", "name": "B\u00e4ckerei G\u00fcnter Kroll", "location": {"address": "Kuglerstr. 65", "crossStreet": "Varnhagenstr.", "lat": 52.55101912474682, "lng": 13.424198627471924, "labeledLatLngs": [{"label": "display", "lat": 52.55101912474682, "lng": 13.424198627471924}], "distance": 539, "postalCode": "10439", "cc": "DE", "city": "Berlin", "state": "Berlin", "country": "Deutschland", "formattedAddress": ["Kuglerstr. 65 (Varnhagenstr.)", "10439 Berlin", "Deutschland"]}, "categories": [{"id": "4bf58dd8d48988d16a941735", "name": "Bakery", "pluralName": "Bakeries", "shortName": "Bakery", "icon": {"prefix": "https://ss3.4sqi.net/img/categories_v2/food/bakery_", "suffix": ".png"}, "primary": true}], "photos": {"count": 0, "groups": []}}, "referralId": "e-0-4d821ed66282721ee9f4eb4d-24"}, {"reasons": {"count": 0, "items": [{"summary": "This spot is popular", "type": "general", "reasonName": "globalInteractionReason"}]}, "venue": {"id": "54af0c2a498e85d1b90acd0f", "name": "Salt n Bone", "location": {"address": "Schliemannstr. 31", "lat": 52.54404686487403, "lng": 13.42010231458886, "labeledLatLngs": [{"label": "display", "lat": 52.54404686487403, "lng": 13.42010231458886}], "distance": 787, "postalCode": "10437", "cc": "DE", "neighborhood": "Helmholtzkiez", "city": "Berlin", "state": "Berlin", "country": "Deutschland", "formattedAddress": ["Schliemannstr. 31", "10437 Berlin", "Deutschland"]}, "categories": [{"id": "4bf58dd8d48988d155941735", "name": "Gastropub", "pluralName": "Gastropubs", "shortName": "Gastropub", "icon": {"prefix": "https://ss3.4sqi.net/img/categories_v2/food/gastropub_", "suffix": ".png"}, "primary": true}], "photos": {"count": 0, "groups": []}, "venuePage": {"id": "1358822274"}}, "referralId": "e-0-54af0c2a498e85d1b90acd0f-25"}, {"reasons": {"count": 0, "items": [{"summary": "This spot is popular", "type": "general", "reasonName": "globalInteractionReason"}]}, "venue": {"id": "59b01c78f4b5252de07ede82", "name": "Pok\u00e9 Pelelina", "location": {"address": "Stargarder Str. 68", "lat": 52.546249985045755, "lng": 13.418940967025895, "labeledLatLngs": [{"label": "display", "lat": 52.546249985045755, "lng": 13.418940967025895}], "distance": 768, "postalCode": "10437", "cc": "DE", "neighborhood": "Prenzlauer Berg", "city": "Berlin", "state": "Berlin", "country": "Deutschland", "formattedAddress": ["Stargarder Str. 68", "10437 Berlin", "Deutschland"]}, "categories": [{"id": "52e81612bcbc57f1066b79fe", "name": "Hawaiian Restaurant", "pluralName": "Hawaiian Restaurants", "shortName": "Hawaiian", "icon": {"prefix": "https://ss3.4sqi.net/img/categories_v2/food/default_", "suffix": ".png"}, "primary": true}], "photos": {"count": 0, "groups": []}}, "referralId": "e-0-59b01c78f4b5252de07ede82-26"}, {"reasons": {"count": 0, "items": [{"summary": "This spot is popular", "type": "general", "reasonName": "globalInteractionReason"}]}, "venue": {"id": "4bc4524f74a9a593ab9ed5f6", "name": "Holfeld Fris\u00f6re & Spa", "location": {"address": "Stahlheimer Str. 24", "lat": 52.55015146145271, "lng": 13.42204213142395, "labeledLatLngs": [{"label": "display", "lat": 52.55015146145271, "lng": 13.42204213142395}], "distance": 604, "postalCode": "10439", "cc": "DE", "city": "Berlin", "state": "Berlin", "country": "Deutschland", "formattedAddress": ["Stahlheimer Str. 24", "10439 Berlin", "Deutschland"]}, "categories": [{"id": "4bf58dd8d48988d110951735", "name": "Salon / Barbershop", "pluralName": "Salons / Barbershops", "shortName": "Salon / Barbershop", "icon": {"prefix": "https://ss3.4sqi.net/img/categories_v2/shops/salon_barber_", "suffix": ".png"}, "primary": true}], "photos": {"count": 0, "groups": []}}, "referralId": "e-0-4bc4524f74a9a593ab9ed5f6-27"}, {"reasons": {"count": 0, "items": [{"summary": "This spot is popular", "type": "general", "reasonName": "globalInteractionReason"}]}, "venue": {"id": "5058a066e4b0a4e74d04173e", "name": "Staatliche Ballettschule Berlin und Schule f\u00fcr Artistik", "location": {"address": "Erich-Weinert-Str. 103", "lat": 52.54561073556471, "lng": 13.436036400149112, "labeledLatLngs": [{"label": "display", "lat": 52.54561073556471, "lng": 13.436036400149112}], "distance": 469, "postalCode": "10409", "cc": "DE", "city": "Berlin", "state": "Berlin", "country": "Deutschland", "formattedAddress": ["Erich-Weinert-Str. 103", "10409 Berlin", "Deutschland"]}, "categories": [{"id": "4bf58dd8d48988d134941735", "name": "Dance Studio", "pluralName": "Dance Studios", "shortName": "Dance Studio", "icon": {"prefix": "https://ss3.4sqi.net/img/categories_v2/arts_entertainment/performingarts_dancestudio_", "suffix": ".png"}, "primary": true}], "photos": {"count": 0, "groups": []}}, "referralId": "e-0-5058a066e4b0a4e74d04173e-28"}, {"reasons": {"count": 0, "items": [{"summary": "This spot is popular", "type": "general", "reasonName": "globalInteractionReason"}]}, "venue": {"id": "4de93e9952b1741cdb17e0cd", "name": "Hokey Pokey", "location": {"address": "Stargarder Str. 72-73", "lat": 52.54676547402726, "lng": 13.417608402042815, "labeledLatLngs": [{"label": "display", "lat": 52.54676547402726, "lng": 13.417608402042815}], "distance": 848, "postalCode": "10437", "cc": "DE", "neighborhood": "Sch\u00f6nhauser Allee-Nord", "city": "Berlin", "state": "Berlin", "country": "Deutschland", "formattedAddress": ["Stargarder Str. 72-73", "10437 Berlin", "Deutschland"]}, "categories": [{"id": "4bf58dd8d48988d1c9941735", "name": "Ice Cream Shop", "pluralName": "Ice Cream Shops", "shortName": "Ice Cream", "icon": {"prefix": "https://ss3.4sqi.net/img/categories_v2/food/icecream_", "suffix": ".png"}, "primary": true}], "photos": {"count": 0, "groups": []}}, "referralId": "e-0-4de93e9952b1741cdb17e0cd-29"}, {"reasons": {"count": 0, "items": [{"summary": "This spot is popular", "type": "general", "reasonName": "globalInteractionReason"}]}, "venue": {"id": "4f85abf310812d9ad28b5a03", "name": "La Kritzeria", "location": {"address": "Stubbenkammerstr. 3", "lat": 52.54191870395446, "lng": 13.42452689933416, "labeledLatLngs": [{"label": "display", "lat": 52.54191870395446, "lng": 13.42452689933416}], "distance": 746, "postalCode": "10437", "cc": "DE", "city": "Berlin", "state": "Berlin", "country": "Deutschland", "formattedAddress": ["Stubbenkammerstr. 3", "10437 Berlin", "Deutschland"]}, "categories": [{"id": "4bf58dd8d48988d117951735", "name": "Candy Store", "pluralName": "Candy Stores", "shortName": "Candy Store", "icon": {"prefix": "https://ss3.4sqi.net/img/categories_v2/shops/candystore_", "suffix": ".png"}, "primary": true}], "photos": {"count": 0, "groups": []}, "venuePage": {"id": "385408856"}}, "referralId": "e-0-4f85abf310812d9ad28b5a03-30"}, {"reasons": {"count": 0, "items": [{"summary": "This spot is popular", "type": "general", "reasonName": "globalInteractionReason"}]}, "venue": {"id": "4df75be662845f605bb695d4", "name": "Victoria met Albert", "location": {"address": "Dunckerstr. 81", "crossStreet": "Helmholtzplatz", "lat": 52.54275011124199, "lng": 13.420867785230792, "labeledLatLngs": [{"label": "display", "lat": 52.54275011124199, "lng": 13.420867785230792}], "distance": 831, "postalCode": "10437", "cc": "DE", "city": "Berlin", "state": "Berlin", "country": "Deutschland", "formattedAddress": ["Dunckerstr. 81 (Helmholtzplatz)", "10437 Berlin", "Deutschland"]}, "categories": [{"id": "4bf58dd8d48988d104951735", "name": "Boutique", "pluralName": "Boutiques", "shortName": "Boutique", "icon": {"prefix": "https://ss3.4sqi.net/img/categories_v2/shops/apparel_boutique_", "suffix": ".png"}, "primary": true}], "photos": {"count": 0, "groups": []}}, "referralId": "e-0-4df75be662845f605bb695d4-31"}, {"reasons": {"count": 0, "items": [{"summary": "This spot is popular", "type": "general", "reasonName": "globalInteractionReason"}]}, "venue": {"id": "4b5aeda1f964a520b0da28e3", "name": "Signore Batistin", "location": {"address": "Stargarder Stra\u00dfe 16", "lat": 52.546101, "lng": 13.418705, "labeledLatLngs": [{"label": "display", "lat": 52.546101, "lng": 13.418705}], "distance": 788, "postalCode": "10437", "cc": "DE", "city": "Berlin", "state": "Berlin", "country": "Deutschland", "formattedAddress": ["Stargarder Stra\u00dfe 16", "10437 Berlin", "Deutschland"]}, "categories": [{"id": "4bf58dd8d48988d146941735", "name": "Deli / Bodega", "pluralName": "Delis / Bodegas", "shortName": "Deli / Bodega", "icon": {"prefix": "https://ss3.4sqi.net/img/categories_v2/food/deli_", "suffix": ".png"}, "primary": true}], "photos": {"count": 0, "groups": []}}, "referralId": "e-0-4b5aeda1f964a520b0da28e3-32"}, {"reasons": {"count": 0, "items": [{"summary": "This spot is popular", "type": "general", "reasonName": "globalInteractionReason"}]}, "venue": {"id": "4f8816e2e4b005979cf31a8d", "name": "Terra Sarda", "location": {"address": "Stahlheimer Str. 30", "lat": 52.54850421926733, "lng": 13.420380912043763, "labeledLatLngs": [{"label": "display", "lat": 52.54850421926733, "lng": 13.420380912043763}], "distance": 659, "postalCode": "10439", "cc": "DE", "city": "Berlin", "state": "Berlin", "country": "Deutschland", "formattedAddress": ["Stahlheimer Str. 30", "10439 Berlin", "Deutschland"]}, "categories": [{"id": "4bf58dd8d48988d110941735", "name": "Italian Restaurant", "pluralName": "Italian Restaurants", "shortName": "Italian", "icon": {"prefix": "https://ss3.4sqi.net/img/categories_v2/food/italian_", "suffix": ".png"}, "primary": true}], "photos": {"count": 0, "groups": []}}, "referralId": "e-0-4f8816e2e4b005979cf31a8d-33"}, {"reasons": {"count": 0, "items": [{"summary": "This spot is popular", "type": "general", "reasonName": "globalInteractionReason"}]}, "venue": {"id": "5afff400012358002cd4f92f", "name": "Kaffee.Bar", "location": {"address": "Stargarder Str. 55a", "lat": 52.54462786807113, "lng": 13.422829466378403, "labeledLatLngs": [{"label": "display", "lat": 52.54462786807113, "lng": 13.422829466378403}], "distance": 597, "postalCode": "10437", "cc": "DE", "city": "Berlin", "state": "Berlin", "country": "Deutschland", "formattedAddress": ["Stargarder Str. 55a", "10437 Berlin", "Deutschland"]}, "categories": [{"id": "4bf58dd8d48988d16d941735", "name": "Caf\u00e9", "pluralName": "Caf\u00e9s", "shortName": "Caf\u00e9", "icon": {"prefix": "https://ss3.4sqi.net/img/categories_v2/food/cafe_", "suffix": ".png"}, "primary": true}], "photos": {"count": 0, "groups": []}, "venuePage": {"id": "557962149"}}, "referralId": "e-0-5afff400012358002cd4f92f-34"}, {"reasons": {"count": 0, "items": [{"summary": "This spot is popular", "type": "general", "reasonName": "globalInteractionReason"}]}, "venue": {"id": "4b2d0448f964a52065cc24e3", "name": "Goldhahn & Sampson", "location": {"address": "Dunckerstr. 9", "lat": 52.54219963187534, "lng": 13.420430615306818, "labeledLatLngs": [{"label": "display", "lat": 52.54219963187534, "lng": 13.420430615306818}], "distance": 895, "postalCode": "10437", "cc": "DE", "city": "Berlin", "state": "Berlin", "country": "Deutschland", "formattedAddress": ["Dunckerstr. 9", "10437 Berlin", "Deutschland"]}, "categories": [{"id": "4bf58dd8d48988d1f5941735", "name": "Gourmet Shop", "pluralName": "Gourmet Shops", "shortName": "Gourmet", "icon": {"prefix": "https://ss3.4sqi.net/img/categories_v2/shops/food_gourmet_", "suffix": ".png"}, "primary": true}], "photos": {"count": 0, "groups": []}}, "referralId": "e-0-4b2d0448f964a52065cc24e3-35"}, {"reasons": {"count": 0, "items": [{"summary": "This spot is popular", "type": "general", "reasonName": "globalInteractionReason"}]}, "venue": {"id": "4f40e6a9e4b0d395c7c75c4d", "name": "BIO COMPANY", "location": {"address": "Prenzlauer Allee 180", "lat": 52.54405800456647, "lng": 13.426940233644006, "labeledLatLngs": [{"label": "display", "lat": 52.54405800456647, "lng": 13.426940233644006}], "distance": 459, "postalCode": "10405", "cc": "DE", "city": "Berlin", "state": "Berlin", "country": "Deutschland", "formattedAddress": ["Prenzlauer Allee 180", "10405 Berlin", "Deutschland"]}, "categories": [{"id": "52f2ab2ebcbc57f1066b8b45", "name": "Organic Grocery", "pluralName": "Organic Groceries", "shortName": "Organic Grocery", "icon": {"prefix": "https://ss3.4sqi.net/img/categories_v2/shops/food_grocery_", "suffix": ".png"}, "primary": true}], "photos": {"count": 0, "groups": []}, "venuePage": {"id": "472309408"}}, "referralId": "e-0-4f40e6a9e4b0d395c7c75c4d-36"}, {"reasons": {"count": 0, "items": [{"summary": "This spot is popular", "type": "general", "reasonName": "globalInteractionReason"}]}, "venue": {"id": "52ec27f3498e908a07280044", "name": "Sexauer Galerie", "location": {"address": "Streustr. 90", "lat": 52.550730519174344, "lng": 13.438995754068007, "labeledLatLngs": [{"label": "display", "lat": 52.550730519174344, "lng": 13.438995754068007}], "distance": 692, "postalCode": "13086", "cc": "DE", "city": "Berlin", "state": "Berlin", "country": "Deutschland", "formattedAddress": ["Streustr. 90", "13086 Berlin", "Deutschland"]}, "categories": [{"id": "4bf58dd8d48988d1e2931735", "name": "Art Gallery", "pluralName": "Art Galleries", "shortName": "Art Gallery", "icon": {"prefix": "https://ss3.4sqi.net/img/categories_v2/arts_entertainment/artgallery_", "suffix": ".png"}, "primary": true}], "photos": {"count": 0, "groups": []}}, "referralId": "e-0-52ec27f3498e908a07280044-37"}, {"reasons": {"count": 0, "items": [{"summary": "This spot is popular", "type": "general", "reasonName": "globalInteractionReason"}]}, "venue": {"id": "5053569be4b02204c1e360c1", "name": "BadFish", "location": {"address": "Stargarder Str. 14", "lat": 52.54668740995205, "lng": 13.417764298661544, "labeledLatLngs": [{"label": "display", "lat": 52.54668740995205, "lng": 13.417764298661544}], "distance": 838, "postalCode": "10439", "cc": "DE", "city": "Berlin", "state": "Berlin", "country": "Deutschland", "formattedAddress": ["Stargarder Str. 14", "10439 Berlin", "Deutschland"]}, "categories": [{"id": "4bf58dd8d48988d116941735", "name": "Bar", "pluralName": "Bars", "shortName": "Bar", "icon": {"prefix": "https://ss3.4sqi.net/img/categories_v2/nightlife/pub_", "suffix": ".png"}, "primary": true}], "photos": {"count": 0, "groups": []}, "venuePage": {"id": "39225621"}}, "referralId": "e-0-5053569be4b02204c1e360c1-38"}, {"reasons": {"count": 0, "items": [{"summary": "This spot is popular", "type": "general", "reasonName": "globalInteractionReason"}]}, "venue": {"id": "4b44db07f964a5204bfe25e3", "name": "Zia Maria", "location": {"address": "Pappelallee 32a", "lat": 52.54595611949305, "lng": 13.41762881944121, "labeledLatLngs": [{"label": "display", "lat": 52.54595611949305, "lng": 13.41762881944121}], "distance": 862, "postalCode": "10437", "cc": "DE", "city": "Berlin", "state": "Berlin", "country": "Deutschland", "formattedAddress": ["Pappelallee 32a", "10437 Berlin", "Deutschland"]}, "categories": [{"id": "4bf58dd8d48988d1ca941735", "name": "Pizza Place", "pluralName": "Pizza Places", "shortName": "Pizza", "icon": {"prefix": "https://ss3.4sqi.net/img/categories_v2/food/pizza_", "suffix": ".png"}, "primary": true}], "photos": {"count": 0, "groups": []}}, "referralId": "e-0-4b44db07f964a5204bfe25e3-39"}, {"reasons": {"count": 0, "items": [{"summary": "This spot is popular", "type": "general", "reasonName": "globalInteractionReason"}]}, "venue": {"id": "51f02bc1498ed5e8bd0f1672", "name": "Lecker Song", "location": {"address": "Schliemannstr. 19", "lat": 52.544249, "lng": 13.42011, "labeledLatLngs": [{"label": "display", "lat": 52.544249, "lng": 13.42011}], "distance": 775, "postalCode": "10437", "cc": "DE", "city": "Berlin", "state": "Berlin", "country": "Deutschland", "formattedAddress": ["Schliemannstr. 19", "10437 Berlin", "Deutschland"]}, "categories": [{"id": "4bf58dd8d48988d1f5931735", "name": "Dim Sum Restaurant", "pluralName": "Dim Sum Restaurants", "shortName": "Dim Sum", "icon": {"prefix": "https://ss3.4sqi.net/img/categories_v2/food/dimsum_", "suffix": ".png"}, "primary": true}], "photos": {"count": 0, "groups": []}}, "referralId": "e-0-51f02bc1498ed5e8bd0f1672-40"}, {"reasons": {"count": 0, "items": [{"summary": "This spot is popular", "type": "general", "reasonName": "globalInteractionReason"}]}, "venue": {"id": "52c4840d11d221d9ea8d6277", "name": "Trattoria Zoe", "location": {"address": "Senefelderstr. 10", "crossStreet": "Stubbenkammerstr.", "lat": 52.541842, "lng": 13.423225, "labeledLatLngs": [{"label": "display", "lat": 52.541842, "lng": 13.423225}], "distance": 801, "postalCode": "10437", "cc": "DE", "city": "Berlin", "state": "Berlin", "country": "Deutschland", "formattedAddress": ["Senefelderstr. 10 (Stubbenkammerstr.)", "10437 Berlin", "Deutschland"]}, "categories": [{"id": "55a5a1ebe4b013909087cb7f", "name": "Trattoria/Osteria", "pluralName": "Trattorias/Osterias", "shortName": "Trattoria/Osteria", "icon": {"prefix": "https://ss3.4sqi.net/img/categories_v2/food/italian_", "suffix": ".png"}, "primary": true}], "photos": {"count": 0, "groups": []}}, "referralId": "e-0-52c4840d11d221d9ea8d6277-41"}, {"reasons": {"count": 0, "items": [{"summary": "This spot is popular", "type": "general", "reasonName": "globalInteractionReason"}]}, "venue": {"id": "4adcda79f964a5208c4621e3", "name": "Wohnzimmer", "location": {"address": "Lettestr. 6", "crossStreet": "Schliemannstr.", "lat": 52.543396390064636, "lng": 13.419287620066626, "labeledLatLngs": [{"label": "display", "lat": 52.543396390064636, "lng": 13.419287620066626}], "distance": 872, "postalCode": "10437", "cc": "DE", "city": "Berlin", "state": "Berlin", "country": "Deutschland", "formattedAddress": ["Lettestr. 6 (Schliemannstr.)", "10437 Berlin", "Deutschland"]}, "categories": [{"id": "4bf58dd8d48988d16d941735", "name": "Caf\u00e9", "pluralName": "Caf\u00e9s", "shortName": "Caf\u00e9", "icon": {"prefix": "https://ss3.4sqi.net/img/categories_v2/food/cafe_", "suffix": ".png"}, "primary": true}], "photos": {"count": 0, "groups": []}}, "referralId": "e-0-4adcda79f964a5208c4621e3-42"}, {"reasons": {"count": 0, "items": [{"summary": "This spot is popular", "type": "general", "reasonName": "globalInteractionReason"}]}, "venue": {"id": "551c0ed3498ebbde1a11c2a3", "name": "Caf\u00e9 Borntr\u00e4ger", "location": {"address": "Humannplatz", "crossStreet": "Wichertstr.", "lat": 52.54897260980405, "lng": 13.421077166519558, "labeledLatLngs": [{"label": "display", "lat": 52.54897260980405, "lng": 13.421077166519558}], "distance": 622, "cc": "DE", "city": "Berlin", "state": "Berlin", "country": "Deutschland", "formattedAddress": ["Humannplatz (Wichertstr.)", "Berlin", "Deutschland"]}, "categories": [{"id": "4bf58dd8d48988d16d941735", "name": "Caf\u00e9", "pluralName": "Caf\u00e9s", "shortName": "Caf\u00e9", "icon": {"prefix": "https://ss3.4sqi.net/img/categories_v2/food/cafe_", "suffix": ".png"}, "primary": true}], "photos": {"count": 0, "groups": []}}, "referralId": "e-0-551c0ed3498ebbde1a11c2a3-43"}, {"reasons": {"count": 0, "items": [{"summary": "This spot is popular", "type": "general", "reasonName": "globalInteractionReason"}]}, "venue": {"id": "4fd756c4e4b0269cfe9602b3", "name": "Aquaphine", "location": {"address": "Erich-Weinert-Str. 145", "crossStreet": "Greifswalder Str.", "lat": 52.544432935562305, "lng": 13.441053628921507, "labeledLatLngs": [{"label": "display", "lat": 52.544432935562305, "lng": 13.441053628921507}], "distance": 831, "postalCode": "10409", "cc": "DE", "neighborhood": "Greifswalder Stra\u00dfe-Nord", "city": "Berlin", "state": "Berlin", "country": "Deutschland", "formattedAddress": ["Erich-Weinert-Str. 145 (Greifswalder Str.)", "10409 Berlin", "Deutschland"]}, "categories": [{"id": "4bf58dd8d48988d15e941735", "name": "Pool", "pluralName": "Pools", "shortName": "Pool", "icon": {"prefix": "https://ss3.4sqi.net/img/categories_v2/parks_outdoors/pool_", "suffix": ".png"}, "primary": true}], "photos": {"count": 0, "groups": []}}, "referralId": "e-0-4fd756c4e4b0269cfe9602b3-44"}, {"reasons": {"count": 0, "items": [{"summary": "This spot is popular", "type": "general", "reasonName": "globalInteractionReason"}]}, "venue": {"id": "4e22dd50091a49c13e12852b", "name": "Misirlou Bar", "location": {"address": "Dunckerstr. 10", "crossStreet": "Helmholtzplatz", "lat": 52.54240865670678, "lng": 13.420687500355816, "labeledLatLngs": [{"label": "display", "lat": 52.54240865670678, "lng": 13.420687500355816}], "distance": 866, "postalCode": "10437", "cc": "DE", "city": "Berlin", "state": "Berlin", "country": "Deutschland", "formattedAddress": ["Dunckerstr. 10 (Helmholtzplatz)", "10437 Berlin", "Deutschland"]}, "categories": [{"id": "4bf58dd8d48988d116941735", "name": "Bar", "pluralName": "Bars", "shortName": "Bar", "icon": {"prefix": "https://ss3.4sqi.net/img/categories_v2/nightlife/pub_", "suffix": ".png"}, "primary": true}], "photos": {"count": 0, "groups": []}, "venuePage": {"id": "50600539"}}, "referralId": "e-0-4e22dd50091a49c13e12852b-45"}, {"reasons": {"count": 0, "items": [{"summary": "This spot is popular", "type": "general", "reasonName": "globalInteractionReason"}]}, "venue": {"id": "581e616a4e1d9a19240c9591", "name": "h\u00f6schen", "location": {"address": "Dunckerstr. 9", "crossStreet": "Helmholtzplatz", "lat": 52.542260157110334, "lng": 13.420776128768921, "labeledLatLngs": [{"label": "display", "lat": 52.542260157110334, "lng": 13.420776128768921}], "distance": 873, "postalCode": "10437", "cc": "DE", "neighborhood": "Helmholtzkiez", "city": "Berlin", "state": "Berlin", "country": "Deutschland", "formattedAddress": ["Dunckerstr. 9 (Helmholtzplatz)", "10437 Berlin", "Deutschland"]}, "categories": [{"id": "4bf58dd8d48988d116941735", "name": "Bar", "pluralName": "Bars", "shortName": "Bar", "icon": {"prefix": "https://ss3.4sqi.net/img/categories_v2/nightlife/pub_", "suffix": ".png"}, "primary": true}], "photos": {"count": 0, "groups": []}}, "referralId": "e-0-581e616a4e1d9a19240c9591-46"}, {"reasons": {"count": 0, "items": [{"summary": "This spot is popular", "type": "general", "reasonName": "globalInteractionReason"}]}, "venue": {"id": "5454eda7498ee281f036eddf", "name": "Pastificio Tosatti", "location": {"address": "Schliemannstr. 14a", "lat": 52.5435, "lng": 13.419621, "labeledLatLngs": [{"label": "display", "lat": 52.5435, "lng": 13.419621}], "distance": 847, "postalCode": "10437", "cc": "DE", "neighborhood": "Helmholtzkiez", "city": "Berlin", "state": "Berlin", "country": "Deutschland", "formattedAddress": ["Schliemannstr. 14a", "10437 Berlin", "Deutschland"]}, "categories": [{"id": "4bf58dd8d48988d110941735", "name": "Italian Restaurant", "pluralName": "Italian Restaurants", "shortName": "Italian", "icon": {"prefix": "https://ss3.4sqi.net/img/categories_v2/food/italian_", "suffix": ".png"}, "primary": true}], "photos": {"count": 0, "groups": []}}, "referralId": "e-0-5454eda7498ee281f036eddf-47"}, {"reasons": {"count": 0, "items": [{"summary": "This spot is popular", "type": "general", "reasonName": "globalInteractionReason"}]}, "venue": {"id": "4b0cafcbf964a520ff4023e3", "name": "Wok Show", "location": {"address": "Greifenhagener Str. 31", "crossStreet": "Kuglerstr.", "lat": 52.55205548775524, "lng": 13.419139854919306, "labeledLatLngs": [{"label": "display", "lat": 52.55205548775524, "lng": 13.419139854919306}], "distance": 881, "postalCode": "10437", "cc": "DE", "neighborhood": "Prenzlauer Berg", "city": "Berlin", "state": "Berlin", "country": "Deutschland", "formattedAddress": ["Greifenhagener Str. 31 (Kuglerstr.)", "10437 Berlin", "Deutschland"]}, "categories": [{"id": "4bf58dd8d48988d1f5931735", "name": "Dim Sum Restaurant", "pluralName": "Dim Sum Restaurants", "shortName": "Dim Sum", "icon": {"prefix": "https://ss3.4sqi.net/img/categories_v2/food/dimsum_", "suffix": ".png"}, "primary": true}], "photos": {"count": 0, "groups": []}}, "referralId": "e-0-4b0cafcbf964a520ff4023e3-48"}, {"reasons": {"count": 0, "items": [{"summary": "This spot is popular", "type": "general", "reasonName": "globalInteractionReason"}]}, "venue": {"id": "4c0f386d336220a14a84cd77", "name": "Humannplatz", "location": {"address": "Stahlheimer Str.", "crossStreet": "Wichertstr.", "lat": 52.54910110924915, "lng": 13.422203063964844, "labeledLatLngs": [{"label": "display", "lat": 52.54910110924915, "lng": 13.422203063964844}], "distance": 551, "postalCode": "10439", "cc": "DE", "city": "Berlin", "state": "Berlin", "country": "Deutschland", "formattedAddress": ["Stahlheimer Str. (Wichertstr.)", "10439 Berlin", "Deutschland"]}, "categories": [{"id": "4bf58dd8d48988d163941735", "name": "Park", "pluralName": "Parks", "shortName": "Park", "icon": {"prefix": "https://ss3.4sqi.net/img/categories_v2/parks_outdoors/park_", "suffix": ".png"}, "primary": true}], "photos": {"count": 0, "groups": []}}, "referralId": "e-0-4c0f386d336220a14a84cd77-49"}, {"reasons": {"count": 0, "items": [{"summary": "This spot is popular", "type": "general", "reasonName": "globalInteractionReason"}]}, "venue": {"id": "518b8132498e7ebebf79690e", "name": "h\u00e4ppies", "location": {"address": "Dunckerstr. 85", "lat": 52.541465603578764, "lng": 13.419871504217673, "labeledLatLngs": [{"label": "display", "lat": 52.541465603578764, "lng": 13.419871504217673}], "distance": 979, "postalCode": "10437", "cc": "DE", "city": "Berlin", "state": "Berlin", "country": "Deutschland", "formattedAddress": ["Dunckerstr. 85", "10437 Berlin", "Deutschland"]}, "categories": [{"id": "4bf58dd8d48988d108941735", "name": "Dumpling Restaurant", "pluralName": "Dumpling Restaurants", "shortName": "Dumplings", "icon": {"prefix": "https://ss3.4sqi.net/img/categories_v2/food/dumplings_", "suffix": ".png"}, "primary": true}], "photos": {"count": 0, "groups": []}}, "referralId": "e-0-518b8132498e7ebebf79690e-50"}, {"reasons": {"count": 0, "items": [{"summary": "This spot is popular", "type": "general", "reasonName": "globalInteractionReason"}]}, "venue": {"id": "4e132d3252b1655efa5510b6", "name": "Eis und Hei\u00df", "location": {"address": "Naugarder Str. 16", "lat": 52.54495916845176, "lng": 13.437258252028085, "labeledLatLngs": [{"label": "display", "lat": 52.54495916845176, "lng": 13.437258252028085}], "distance": 577, "postalCode": "10409", "cc": "DE", "city": "Berlin", "state": "Berlin", "country": "Deutschland", "formattedAddress": ["Naugarder Str. 16", "10409 Berlin", "Deutschland"]}, "categories": [{"id": "4bf58dd8d48988d1c9941735", "name": "Ice Cream Shop", "pluralName": "Ice Cream Shops", "shortName": "Ice Cream", "icon": {"prefix": "https://ss3.4sqi.net/img/categories_v2/food/icecream_", "suffix": ".png"}, "primary": true}], "photos": {"count": 0, "groups": []}}, "referralId": "e-0-4e132d3252b1655efa5510b6-51"}, {"reasons": {"count": 0, "items": [{"summary": "This spot is popular", "type": "general", "reasonName": "globalInteractionReason"}]}, "venue": {"id": "4af5fd2ef964a520dbff21e3", "name": "Becketts Kopf", "location": {"address": "Pappelallee 64", "lat": 52.54548368774649, "lng": 13.417096063531707, "labeledLatLngs": [{"label": "display", "lat": 52.54548368774649, "lng": 13.417096063531707}], "distance": 910, "postalCode": "10437", "cc": "DE", "city": "Berlin", "state": "Berlin", "country": "Deutschland", "formattedAddress": ["Pappelallee 64", "10437 Berlin", "Deutschland"]}, "categories": [{"id": "4bf58dd8d48988d11e941735", "name": "Cocktail Bar", "pluralName": "Cocktail Bars", "shortName": "Cocktail", "icon": {"prefix": "https://ss3.4sqi.net/img/categories_v2/nightlife/cocktails_", "suffix": ".png"}, "primary": true}], "photos": {"count": 0, "groups": []}}, "referralId": "e-0-4af5fd2ef964a520dbff21e3-52"}, {"reasons": {"count": 0, "items": [{"summary": "This spot is popular", "type": "general", "reasonName": "globalInteractionReason"}]}, "venue": {"id": "4aeaa27ff964a520fbbb21e3", "name": "Caf\u00e9 Liebling", "location": {"address": "Raumerstr. 36a", "crossStreet": "Dunckerstr.", "lat": 52.54209866252614, "lng": 13.420647382736206, "labeledLatLngs": [{"label": "display", "lat": 52.54209866252614, "lng": 13.420647382736206}], "distance": 892, "postalCode": "10437", "cc": "DE", "city": "Berlin", "state": "Berlin", "country": "Deutschland", "formattedAddress": ["Raumerstr. 36a (Dunckerstr.)", "10437 Berlin", "Deutschland"]}, "categories": [{"id": "4bf58dd8d48988d16d941735", "name": "Caf\u00e9", "pluralName": "Caf\u00e9s", "shortName": "Caf\u00e9", "icon": {"prefix": "https://ss3.4sqi.net/img/categories_v2/food/cafe_", "suffix": ".png"}, "primary": true}], "photos": {"count": 0, "groups": []}, "venuePage": {"id": "528631201"}}, "referralId": "e-0-4aeaa27ff964a520fbbb21e3-53"}, {"reasons": {"count": 0, "items": [{"summary": "This spot is popular", "type": "general", "reasonName": "globalInteractionReason"}]}, "venue": {"id": "5471f736498ea09f2bcf22bb", "name": "Liquid Garden", "location": {"address": "Stargarder Str. 72", "lat": 52.54680914983472, "lng": 13.41750318547853, "labeledLatLngs": [{"label": "display", "lat": 52.54680914983472, "lng": 13.41750318547853}], "distance": 854, "postalCode": "10437", "cc": "DE", "city": "Berlin", "state": "Berlin", "country": "Deutschland", "formattedAddress": ["Stargarder Str. 72", "10437 Berlin", "Deutschland"]}, "categories": [{"id": "4bf58dd8d48988d112941735", "name": "Juice Bar", "pluralName": "Juice Bars", "shortName": "Juice Bar", "icon": {"prefix": "https://ss3.4sqi.net/img/categories_v2/food/juicebar_", "suffix": ".png"}, "primary": true}], "photos": {"count": 0, "groups": []}}, "referralId": "e-0-5471f736498ea09f2bcf22bb-54"}, {"reasons": {"count": 0, "items": [{"summary": "This spot is popular", "type": "general", "reasonName": "globalInteractionReason"}]}, "venue": {"id": "4b7688a4f964a520d9502ee3", "name": "Black Dog Comics", "location": {"address": "Rodenbergstr.", "crossStreet": "Sch\u00f6nhauser Allee", "lat": 52.5506137, "lng": 13.4178893, "labeledLatLngs": [{"label": "display", "lat": 52.5506137, "lng": 13.4178893}], "distance": 882, "postalCode": "10439", "cc": "DE", "neighborhood": "Sch\u00f6nhauser Allee-Nord", "city": "Berlin", "state": "Berlin", "country": "Deutschland", "formattedAddress": ["Rodenbergstr. (Sch\u00f6nhauser Allee)", "10439 Berlin", "Deutschland"]}, "categories": [{"id": "52f2ab2ebcbc57f1066b8b18", "name": "Comic Shop", "pluralName": "Comic Shops", "shortName": "Comic Shop", "icon": {"prefix": "https://ss3.4sqi.net/img/categories_v2/shops/comic_", "suffix": ".png"}, "primary": true}], "photos": {"count": 0, "groups": []}, "venuePage": {"id": "128372000"}}, "referralId": "e-0-4b7688a4f964a520d9502ee3-55"}, {"reasons": {"count": 0, "items": [{"summary": "This spot is popular", "type": "general", "reasonName": "globalInteractionReason"}]}, "venue": {"id": "5527c483498ea157a1b1a740", "name": "Friedl R\u00f6sterei & Kekse", "location": {"address": "Pappelallee 35", "lat": 52.546363202401665, "lng": 13.418019888019916, "labeledLatLngs": [{"label": "display", "lat": 52.546363202401665, "lng": 13.418019888019916}], "distance": 827, "postalCode": "10437", "cc": "DE", "city": "Berlin", "state": "Berlin", "country": "Deutschland", "formattedAddress": ["Pappelallee 35", "10437 Berlin", "Deutschland"]}, "categories": [{"id": "4bf58dd8d48988d16a941735", "name": "Bakery", "pluralName": "Bakeries", "shortName": "Bakery", "icon": {"prefix": "https://ss3.4sqi.net/img/categories_v2/food/bakery_", "suffix": ".png"}, "primary": true}], "photos": {"count": 0, "groups": []}}, "referralId": "e-0-5527c483498ea157a1b1a740-56"}, {"reasons": {"count": 0, "items": [{"summary": "This spot is popular", "type": "general", "reasonName": "globalInteractionReason"}]}, "venue": {"id": "4afdbfd8f964a520872a22e3", "name": "Sasaya", "location": {"address": "Lychener Str. 50", "lat": 52.544309738166525, "lng": 13.418225103137415, "labeledLatLngs": [{"label": "display", "lat": 52.544309738166525, "lng": 13.418225103137415}], "distance": 885, "postalCode": "10437", "cc": "DE", "city": "Berlin", "state": "Berlin", "country": "Deutschland", "formattedAddress": ["Lychener Str. 50", "10437 Berlin", "Deutschland"]}, "categories": [{"id": "4bf58dd8d48988d111941735", "name": "Japanese Restaurant", "pluralName": "Japanese Restaurants", "shortName": "Japanese", "icon": {"prefix": "https://ss3.4sqi.net/img/categories_v2/food/japanese_", "suffix": ".png"}, "primary": true}], "photos": {"count": 0, "groups": []}}, "referralId": "e-0-4afdbfd8f964a520872a22e3-57"}, {"reasons": {"count": 0, "items": [{"summary": "This spot is popular", "type": "general", "reasonName": "globalInteractionReason"}]}, "venue": {"id": "4bbee72cf353d13ae8d67d10", "name": "Hacker B\u00e4ckerei Konditorei", "location": {"address": "Stargarder Str. 69 - 70", "lat": 52.5463436498829, "lng": 13.41864838447845, "labeledLatLngs": [{"label": "display", "lat": 52.5463436498829, "lng": 13.41864838447845}], "distance": 786, "postalCode": "10437", "cc": "DE", "city": "Berlin", "state": "Berlin", "country": "Deutschland", "formattedAddress": ["Stargarder Str. 69 - 70", "10437 Berlin", "Deutschland"]}, "categories": [{"id": "4bf58dd8d48988d16a941735", "name": "Bakery", "pluralName": "Bakeries", "shortName": "Bakery", "icon": {"prefix": "https://ss3.4sqi.net/img/categories_v2/food/bakery_", "suffix": ".png"}, "primary": true}], "photos": {"count": 0, "groups": []}}, "referralId": "e-0-4bbee72cf353d13ae8d67d10-58"}, {"reasons": {"count": 0, "items": [{"summary": "This spot is popular", "type": "general", "reasonName": "globalInteractionReason"}]}, "venue": {"id": "535cffd7498e40a294172ad0", "name": "Schneiderei", "location": {"address": "Kuglerstr. 31", "lat": 52.55214401770024, "lng": 13.419189436197248, "labeledLatLngs": [{"label": "display", "lat": 52.55214401770024, "lng": 13.419189436197248}], "distance": 883, "postalCode": "10439", "cc": "DE", "city": "Berlin", "state": "Berlin", "country": "Deutschland", "formattedAddress": ["Kuglerstr. 31", "10439 Berlin", "Deutschland"]}, "categories": [{"id": "4bf58dd8d48988d16d941735", "name": "Caf\u00e9", "pluralName": "Caf\u00e9s", "shortName": "Caf\u00e9", "icon": {"prefix": "https://ss3.4sqi.net/img/categories_v2/food/cafe_", "suffix": ".png"}, "primary": true}], "photos": {"count": 0, "groups": []}}, "referralId": "e-0-535cffd7498e40a294172ad0-59"}, {"reasons": {"count": 0, "items": [{"summary": "This spot is popular", "type": "general", "reasonName": "globalInteractionReason"}]}, "venue": {"id": "4afeae88f964a520ea2f22e3", "name": "Cr\u00eapestation", "location": {"address": "Pappelallee 58", "lat": 52.546305484696795, "lng": 13.417988469785616, "labeledLatLngs": [{"label": "display", "lat": 52.546305484696795, "lng": 13.417988469785616}], "distance": 830, "postalCode": "10437", "cc": "DE", "city": "Berlin", "state": "Berlin", "country": "Deutschland", "formattedAddress": ["Pappelallee 58", "10437 Berlin", "Deutschland"]}, "categories": [{"id": "52e81612bcbc57f1066b79f2", "name": "Creperie", "pluralName": "Creperies", "shortName": "Creperie", "icon": {"prefix": "https://ss3.4sqi.net/img/categories_v2/food/creperie_", "suffix": ".png"}, "primary": true}], "photos": {"count": 0, "groups": []}}, "referralId": "e-0-4afeae88f964a520ea2f22e3-60"}, {"reasons": {"count": 0, "items": [{"summary": "This spot is popular", "type": "general", "reasonName": "globalInteractionReason"}]}, "venue": {"id": "560984da498e263b8162eb13", "name": "Blackbeards", "location": {"address": "Pappelallee 55", "lat": 52.546853, "lng": 13.418332, "labeledLatLngs": [{"label": "display", "lat": 52.546853, "lng": 13.418332}], "distance": 798, "postalCode": "10437", "cc": "DE", "city": "Berlin", "state": "Berlin", "country": "Deutschland", "formattedAddress": ["Pappelallee 55", "10437 Berlin", "Deutschland"]}, "categories": [{"id": "4bf58dd8d48988d16c941735", "name": "Burger Joint", "pluralName": "Burger Joints", "shortName": "Burgers", "icon": {"prefix": "https://ss3.4sqi.net/img/categories_v2/food/burger_", "suffix": ".png"}, "primary": true}], "photos": {"count": 0, "groups": []}}, "referralId": "e-0-560984da498e263b8162eb13-61"}, {"reasons": {"count": 0, "items": [{"summary": "This spot is popular", "type": "general", "reasonName": "globalInteractionReason"}]}, "venue": {"id": "4b48b718f964a520df5326e3", "name": "1001 Falafel", "location": {"address": "Stargarder Str. 73", "lat": 52.546882066477124, "lng": 13.4173126972072, "labeledLatLngs": [{"label": "display", "lat": 52.546882066477124, "lng": 13.4173126972072}], "distance": 866, "cc": "DE", "city": "Berlin", "state": "Berlin", "country": "Deutschland", "formattedAddress": ["Stargarder Str. 73", "Berlin", "Deutschland"]}, "categories": [{"id": "4bf58dd8d48988d10b941735", "name": "Falafel Restaurant", "pluralName": "Falafel Restaurants", "shortName": "Falafel", "icon": {"prefix": "https://ss3.4sqi.net/img/categories_v2/food/falafel_", "suffix": ".png"}, "primary": true}], "photos": {"count": 0, "groups": []}}, "referralId": "e-0-4b48b718f964a520df5326e3-62"}, {"reasons": {"count": 0, "items": [{"summary": "This spot is popular", "type": "general", "reasonName": "globalInteractionReason"}]}, "venue": {"id": "4adcda7ef964a520db4721e3", "name": "Helmholtzplatz", "location": {"address": "Raumerstr.", "crossStreet": "Lychener Str.", "lat": 52.54308556459545, "lng": 13.418769836425781, "labeledLatLngs": [{"label": "display", "lat": 52.54308556459545, "lng": 13.418769836425781}], "distance": 921, "postalCode": "10437", "cc": "DE", "city": "Berlin", "state": "Berlin", "country": "Deutschland", "formattedAddress": ["Raumerstr. (Lychener Str.)", "10437 Berlin", "Deutschland"]}, "categories": [{"id": "4bf58dd8d48988d164941735", "name": "Plaza", "pluralName": "Plazas", "shortName": "Plaza", "icon": {"prefix": "https://ss3.4sqi.net/img/categories_v2/parks_outdoors/plaza_", "suffix": ".png"}, "primary": true}], "photos": {"count": 0, "groups": []}}, "referralId": "e-0-4adcda7ef964a520db4721e3-63"}, {"reasons": {"count": 0, "items": [{"summary": "This spot is popular", "type": "general", "reasonName": "globalInteractionReason"}]}, "venue": {"id": "4b11a46df964a520328123e3", "name": "Die Bar", "location": {"address": "Greifenhagener Str. 54", "lat": 52.547833, "lng": 13.415339, "labeledLatLngs": [{"label": "display", "lat": 52.547833, "lng": 13.415339}], "distance": 994, "postalCode": "10437", "cc": "DE", "city": "Berlin", "state": "Berlin", "country": "Deutschland", "formattedAddress": ["Greifenhagener Str. 54", "10437 Berlin", "Deutschland"]}, "categories": [{"id": "4bf58dd8d48988d11e941735", "name": "Cocktail Bar", "pluralName": "Cocktail Bars", "shortName": "Cocktail", "icon": {"prefix": "https://ss3.4sqi.net/img/categories_v2/nightlife/cocktails_", "suffix": ".png"}, "primary": true}], "photos": {"count": 0, "groups": []}}, "referralId": "e-0-4b11a46df964a520328123e3-64"}, {"reasons": {"count": 0, "items": [{"summary": "This spot is popular", "type": "general", "reasonName": "globalInteractionReason"}]}, "venue": {"id": "4b3c9883f964a5206b8525e3", "name": "Al Hamra", "location": {"address": "Raumerstr. 16", "lat": 52.54178686339695, "lng": 13.42126218085173, "labeledLatLngs": [{"label": "display", "lat": 52.54178686339695, "lng": 13.42126218085173}], "distance": 888, "postalCode": "10437", "cc": "DE", "city": "Berlin", "state": "Berlin", "country": "Deutschland", "formattedAddress": ["Raumerstr. 16", "10437 Berlin", "Deutschland"]}, "categories": [{"id": "4bf58dd8d48988d115941735", "name": "Middle Eastern Restaurant", "pluralName": "Middle Eastern Restaurants", "shortName": "Middle Eastern", "icon": {"prefix": "https://ss3.4sqi.net/img/categories_v2/food/middleeastern_", "suffix": ".png"}, "primary": true}], "photos": {"count": 0, "groups": []}, "venuePage": {"id": "146792028"}}, "referralId": "e-0-4b3c9883f964a5206b8525e3-65"}, {"reasons": {"count": 0, "items": [{"summary": "This spot is popular", "type": "general", "reasonName": "globalInteractionReason"}]}, "venue": {"id": "4f81d25ee4b0bf6ccaccc801", "name": "Thai Aroma", "location": {"address": "Dunkerstrasse 18", "crossStreet": "Stargarder Str. oder Raumerstr", "lat": 52.54357587893825, "lng": 13.42169108903656, "labeledLatLngs": [{"label": "display", "lat": 52.54357587893825, "lng": 13.42169108903656}], "distance": 729, "postalCode": "10437", "cc": "DE", "neighborhood": "Helmholtzkiez, Berlin", "city": "Berlin", "state": "Berlin", "country": "Deutschland", "formattedAddress": ["Dunkerstrasse 18 (Stargarder Str. oder Raumerstr)", "10437 Berlin", "Deutschland"]}, "categories": [{"id": "4bf58dd8d48988d149941735", "name": "Thai Restaurant", "pluralName": "Thai Restaurants", "shortName": "Thai", "icon": {"prefix": "https://ss3.4sqi.net/img/categories_v2/food/thai_", "suffix": ".png"}, "primary": true}], "photos": {"count": 0, "groups": []}}, "referralId": "e-0-4f81d25ee4b0bf6ccaccc801-66"}, {"reasons": {"count": 0, "items": [{"summary": "This spot is popular", "type": "general", "reasonName": "globalInteractionReason"}]}, "venue": {"id": "4b4a2959f964a520e37c26e3", "name": "'A Magica", "location": {"address": "Greifenhagener Str. 54", "lat": 52.547985, "lng": 13.415465, "labeledLatLngs": [{"label": "display", "lat": 52.547985, "lng": 13.415465}], "distance": 986, "postalCode": "10437", "cc": "DE", "city": "Berlin", "state": "Berlin", "country": "Deutschland", "formattedAddress": ["Greifenhagener Str. 54", "10437 Berlin", "Deutschland"]}, "categories": [{"id": "4bf58dd8d48988d1ca941735", "name": "Pizza Place", "pluralName": "Pizza Places", "shortName": "Pizza", "icon": {"prefix": "https://ss3.4sqi.net/img/categories_v2/food/pizza_", "suffix": ".png"}, "primary": true}], "photos": {"count": 0, "groups": []}}, "referralId": "e-0-4b4a2959f964a520e37c26e3-67"}, {"reasons": {"count": 0, "items": [{"summary": "This spot is popular", "type": "general", "reasonName": "globalInteractionReason"}]}, "venue": {"id": "5a984687c0cacb5d67359a74", "name": "Caravaggi", "location": {"address": "Lettestra\u00dfe 3", "lat": 52.542869, "lng": 13.420122, "labeledLatLngs": [{"label": "display", "lat": 52.542869, "lng": 13.420122}], "distance": 861, "postalCode": "10437", "cc": "DE", "city": "Berlin", "state": "Berlin", "country": "Deutschland", "formattedAddress": ["Lettestra\u00dfe 3", "10437 Berlin", "Deutschland"]}, "categories": [{"id": "4bf58dd8d48988d110941735", "name": "Italian Restaurant", "pluralName": "Italian Restaurants", "shortName": "Italian", "icon": {"prefix": "https://ss3.4sqi.net/img/categories_v2/food/italian_", "suffix": ".png"}, "primary": true}], "photos": {"count": 0, "groups": []}}, "referralId": "e-0-5a984687c0cacb5d67359a74-68"}, {"reasons": {"count": 0, "items": [{"summary": "This spot is popular", "type": "general", "reasonName": "globalInteractionReason"}]}, "venue": {"id": "596227ec625a6632c606caef", "name": "Cookies & Co.", "location": {"address": "Senefelderstra\u00dfe 4", "lat": 52.540323, "lng": 13.422044, "labeledLatLngs": [{"label": "display", "lat": 52.540323, "lng": 13.422044}], "distance": 985, "postalCode": "10437", "cc": "DE", "city": "Berlin", "state": "Berlin", "country": "Deutschland", "formattedAddress": ["Senefelderstra\u00dfe 4", "10437 Berlin", "Deutschland"]}, "categories": [{"id": "4bf58dd8d48988d16d941735", "name": "Caf\u00e9", "pluralName": "Caf\u00e9s", "shortName": "Caf\u00e9", "icon": {"prefix": "https://ss3.4sqi.net/img/categories_v2/food/cafe_", "suffix": ".png"}, "primary": true}], "photos": {"count": 0, "groups": []}}, "referralId": "e-0-596227ec625a6632c606caef-69"}, {"reasons": {"count": 0, "items": [{"summary": "This spot is popular", "type": "general", "reasonName": "globalInteractionReason"}]}, "venue": {"id": "501184c8e4b0c3d590714f74", "name": "kalaa yoga", "location": {"address": "Lychener Stra\u00dfe 47", "lat": 52.54453418887381, "lng": 13.417488524190679, "labeledLatLngs": [{"label": "display", "lat": 52.54453418887381, "lng": 13.417488524190679}], "distance": 920, "postalCode": "Berlin", "cc": "DE", "city": "10437", "state": "Berlin", "country": "Deutschland", "formattedAddress": ["Lychener Stra\u00dfe 47", "Berlin 10437", "Deutschland"]}, "categories": [{"id": "4bf58dd8d48988d102941735", "name": "Yoga Studio", "pluralName": "Yoga Studios", "shortName": "Yoga Studio", "icon": {"prefix": "https://ss3.4sqi.net/img/categories_v2/shops/gym_yogastudio_", "suffix": ".png"}, "primary": true}], "photos": {"count": 0, "groups": []}}, "referralId": "e-0-501184c8e4b0c3d590714f74-70"}, {"reasons": {"count": 0, "items": [{"summary": "This spot is popular", "type": "general", "reasonName": "globalInteractionReason"}]}, "venue": {"id": "4adcda8df964a520784a21e3", "name": "Ausland", "location": {"address": "Lychener Str. 60", "lat": 52.54486043741404, "lng": 13.419425280749445, "labeledLatLngs": [{"label": "display", "lat": 52.54486043741404, "lng": 13.419425280749445}], "distance": 785, "postalCode": "10437", "cc": "DE", "city": "Berlin", "state": "Berlin", "country": "Deutschland", "formattedAddress": ["Lychener Str. 60", "10437 Berlin", "Deutschland"]}, "categories": [{"id": "4bf58dd8d48988d1e5931735", "name": "Music Venue", "pluralName": "Music Venues", "shortName": "Music Venue", "icon": {"prefix": "https://ss3.4sqi.net/img/categories_v2/arts_entertainment/musicvenue_", "suffix": ".png"}, "primary": true}], "photos": {"count": 0, "groups": []}}, "referralId": "e-0-4adcda8df964a520784a21e3-71"}, {"reasons": {"count": 0, "items": [{"summary": "This spot is popular", "type": "general", "reasonName": "globalInteractionReason"}]}, "venue": {"id": "4f7c6674e4b076d3e797c674", "name": "BUCHBOX!", "location": {"address": "Lettestr. 5", "lat": 52.54330665081859, "lng": 13.419347069075506, "labeledLatLngs": [{"label": "display", "lat": 52.54330665081859, "lng": 13.419347069075506}], "distance": 875, "postalCode": "10437", "cc": "DE", "city": "Berlin", "state": "Berlin", "country": "Deutschland", "formattedAddress": ["Lettestr. 5", "10437 Berlin", "Deutschland"]}, "categories": [{"id": "4bf58dd8d48988d114951735", "name": "Bookstore", "pluralName": "Bookstores", "shortName": "Bookstore", "icon": {"prefix": "https://ss3.4sqi.net/img/categories_v2/shops/bookstore_", "suffix": ".png"}, "primary": true}], "photos": {"count": 0, "groups": []}}, "referralId": "e-0-4f7c6674e4b076d3e797c674-72"}, {"reasons": {"count": 0, "items": [{"summary": "This spot is popular", "type": "general", "reasonName": "globalInteractionReason"}]}, "venue": {"id": "518667b5498e8e931c3c1394", "name": "Goldschmied Schmuck Schmiede", "location": {"address": "Raumerstr. 32", "lat": 52.54172420112961, "lng": 13.422179776562032, "labeledLatLngs": [{"label": "display", "lat": 52.54172420112961, "lng": 13.422179776562032}], "distance": 854, "postalCode": "10437", "cc": "DE", "city": "Berlin", "state": "Berlin", "country": "Deutschland", "formattedAddress": ["Raumerstr. 32", "10437 Berlin", "Deutschland"]}, "categories": [{"id": "4bf58dd8d48988d111951735", "name": "Jewelry Store", "pluralName": "Jewelry Stores", "shortName": "Jewelry", "icon": {"prefix": "https://ss3.4sqi.net/img/categories_v2/shops/jewelry_", "suffix": ".png"}, "primary": true}], "photos": {"count": 0, "groups": []}, "venuePage": {"id": "77383161"}}, "referralId": "e-0-518667b5498e8e931c3c1394-73"}, {"reasons": {"count": 0, "items": [{"summary": "This spot is popular", "type": "general", "reasonName": "globalInteractionReason"}]}, "venue": {"id": "597dd59a9ba3e566d4db8e87", "name": "Caf\u00e9 It's Love", "location": {"address": "Pappelallee 36", "lat": 52.546823, "lng": 13.418452, "labeledLatLngs": [{"label": "display", "lat": 52.546823, "lng": 13.418452}], "distance": 790, "postalCode": "10437", "cc": "DE", "city": "Berlin", "state": "Berlin", "country": "Deutschland", "formattedAddress": ["Pappelallee 36", "10437 Berlin", "Deutschland"]}, "categories": [{"id": "4bf58dd8d48988d1e0931735", "name": "Coffee Shop", "pluralName": "Coffee Shops", "shortName": "Coffee Shop", "icon": {"prefix": "https://ss3.4sqi.net/img/categories_v2/food/coffeeshop_", "suffix": ".png"}, "primary": true}], "photos": {"count": 0, "groups": []}}, "referralId": "e-0-597dd59a9ba3e566d4db8e87-74"}, {"reasons": {"count": 0, "items": [{"summary": "This spot is popular", "type": "general", "reasonName": "globalInteractionReason"}]}, "venue": {"id": "508afe06e4b032cef1b7e2a9", "name": "Atopia", "location": {"address": "Prenzlauer Allee 187", "lat": 52.541599149172995, "lng": 13.425483087362789, "labeledLatLngs": [{"label": "display", "lat": 52.541599149172995, "lng": 13.425483087362789}], "distance": 748, "postalCode": "10405", "cc": "DE", "city": "Berlin", "state": "Berlin", "country": "Deutschland", "formattedAddress": ["Prenzlauer Allee 187", "10405 Berlin", "Deutschland"]}, "categories": [{"id": "4bf58dd8d48988d116941735", "name": "Bar", "pluralName": "Bars", "shortName": "Bar", "icon": {"prefix": "https://ss3.4sqi.net/img/categories_v2/nightlife/pub_", "suffix": ".png"}, "primary": true}], "photos": {"count": 0, "groups": []}, "venuePage": {"id": "53426099"}}, "referralId": "e-0-508afe06e4b032cef1b7e2a9-75"}, {"reasons": {"count": 0, "items": [{"summary": "This spot is popular", "type": "general", "reasonName": "globalInteractionReason"}]}, "venue": {"id": "4c16581e7f7f2d7f9ed0e368", "name": "Voland Russian Restaurant", "location": {"address": "Wichertstr. 63", "lat": 52.54974051971053, "lng": 13.418119586059149, "labeledLatLngs": [{"label": "display", "lat": 52.54974051971053, "lng": 13.418119586059149}], "distance": 837, "postalCode": "10439", "cc": "DE", "city": "Berlin", "state": "Berlin", "country": "Deutschland", "formattedAddress": ["Wichertstr. 63", "10439 Berlin", "Deutschland"]}, "categories": [{"id": "5293a7563cf9994f4e043a44", "name": "Russian Restaurant", "pluralName": "Russian Restaurants", "shortName": "Russian", "icon": {"prefix": "https://ss3.4sqi.net/img/categories_v2/food/russian_", "suffix": ".png"}, "primary": true}], "photos": {"count": 0, "groups": []}}, "referralId": "e-0-4c16581e7f7f2d7f9ed0e368-76"}, {"reasons": {"count": 0, "items": [{"summary": "This spot is popular", "type": "general", "reasonName": "globalInteractionReason"}]}, "venue": {"id": "5cfc2925286fda002c4622bd", "name": "Moloko", "location": {"address": "Lycherstra\u00dfe 5-6", "lat": 52.54382, "lng": 13.417691, "labeledLatLngs": [{"label": "display", "lat": 52.54382, "lng": 13.417691}], "distance": 942, "postalCode": "10437", "cc": "DE", "city": "Berlin", "state": "Berlin", "country": "Deutschland", "formattedAddress": ["Lycherstra\u00dfe 5-6", "10437 Berlin", "Deutschland"]}, "categories": [{"id": "4bf58dd8d48988d116941735", "name": "Bar", "pluralName": "Bars", "shortName": "Bar", "icon": {"prefix": "https://ss3.4sqi.net/img/categories_v2/nightlife/pub_", "suffix": ".png"}, "primary": true}], "photos": {"count": 0, "groups": []}}, "referralId": "e-0-5cfc2925286fda002c4622bd-77"}, {"reasons": {"count": 0, "items": [{"summary": "This spot is popular", "type": "general", "reasonName": "globalInteractionReason"}]}, "venue": {"id": "4adcda8cf964a520394a21e3", "name": "B\u00fchnenRausch", "location": {"address": "Erich-Weinert-Str. 27", "lat": 52.55130382205434, "lng": 13.418376329996144, "labeledLatLngs": [{"label": "display", "lat": 52.55130382205434, "lng": 13.418376329996144}], "distance": 884, "postalCode": "10439", "cc": "DE", "city": "Berlin", "state": "Berlin", "country": "Deutschland", "formattedAddress": ["Erich-Weinert-Str. 27", "10439 Berlin", "Deutschland"]}, "categories": [{"id": "4bf58dd8d48988d135941735", "name": "Indie Theater", "pluralName": "Indie Theaters", "shortName": "Indie", "icon": {"prefix": "https://ss3.4sqi.net/img/categories_v2/arts_entertainment/performingarts_theater_", "suffix": ".png"}, "primary": true}], "photos": {"count": 0, "groups": []}}, "referralId": "e-0-4adcda8cf964a520394a21e3-78"}, {"reasons": {"count": 0, "items": [{"summary": "This spot is popular", "type": "general", "reasonName": "globalInteractionReason"}]}, "venue": {"id": "4b893b9df964a520c62432e3", "name": "Dirty Velvet", "location": {"address": "Lychener Str. 39", "lat": 52.543724, "lng": 13.417337, "labeledLatLngs": [{"label": "display", "lat": 52.543724, "lng": 13.417337}], "distance": 968, "postalCode": "10437", "cc": "DE", "neighborhood": "Helmholtzkiez", "city": "Berlin", "state": "Berlin", "country": "Deutschland", "formattedAddress": ["Lychener Str. 39", "10437 Berlin", "Deutschland"]}, "categories": [{"id": "4bf58dd8d48988d116941735", "name": "Bar", "pluralName": "Bars", "shortName": "Bar", "icon": {"prefix": "https://ss3.4sqi.net/img/categories_v2/nightlife/pub_", "suffix": ".png"}, "primary": true}], "photos": {"count": 0, "groups": []}}, "referralId": "e-0-4b893b9df964a520c62432e3-79"}, {"reasons": {"count": 0, "items": [{"summary": "This spot is popular", "type": "general", "reasonName": "globalInteractionReason"}]}, "venue": {"id": "4b6577f1f964a52095f12ae3", "name": "Kieser Training", "location": {"address": "Ostseestr. 107", "lat": 52.5468062857738, "lng": 13.442567447223489, "labeledLatLngs": [{"label": "display", "lat": 52.5468062857738, "lng": 13.442567447223489}], "distance": 854, "postalCode": "10409", "cc": "DE", "city": "Berlin", "state": "Berlin", "country": "Deutschland", "formattedAddress": ["Ostseestr. 107", "10409 Berlin", "Deutschland"]}, "categories": [{"id": "4bf58dd8d48988d175941735", "name": "Gym / Fitness Center", "pluralName": "Gyms or Fitness Centers", "shortName": "Gym / Fitness", "icon": {"prefix": "https://ss3.4sqi.net/img/categories_v2/building/gym_", "suffix": ".png"}, "primary": true}], "photos": {"count": 0, "groups": []}, "venuePage": {"id": "557861071"}}, "referralId": "e-0-4b6577f1f964a52095f12ae3-80"}, {"reasons": {"count": 0, "items": [{"summary": "This spot is popular", "type": "general", "reasonName": "globalInteractionReason"}]}, "venue": {"id": "4c1dc3cb63750f471ad7b867", "name": "Einstern Coffee Bar", "location": {"address": "Prenzlauer Allee 195", "lat": 52.53962429766169, "lng": 13.424449930469796, "labeledLatLngs": [{"label": "display", "lat": 52.53962429766169, "lng": 13.424449930469796}], "distance": 977, "postalCode": "10405", "cc": "DE", "city": "Berlin", "state": "Berlin", "country": "Deutschland", "formattedAddress": ["Prenzlauer Allee 195", "10405 Berlin", "Deutschland"]}, "categories": [{"id": "4bf58dd8d48988d16d941735", "name": "Caf\u00e9", "pluralName": "Caf\u00e9s", "shortName": "Caf\u00e9", "icon": {"prefix": "https://ss3.4sqi.net/img/categories_v2/food/cafe_", "suffix": ".png"}, "primary": true}], "photos": {"count": 0, "groups": []}}, "referralId": "e-0-4c1dc3cb63750f471ad7b867-81"}, {"reasons": {"count": 0, "items": [{"summary": "This spot is popular", "type": "general", "reasonName": "globalInteractionReason"}]}, "venue": {"id": "570a611e498e59fb697b8052", "name": "Hedwig", "location": {"address": "Raumerstr. 8", "lat": 52.5430234228502, "lng": 13.417964662903191, "labeledLatLngs": [{"label": "display", "lat": 52.5430234228502, "lng": 13.417964662903191}], "distance": 970, "postalCode": "10437", "cc": "DE", "city": "Berlin", "state": "Berlin", "country": "Deutschland", "formattedAddress": ["Raumerstr. 8", "10437 Berlin", "Deutschland"]}, "categories": [{"id": "4bf58dd8d48988d1c9941735", "name": "Ice Cream Shop", "pluralName": "Ice Cream Shops", "shortName": "Ice Cream", "icon": {"prefix": "https://ss3.4sqi.net/img/categories_v2/food/icecream_", "suffix": ".png"}, "primary": true}], "photos": {"count": 0, "groups": []}}, "referralId": "e-0-570a611e498e59fb697b8052-82"}, {"reasons": {"count": 0, "items": [{"summary": "This spot is popular", "type": "general", "reasonName": "globalInteractionReason"}]}, "venue": {"id": "4cbaea0c9552b60cf3dddc8b", "name": "Kr\u00fcmel", "location": {"address": "Stargarder Str. 73", "lat": 52.54686452998733, "lng": 13.417434498363193, "labeledLatLngs": [{"label": "display", "lat": 52.54686452998733, "lng": 13.417434498363193}], "distance": 858, "postalCode": "10437", "cc": "DE", "city": "Berlin", "state": "Berlin", "country": "Deutschland", "formattedAddress": ["Stargarder Str. 73", "10437 Berlin", "Deutschland"]}, "categories": [{"id": "4bf58dd8d48988d16d941735", "name": "Caf\u00e9", "pluralName": "Caf\u00e9s", "shortName": "Caf\u00e9", "icon": {"prefix": "https://ss3.4sqi.net/img/categories_v2/food/cafe_", "suffix": ".png"}, "primary": true}], "photos": {"count": 0, "groups": []}}, "referralId": "e-0-4cbaea0c9552b60cf3dddc8b-83"}, {"reasons": {"count": 0, "items": [{"summary": "This spot is popular", "type": "general", "reasonName": "globalInteractionReason"}]}, "venue": {"id": "581f455269b32f21331d716b", "name": "Mrs Robinson's", "location": {"address": "Pappelallee 29", "lat": 52.54543117576079, "lng": 13.417085178151915, "labeledLatLngs": [{"label": "display", "lat": 52.54543117576079, "lng": 13.417085178151915}], "distance": 913, "postalCode": "10437", "cc": "DE", "neighborhood": "Helmholtzkiez", "city": "Berlin", "state": "Berlin", "country": "Deutschland", "formattedAddress": ["Pappelallee 29", "10437 Berlin", "Deutschland"]}, "categories": [{"id": "4bf58dd8d48988d142941735", "name": "Asian Restaurant", "pluralName": "Asian Restaurants", "shortName": "Asian", "icon": {"prefix": "https://ss3.4sqi.net/img/categories_v2/food/asian_", "suffix": ".png"}, "primary": true}], "photos": {"count": 0, "groups": []}}, "referralId": "e-0-581f455269b32f21331d716b-84"}, {"reasons": {"count": 0, "items": [{"summary": "This spot is popular", "type": "general", "reasonName": "globalInteractionReason"}]}, "venue": {"id": "4ff43e91e4b05ae522c86f34", "name": "Caff\u00e8 Monelli", "location": {"address": "Greifenhagener Stra\u00dfe 53", "lat": 52.547962, "lng": 13.415492, "labeledLatLngs": [{"label": "display", "lat": 52.547962, "lng": 13.415492}], "distance": 984, "postalCode": "10437", "cc": "DE", "city": "Berlin", "state": "Berlin", "country": "Deutschland", "formattedAddress": ["Greifenhagener Stra\u00dfe 53", "10437 Berlin", "Deutschland"]}, "categories": [{"id": "4bf58dd8d48988d16d941735", "name": "Caf\u00e9", "pluralName": "Caf\u00e9s", "shortName": "Caf\u00e9", "icon": {"prefix": "https://ss3.4sqi.net/img/categories_v2/food/cafe_", "suffix": ".png"}, "primary": true}], "photos": {"count": 0, "groups": []}}, "referralId": "e-0-4ff43e91e4b05ae522c86f34-85"}, {"reasons": {"count": 0, "items": [{"summary": "This spot is popular", "type": "general", "reasonName": "globalInteractionReason"}]}, "venue": {"id": "4bf030c8c601a5936863c3d1", "name": "Spielplatz hinter der Gethsemanekirche", "location": {"address": "Gethsemanestr. 3", "lat": 52.547864730342816, "lng": 13.416940076780646, "labeledLatLngs": [{"label": "display", "lat": 52.547864730342816, "lng": 13.416940076780646}], "distance": 886, "postalCode": "10437", "cc": "DE", "city": "Berlin", "state": "Berlin", "country": "Deutschland", "formattedAddress": ["Gethsemanestr. 3", "10437 Berlin", "Deutschland"]}, "categories": [{"id": "4bf58dd8d48988d1e7941735", "name": "Playground", "pluralName": "Playgrounds", "shortName": "Playground", "icon": {"prefix": "https://ss3.4sqi.net/img/categories_v2/parks_outdoors/playground_", "suffix": ".png"}, "primary": true}], "photos": {"count": 0, "groups": []}}, "referralId": "e-0-4bf030c8c601a5936863c3d1-86"}, {"reasons": {"count": 0, "items": [{"summary": "This spot is popular", "type": "general", "reasonName": "globalInteractionReason"}]}, "venue": {"id": "4b7ab0e1f964a52082372fe3", "name": "REWE", "location": {"address": "Ostseestr. 23", "lat": 52.55085632321703, "lng": 13.432392055225364, "labeledLatLngs": [{"label": "display", "lat": 52.55085632321703, "lng": 13.432392055225364}], "distance": 383, "postalCode": "10409", "cc": "DE", "city": "Berlin", "state": "Berlin", "country": "Deutschland", "formattedAddress": ["Ostseestr. 23", "10409 Berlin", "Deutschland"]}, "categories": [{"id": "52f2ab2ebcbc57f1066b8b46", "name": "Supermarket", "pluralName": "Supermarkets", "shortName": "Supermarket", "icon": {"prefix": "https://ss3.4sqi.net/img/categories_v2/shops/food_grocery_", "suffix": ".png"}, "primary": true}], "photos": {"count": 0, "groups": []}, "venuePage": {"id": "570795412"}}, "referralId": "e-0-4b7ab0e1f964a52082372fe3-87"}, {"reasons": {"count": 0, "items": [{"summary": "This spot is popular", "type": "general", "reasonName": "globalInteractionReason"}]}, "venue": {"id": "4adcda79f964a5208e4621e3", "name": "Marietta", "location": {"address": "Stargarder Str. 13", "lat": 52.54682913858359, "lng": 13.417461549794265, "labeledLatLngs": [{"label": "display", "lat": 52.54682913858359, "lng": 13.417461549794265}], "distance": 857, "postalCode": "10437", "cc": "DE", "city": "Berlin", "state": "Berlin", "country": "Deutschland", "formattedAddress": ["Stargarder Str. 13", "10437 Berlin", "Deutschland"]}, "categories": [{"id": "4bf58dd8d48988d16d941735", "name": "Caf\u00e9", "pluralName": "Caf\u00e9s", "shortName": "Caf\u00e9", "icon": {"prefix": "https://ss3.4sqi.net/img/categories_v2/food/cafe_", "suffix": ".png"}, "primary": true}], "photos": {"count": 0, "groups": []}}, "referralId": "e-0-4adcda79f964a5208e4621e3-88"}, {"reasons": {"count": 0, "items": [{"summary": "This spot is popular", "type": "general", "reasonName": "globalInteractionReason"}]}, "venue": {"id": "5561ca5a498ead268cfceb54", "name": "neo1", "location": {"address": "Lettestr. 1", "crossStreet": "Dunckerstr.", "lat": 52.542814780451295, "lng": 13.420620560646057, "labeledLatLngs": [{"label": "display", "lat": 52.542814780451295, "lng": 13.420620560646057}], "distance": 839, "postalCode": "10437", "cc": "DE", "city": "Berlin", "state": "Berlin", "country": "Deutschland", "formattedAddress": ["Lettestr. 1 (Dunckerstr.)", "10437 Berlin", "Deutschland"]}, "categories": [{"id": "4bf58dd8d48988d16d941735", "name": "Caf\u00e9", "pluralName": "Caf\u00e9s", "shortName": "Caf\u00e9", "icon": {"prefix": "https://ss3.4sqi.net/img/categories_v2/food/cafe_", "suffix": ".png"}, "primary": true}], "photos": {"count": 0, "groups": []}}, "referralId": "e-0-5561ca5a498ead268cfceb54-89"}, {"reasons": {"count": 0, "items": [{"summary": "This spot is popular", "type": "general", "reasonName": "globalInteractionReason"}]}, "venue": {"id": "514233ffe4b0158defea8d8f", "name": "schwalbe", "location": {"address": "Pappelallee 65", "lat": 52.54539858035244, "lng": 13.416860103607178, "labeledLatLngs": [{"label": "display", "lat": 52.54539858035244, "lng": 13.416860103607178}], "distance": 928, "postalCode": "10437", "cc": "DE", "city": "Berlin", "state": "Berlin", "country": "Deutschland", "formattedAddress": ["Pappelallee 65", "10437 Berlin", "Deutschland"]}, "categories": [{"id": "4bf58dd8d48988d11d941735", "name": "Sports Bar", "pluralName": "Sports Bars", "shortName": "Sports Bar", "icon": {"prefix": "https://ss3.4sqi.net/img/categories_v2/nightlife/sportsbar_", "suffix": ".png"}, "primary": true}], "photos": {"count": 0, "groups": []}}, "referralId": "e-0-514233ffe4b0158defea8d8f-90"}, {"reasons": {"count": 0, "items": [{"summary": "This spot is popular", "type": "general", "reasonName": "globalInteractionReason"}]}, "venue": {"id": "4b86ab8af964a520409531e3", "name": "Sonntags-Club", "location": {"address": "Greifenhagener Str. 28", "lat": 52.551277013837286, "lng": 13.418536362155976, "labeledLatLngs": [{"label": "display", "lat": 52.551277013837286, "lng": 13.418536362155976}], "distance": 873, "postalCode": "10437", "cc": "DE", "city": "Berlin", "state": "Berlin", "country": "Deutschland", "formattedAddress": ["Greifenhagener Str. 28", "10437 Berlin", "Deutschland"]}, "categories": [{"id": "4bf58dd8d48988d16d941735", "name": "Caf\u00e9", "pluralName": "Caf\u00e9s", "shortName": "Caf\u00e9", "icon": {"prefix": "https://ss3.4sqi.net/img/categories_v2/food/cafe_", "suffix": ".png"}, "primary": true}], "photos": {"count": 0, "groups": []}}, "referralId": "e-0-4b86ab8af964a520409531e3-91"}, {"reasons": {"count": 0, "items": [{"summary": "This spot is popular", "type": "general", "reasonName": "globalInteractionReason"}]}, "venue": {"id": "5a34fd608ad62e7211572526", "name": "Die Vetzgerei", "location": {"address": "Raumerstra\u00dfe 36", "lat": 52.541947, "lng": 13.421002, "labeledLatLngs": [{"label": "display", "lat": 52.541947, "lng": 13.421002}], "distance": 887, "postalCode": "10437", "cc": "DE", "neighborhood": "Helmholtzkiez", "city": "Berlin", "state": "Berlin", "country": "Deutschland", "formattedAddress": ["Raumerstra\u00dfe 36", "10437 Berlin", "Deutschland"]}, "categories": [{"id": "4bf58dd8d48988d1f9941735", "name": "Food & Drink Shop", "pluralName": "Food & Drink Shops", "shortName": "Food & Drink", "icon": {"prefix": "https://ss3.4sqi.net/img/categories_v2/shops/foodanddrink_", "suffix": ".png"}, "primary": true}], "photos": {"count": 0, "groups": []}}, "referralId": "e-0-5a34fd608ad62e7211572526-92"}, {"reasons": {"count": 0, "items": [{"summary": "This spot is popular", "type": "general", "reasonName": "globalInteractionReason"}]}, "venue": {"id": "4adcda73f964a520554521e3", "name": "Cocktail Bar X", "location": {"address": "Raumerstr. 17a", "lat": 52.54158810155329, "lng": 13.421900505301739, "labeledLatLngs": [{"label": "display", "lat": 52.54158810155329, "lng": 13.421900505301739}], "distance": 877, "postalCode": "10437", "cc": "DE", "city": "Berlin", "state": "Berlin", "country": "Deutschland", "formattedAddress": ["Raumerstr. 17a", "10437 Berlin", "Deutschland"]}, "categories": [{"id": "4bf58dd8d48988d11e941735", "name": "Cocktail Bar", "pluralName": "Cocktail Bars", "shortName": "Cocktail", "icon": {"prefix": "https://ss3.4sqi.net/img/categories_v2/nightlife/cocktails_", "suffix": ".png"}, "primary": true}], "photos": {"count": 0, "groups": []}}, "referralId": "e-0-4adcda73f964a520554521e3-93"}, {"reasons": {"count": 0, "items": [{"summary": "This spot is popular", "type": "general", "reasonName": "globalInteractionReason"}]}, "venue": {"id": "4b8d1c4df964a52086e832e3", "name": "Langhans Grill", "location": {"address": "Langhanstra\u00dfe", "lat": 52.551202618718, "lng": 13.44223654648286, "labeledLatLngs": [{"label": "display", "lat": 52.551202618718, "lng": 13.44223654648286}], "distance": 911, "cc": "DE", "city": "Berlin", "state": "Berlin", "country": "Deutschland", "formattedAddress": ["Langhanstra\u00dfe", "Berlin", "Deutschland"]}, "categories": [{"id": "4bf58dd8d48988d16e941735", "name": "Fast Food Restaurant", "pluralName": "Fast Food Restaurants", "shortName": "Fast Food", "icon": {"prefix": "https://ss3.4sqi.net/img/categories_v2/food/fastfood_", "suffix": ".png"}, "primary": true}], "photos": {"count": 0, "groups": []}}, "referralId": "e-0-4b8d1c4df964a52086e832e3-94"}, {"reasons": {"count": 0, "items": [{"summary": "This spot is popular", "type": "general", "reasonName": "globalInteractionReason"}]}, "venue": {"id": "4bb071d4f964a520e9453ce3", "name": "Alnatura", "location": {"address": "Greifswalder Str. 89", "lat": 52.5432258766698, "lng": 13.441678841285686, "labeledLatLngs": [{"label": "display", "lat": 52.5432258766698, "lng": 13.441678841285686}], "distance": 933, "postalCode": "10409", "cc": "DE", "city": "Berlin", "state": "Berlin", "country": "Deutschland", "formattedAddress": ["Greifswalder Str. 89", "10409 Berlin", "Deutschland"]}, "categories": [{"id": "52f2ab2ebcbc57f1066b8b45", "name": "Organic Grocery", "pluralName": "Organic Groceries", "shortName": "Organic Grocery", "icon": {"prefix": "https://ss3.4sqi.net/img/categories_v2/shops/food_grocery_", "suffix": ".png"}, "primary": true}], "photos": {"count": 0, "groups": []}}, "referralId": "e-0-4bb071d4f964a520e9453ce3-95"}, {"reasons": {"count": 0, "items": [{"summary": "This spot is popular", "type": "general", "reasonName": "globalInteractionReason"}]}, "venue": {"id": "581b24a1cd49d21757cff9a1", "name": "Anh Thi", "location": {"address": "Scherenbergstra\u00dfe 27", "lat": 52.549788, "lng": 13.418694, "labeledLatLngs": [{"label": "display", "lat": 52.549788, "lng": 13.418694}], "distance": 801, "postalCode": "10439", "cc": "DE", "city": "Berlin", "state": "Berlin", "country": "Deutschland", "formattedAddress": ["Scherenbergstra\u00dfe 27", "10439 Prenzlauer Berg", "Deutschland"]}, "categories": [{"id": "4bf58dd8d48988d14a941735", "name": "Vietnamese Restaurant", "pluralName": "Vietnamese Restaurants", "shortName": "Vietnamese", "icon": {"prefix": "https://ss3.4sqi.net/img/categories_v2/food/vietnamese_", "suffix": ".png"}, "primary": true}], "photos": {"count": 0, "groups": []}}, "referralId": "e-0-581b24a1cd49d21757cff9a1-96"}, {"reasons": {"count": 0, "items": [{"summary": "This spot is popular", "type": "general", "reasonName": "globalInteractionReason"}]}, "venue": {"id": "5deb70ee89d1b10008b86511", "name": "Kanaan", "location": {"address": "Schliemannstr. 15", "lat": 52.543548, "lng": 13.419712, "labeledLatLngs": [{"label": "display", "lat": 52.543548, "lng": 13.419712}], "distance": 839, "postalCode": "10437", "cc": "DE", "city": "Berlin", "state": "Berlin", "country": "Deutschland", "formattedAddress": ["Schliemannstr. 15", "10437 Berlin", "Deutschland"]}, "categories": [{"id": "4bf58dd8d48988d1c0941735", "name": "Mediterranean Restaurant", "pluralName": "Mediterranean Restaurants", "shortName": "Mediterranean", "icon": {"prefix": "https://ss3.4sqi.net/img/categories_v2/food/mediterranean_", "suffix": ".png"}, "primary": true}], "photos": {"count": 0, "groups": []}}, "referralId": "e-0-5deb70ee89d1b10008b86511-97"}, {"reasons": {"count": 0, "items": [{"summary": "This spot is popular", "type": "general", "reasonName": "globalInteractionReason"}]}, "venue": {"id": "5a5ca954fc9e94066537331d", "name": "Tilda", "location": {"address": "Raumerstr. 7", "crossStreet": "Helmholtzplatz", "lat": 52.5429469102725, "lng": 13.4177827835083, "labeledLatLngs": [{"label": "display", "lat": 52.5429469102725, "lng": 13.4177827835083}], "distance": 985, "postalCode": "10437", "cc": "DE", "city": "Berlin", "state": "Berlin", "country": "Deutschland", "formattedAddress": ["Raumerstr. 7 (Helmholtzplatz)", "10437 Berlin", "Deutschland"]}, "categories": [{"id": "4bf58dd8d48988d16d941735", "name": "Caf\u00e9", "pluralName": "Caf\u00e9s", "shortName": "Caf\u00e9", "icon": {"prefix": "https://ss3.4sqi.net/img/categories_v2/food/cafe_", "suffix": ".png"}, "primary": true}], "photos": {"count": 0, "groups": []}}, "referralId": "e-0-5a5ca954fc9e94066537331d-98"}, {"reasons": {"count": 0, "items": [{"summary": "This spot is popular", "type": "general", "reasonName": "globalInteractionReason"}]}, "venue": {"id": "4d5425f3f9f9b60c9b222be6", "name": "Spielplatz Helmholtzplatz", "location": {"address": "Helmholtzplatz", "crossStreet": "Raumerstr.", "lat": 52.54311396378938, "lng": 13.418469696449945, "labeledLatLngs": [{"label": "display", "lat": 52.54311396378938, "lng": 13.418469696449945}], "distance": 936, "postalCode": "10437", "cc": "DE", "city": "Berlin", "state": "Berlin", "country": "Deutschland", "formattedAddress": ["Helmholtzplatz (Raumerstr.)", "10437 Berlin", "Deutschland"]}, "categories": [{"id": "4bf58dd8d48988d1e7941735", "name": "Playground", "pluralName": "Playgrounds", "shortName": "Playground", "icon": {"prefix": "https://ss3.4sqi.net/img/categories_v2/parks_outdoors/playground_", "suffix": ".png"}, "primary": true}], "photos": {"count": 0, "groups": []}}, "referralId": "e-0-4d5425f3f9f9b60c9b222be6-99"}]