[{"reasons": {"count": 0, "items": [{"summary": "This spot is popular", "type": "general", "reasonName": "globalInteractionReason"}]}, "venue": {"id": "4aef5cbaf964a520d9d721e3", "name": "Omoni", "location": {"address": "Kopenhagener Str. 14", "lat": 52.54916084567979, "lng": 13.408934562386694, "labeledLatLngs": [{"label": "display", "lat": 52.54916084567979, "lng": 13.408934562386694}], "distance": 206, "postalCode": "10437", "cc": "DE", "city": "Berlin", "state": "Berlin", "country": "Deutschland", "formattedAddress": ["Kopenhagener Str. 14", "10437 Berlin", "Deutschland"]}, "categories": [{"id": "4bf58dd8d48988d1d2941735", "name": "Sushi Restaurant", "pluralName": "Sushi Restaurants", "shortName": "Sushi", "icon": {"prefix": "https://ss3.4sqi.net/img/categories_v2/food/sushi_", "suffix": ".png"}, "primary": true}], "photos": {"count": 0, "groups": []}}, "referralId": "e-0-4aef5cbaf964a520d9d721e3-0"}, {"reasons": {"count": 0, "items": [{"summary": "This spot is popular", "type": "general", "reasonName": "globalInteractionReason"}]}, "venue": {"id": "5311cf6e498e95b8db3b6061", "name": "Cafe Kraft", "location": {"address": "Schivelbeiner Str. 23", "crossStreet": "Malm\u00f6er Str.", "lat": 52.551228, "lng": 13.403916, "labeledLatLngs": [{"label": "display", "lat": 52.551228, "lng": 13.403916}], "distance": 206, "postalCode": "10439", "cc": "DE", "city": "Berlin", "state": "Berlin", "country": "Deutschland", "formattedAddress": ["Schivelbeiner Str. 23 (Malm\u00f6er Str.)", "10439 Berlin", "Deutschland"]}, "categories": [{"id": "4bf58dd8d48988d1e0931735", "name": "Coffee Shop", "pluralName": "Coffee Shops", "shortName": "Coffee Shop", "icon": {"prefix": "https://ss3.4sqi.net/img/categories_v2/food/coffeeshop_", "suffix": ".png"}, "primary": true}], "photos": {"count": 0, "groups": []}, "venuePage": {"id": "85070076"}}, "referralId": "e-0-5311cf6e498e95b8db3b6061-1"}, {"reasons": {"count": 0, "items": [{"summary": "This spot is popular", "type": "general", "reasonName": "globalInteractionReason"}]}, "venue": {"id": "59636fb6e2da191dcb678a07", "name": "Unser Caf\u00e9", "location": {"address": "D\u00e4nenstr. 14", "lat": 52.54999621071743, "lng": 13.408094570407897, "labeledLatLngs": [{"label": "display", "lat": 52.54999621071743, "lng": 13.408094570407897}], "distance": 125, "postalCode": "10439", "cc": "DE", "neighborhood": "Sch\u00f6nhauser Allee-Nord", "city": "Berlin", "state": "Berlin", "country": "Deutschland", "formattedAddress": ["D\u00e4nenstr. 14", "10439 Berlin", "Deutschland"]}, "categories": [{"id": "4bf58dd8d48988d16d941735", "name": "Caf\u00e9", "pluralName": "Caf\u00e9s", "shortName": "Caf\u00e9", "icon": {"prefix": "https://ss3.4sqi.net/img/categories_v2/food/cafe_", "suffix": ".png"}, "primary": true}], "photos": {"count": 0, "groups": []}}, "referralId": "e-0-59636fb6e2da191dcb678a07-2"}, {"reasons": {"count": 0, "items": [{"summary": "This spot is popular", "type": "general", "reasonName": "globalInteractionReason"}]}, "venue": {"id": "4ade2c76f964a520987321e3", "name": "Kohlenquelle", "location": {"address": "Kopenhagener Str. 16", "crossStreet": "Sonnenburger Str.", "lat": 52.5491948878409, "lng": 13.40795265707412, "labeledLatLngs": [{"label": "display", "lat": 52.5491948878409, "lng": 13.40795265707412}], "distance": 148, "postalCode": "10405", "cc": "DE", "city": "Berlin", "state": "Berlin", "country": "Deutschland", "formattedAddress": ["Kopenhagener Str. 16 (Sonnenburger Str.)", "10405 Berlin", "Deutschland"]}, "categories": [{"id": "4bf58dd8d48988d11b941735", "name": "Pub", "pluralName": "Pubs", "shortName": "Pub", "icon": {"prefix": "https://ss3.4sqi.net/img/categories_v2/nightlife/pub_", "suffix": ".png"}, "primary": true}], "photos": {"count": 0, "groups": []}}, "referralId": "e-0-4ade2c76f964a520987321e3-3"}, {"reasons": {"count": 0, "items": [{"summary": "This spot is popular", "type": "general", "reasonName": "globalInteractionReason"}]}, "venue": {"id": "4b7eb473f964a52033fa2fe3", "name": "Blaumilchkanal", "location": {"address": "Schivelbeiner Str. 23", "crossStreet": "Malm\u00f6er Str.", "lat": 52.55137628328503, "lng": 13.404216514363604, "labeledLatLngs": [{"label": "display", "lat": 52.55137628328503, "lng": 13.404216514363604}], "distance": 203, "postalCode": "10439", "cc": "DE", "city": "Berlin", "state": "Berlin", "country": "Deutschland", "formattedAddress": ["Schivelbeiner Str. 23 (Malm\u00f6er Str.)", "10439 Berlin", "Deutschland"]}, "categories": [{"id": "4bf58dd8d48988d116941735", "name": "Bar", "pluralName": "Bars", "shortName": "Bar", "icon": {"prefix": "https://ss3.4sqi.net/img/categories_v2/nightlife/pub_", "suffix": ".png"}, "primary": true}], "photos": {"count": 0, "groups": []}, "venuePage": {"id": "39756723"}}, "referralId": "e-0-4b7eb473f964a52033fa2fe3-4"}, {"reasons": {"count": 0, "items": [{"summary": "This spot is popular", "type": "general", "reasonName": "globalInteractionReason"}]}, "venue": {"id": "5801480bd67c5f0866939491", "name": "Restorani Tbilisi", "location": {"address": "Sch\u00f6nflie\u00dfer Str. 15", "crossStreet": "Arnimplatz", "lat": 52.55181155867533, "lng": 13.408228915591165, "labeledLatLngs": [{"label": "display", "lat": 52.55181155867533, "lng": 13.408228915591165}], "distance": 239, "postalCode": "10439", "cc": "DE", "city": "Berlin", "state": "Berlin", "country": "Deutschland", "formattedAddress": ["Sch\u00f6nflie\u00dfer Str. 15 (Arnimplatz)", "10439 Berlin", "Deutschland"]}, "categories": [{"id": "5293a7d53cf9994f4e043a45", "name": "Caucasian Restaurant", "pluralName": "Caucasian Restaurants", "shortName": "Caucasian", "icon": {"prefix": "https://ss3.4sqi.net/img/categories_v2/food/caucasian_", "suffix": ".png"}, "primary": true}], "photos": {"count": 0, "groups": []}}, "referralId": "e-0-5801480bd67c5f0866939491-5"}, {"reasons": {"count": 0, "items": [{"summary": "This spot is popular", "type": "general", "reasonName": "globalInteractionReason"}]}, "venue": {"id": "5a59225a0868a24e8b1edfa8", "name": "Rhino\u00e7\u00e9ros", "location": {"address": "Rhinower Str. 3", "lat": 52.54815, "lng": 13.40997, "labeledLatLngs": [{"label": "display", "lat": 52.54815, "lng": 13.40997}], "distance": 327, "postalCode": "10437", "cc": "DE", "city": "Berlin", "state": "Berlin", "country": "Deutschland", "formattedAddress": ["Rhinower Str. 3", "10437 Berlin", "Deutschland"]}, "categories": [{"id": "4bf58dd8d48988d116941735", "name": "Bar", "pluralName": "Bars", "shortName": "Bar", "icon": {"prefix": "https://ss3.4sqi.net/img/categories_v2/nightlife/pub_", "suffix": ".png"}, "primary": true}], "photos": {"count": 0, "groups": []}}, "referralId": "e-0-5a59225a0868a24e8b1edfa8-6"}, {"reasons": {"count": 0, "items": [{"summary": "This spot is popular", "type": "general", "reasonName": "globalInteractionReason"}]}, "venue": {"id": "4b2e780cf964a520b1e024e3", "name": "Onkel Ho", "location": {"address": "Gleimstr. 10A", "lat": 52.54704441052437, "lng": 13.40604622876056, "labeledLatLngs": [{"label": "display", "lat": 52.54704441052437, "lng": 13.40604622876056}], "distance": 332, "postalCode": "10437", "cc": "DE", "neighborhood": "Sch\u00f6nhauser Allee-Nord", "city": "Berlin", "state": "Berlin", "country": "Deutschland", "formattedAddress": ["Gleimstr. 10A", "10437 Berlin", "Deutschland"]}, "categories": [{"id": "4bf58dd8d48988d14a941735", "name": "Vietnamese Restaurant", "pluralName": "Vietnamese Restaurants", "shortName": "Vietnamese", "icon": {"prefix": "https://ss3.4sqi.net/img/categories_v2/food/vietnamese_", "suffix": ".png"}, "primary": true}], "photos": {"count": 0, "groups": []}}, "referralId": "e-0-4b2e780cf964a520b1e024e3-7"}, {"reasons": {"count": 0, "items": [{"summary": "This spot is popular", "type": "general", "reasonName": "globalInteractionReason"}]}, "venue": {"id": "4b9211eaf964a520dce533e3", "name": "B\u00e4ckerei und Konditorei Siebert", "location": {"address": "Sch\u00f6nflie\u00dfer Str. 12", "lat": 52.55286319203129, "lng": 13.408512700891807, "labeledLatLngs": [{"label": "display", "lat": 52.55286319203129, "lng": 13.408512700891807}], "distance": 350, "postalCode": "10439", "cc": "DE", "city": "Berlin", "state": "Berlin", "country": "Deutschland", "formattedAddress": ["Sch\u00f6nflie\u00dfer Str. 12", "10439 Berlin", "Deutschland"]}, "categories": [{"id": "4bf58dd8d48988d16a941735", "name": "Bakery", "pluralName": "Bakeries", "shortName": "Bakery", "icon": {"prefix": "https://ss3.4sqi.net/img/categories_v2/food/bakery_", "suffix": ".png"}, "primary": true}], "photos": {"count": 0, "groups": []}, "venuePage": {"id": "146794066"}}, "referralId": "e-0-4b9211eaf964a520dce533e3-8"}, {"reasons": {"count": 0, "items": [{"summary": "This spot is popular", "type": "general", "reasonName": "globalInteractionReason"}]}, "venue": {"id": "53c8b583498e9de2835fd656", "name": "La Buvette", "location": {"address": "Gleimstr. 41", "crossStreet": "Rhinower Str.", "lat": 52.547443980744625, "lng": 13.409124612808228, "labeledLatLngs": [{"label": "display", "lat": 52.547443980744625, "lng": 13.409124612808228}], "distance": 347, "postalCode": "10437", "cc": "DE", "city": "Berlin", "state": "Berlin", "country": "Deutschland", "formattedAddress": ["Gleimstr. 41 (Rhinower Str.)", "10437 Berlin", "Deutschland"]}, "categories": [{"id": "4bf58dd8d48988d123941735", "name": "Wine Bar", "pluralName": "Wine Bars", "shortName": "Wine Bar", "icon": {"prefix": "https://ss3.4sqi.net/img/categories_v2/food/winery_", "suffix": ".png"}, "primary": true}], "photos": {"count": 0, "groups": []}, "venuePage": {"id": "581192902"}}, "referralId": "e-0-53c8b583498e9de2835fd656-9"}, {"reasons": {"count": 0, "items": [{"summary": "This spot is popular", "type": "general", "reasonName": "globalInteractionReason"}]}, "venue": {"id": "4b7407f2f964a5209ec42de3", "name": "Bar Salumeria Sigismondo", "location": {"address": "Kopenhagener Str. 6", "lat": 52.54885574142543, "lng": 13.411567326359338, "labeledLatLngs": [{"label": "display", "lat": 52.54885574142543, "lng": 13.411567326359338}], "distance": 383, "postalCode": "10437", "cc": "DE", "city": "Berlin", "state": "Berlin", "country": "Deutschland", "formattedAddress": ["Kopenhagener Str. 6", "10437 Berlin", "Deutschland"]}, "categories": [{"id": "4bf58dd8d48988d1e0931735", "name": "Coffee Shop", "pluralName": "Coffee Shops", "shortName": "Coffee Shop", "icon": {"prefix": "https://ss3.4sqi.net/img/categories_v2/food/coffeeshop_", "suffix": ".png"}, "primary": true}], "photos": {"count": 0, "groups": []}}, "referralId": "e-0-4b7407f2f964a5209ec42de3-10"}, {"reasons": {"count": 0, "items": [{"summary": "This spot is popular", "type": "general", "reasonName": "globalInteractionReason"}]}, "venue": {"id": "4dcfe79645ddbe15f8acd998", "name": "Schwesterherz", "location": {"address": "Kopenhagener str 22", "lat": 52.548961486588915, "lng": 13.406254728118407, "labeledLatLngs": [{"label": "display", "lat": 52.548961486588915, "lng": 13.406254728118407}], "distance": 118, "cc": "DE", "city": "Berlin", "state": "Berlin", "country": "Deutschland", "formattedAddress": ["Kopenhagener str 22", "Berlin", "Deutschland"]}, "categories": [{"id": "4bf58dd8d48988d16d941735", "name": "Caf\u00e9", "pluralName": "Caf\u00e9s", "shortName": "Caf\u00e9", "icon": {"prefix": "https://ss3.4sqi.net/img/categories_v2/food/cafe_", "suffix": ".png"}, "primary": true}], "photos": {"count": 0, "groups": []}}, "referralId": "e-0-4dcfe79645ddbe15f8acd998-11"}, {"reasons": {"count": 0, "items": [{"summary": "This spot is popular", "type": "general", "reasonName": "globalInteractionReason"}]}, "venue": {"id": "533e8fe4498e4f4391ed60ec", "name": "Song Nguu", "location": {"address": "Am Falkplatz 5", "lat": 52.54670539928432, "lng": 13.405606068495455, "labeledLatLngs": [{"label": "display", "lat": 52.54670539928432, "lng": 13.405606068495455}], "distance": 372, "postalCode": "10437", "cc": "DE", "city": "Berlin", "state": "Berlin", "country": "Deutschland", "formattedAddress": ["Am Falkplatz 5", "10437 Berlin", "Deutschland"]}, "categories": [{"id": "4bf58dd8d48988d14a941735", "name": "Vietnamese Restaurant", "pluralName": "Vietnamese Restaurants", "shortName": "Vietnamese", "icon": {"prefix": "https://ss3.4sqi.net/img/categories_v2/food/vietnamese_", "suffix": ".png"}, "primary": true}], "photos": {"count": 0, "groups": []}}, "referralId": "e-0-533e8fe4498e4f4391ed60ec-12"}, {"reasons": {"count": 0, "items": [{"summary": "This spot is popular", "type": "general", "reasonName": "globalInteractionReason"}]}, "venue": {"id": "54e8876d498e51bac91b4b7a", "name": "Wim Kaffee", "location": {"address": "Rhinower Str. 1", "lat": 52.54782110753511, "lng": 13.409815194969818, "labeledLatLngs": [{"label": "display", "lat": 52.54782110753511, "lng": 13.409815194969818}], "distance": 344, "cc": "DE", "city": "Berlin", "state": "Berlin", "country": "Deutschland", "formattedAddress": ["Rhinower Str. 1", "Berlin", "Deutschland"]}, "categories": [{"id": "4bf58dd8d48988d1e0931735", "name": "Coffee Shop", "pluralName": "Coffee Shops", "shortName": "Coffee Shop", "icon": {"prefix": "https://ss3.4sqi.net/img/categories_v2/food/coffeeshop_", "suffix": ".png"}, "primary": true}], "photos": {"count": 0, "groups": []}}, "referralId": "e-0-54e8876d498e51bac91b4b7a-13"}, {"reasons": {"count": 0, "items": [{"summary": "This spot is popular", "type": "general", "reasonName": "globalInteractionReason"}]}, "venue": {"id": "55e82454498e83719d5b2704", "name": "REWE", "location": {"address": "Schivelbeiner Str. 38", "lat": 52.55074794435115, "lng": 13.409915555464863, "labeledLatLngs": [{"label": "display", "lat": 52.55074794435115, "lng": 13.409915555464863}], "distance": 261, "postalCode": "10439", "cc": "DE", "city": "Berlin", "state": "Berlin", "country": "Deutschland", "formattedAddress": ["Schivelbeiner Str. 38", "10439 Berlin", "Deutschland"]}, "categories": [{"id": "52f2ab2ebcbc57f1066b8b46", "name": "Supermarket", "pluralName": "Supermarkets", "shortName": "Supermarket", "icon": {"prefix": "https://ss3.4sqi.net/img/categories_v2/shops/food_grocery_", "suffix": ".png"}, "primary": true}], "photos": {"count": 0, "groups": []}, "venuePage": {"id": "566400532"}}, "referralId": "e-0-55e82454498e83719d5b2704-14"}, {"reasons": {"count": 0, "items": [{"summary": "This spot is popular", "type": "general", "reasonName": "globalInteractionReason"}]}, "venue": {"id": "5cf385bf031320002c4335eb", "name": "Sveda", "location": {"address": "Schwedter Str. 79", "crossStreet": "Kors\u00f6rer Str.", "lat": 52.547613, "lng": 13.401106, "labeledLatLngs": [{"label": "display", "lat": 52.547613, "lng": 13.401106}], "distance": 439, "postalCode": "10435", "cc": "DE", "city": "Berlin", "state": "Berlin", "country": "Deutschland", "formattedAddress": ["Schwedter Str. 79 (Kors\u00f6rer Str.)", "10435 Berlin", "Deutschland"]}, "categories": [{"id": "4bf58dd8d48988d16d941735", "name": "Caf\u00e9", "pluralName": "Caf\u00e9s", "shortName": "Caf\u00e9", "icon": {"prefix": "https://ss3.4sqi.net/img/categories_v2/food/cafe_", "suffix": ".png"}, "primary": true}], "photos": {"count": 0, "groups": []}}, "referralId": "e-0-5cf385bf031320002c4335eb-15"}, {"reasons": {"count": 0, "items": [{"summary": "This spot is popular", "type": "general", "reasonName": "globalInteractionReason"}]}, "venue": {"id": "544b8506498eac061c29ed1e", "name": "Lola was here", "location": {"address": "Seelower Str. 8", "crossStreet": "Arnimplatz", "lat": 52.55190000123299, "lng": 13.410665714790376, "labeledLatLngs": [{"label": "display", "lat": 52.55190000123299, "lng": 13.410665714790376}], "distance": 364, "postalCode": "10439", "cc": "DE", "city": "Berlin", "state": "Berlin", "country": "Deutschland", "formattedAddress": ["Seelower Str. 8 (Arnimplatz)", "10439 Berlin", "Deutschland"]}, "categories": [{"id": "4bf58dd8d48988d16d941735", "name": "Caf\u00e9", "pluralName": "Caf\u00e9s", "shortName": "Caf\u00e9", "icon": {"prefix": "https://ss3.4sqi.net/img/categories_v2/food/cafe_", "suffix": ".png"}, "primary": true}], "photos": {"count": 0, "groups": []}, "venuePage": {"id": "216103364"}}, "referralId": "e-0-544b8506498eac061c29ed1e-16"}, {"reasons": {"count": 0, "items": [{"summary": "This spot is popular", "type": "general", "reasonName": "globalInteractionReason"}]}, "venue": {"id": "4adcda88f964a520834921e3", "name": "The Bird", "location": {"address": "Am Falkplatz 5", "lat": 52.546305, "lng": 13.405921, "labeledLatLngs": [{"label": "display", "lat": 52.546305, "lng": 13.405921}], "distance": 415, "postalCode": "10437", "cc": "DE", "city": "Berlin", "state": "Berlin", "country": "Deutschland", "formattedAddress": ["Am Falkplatz 5", "10437 Berlin", "Deutschland"]}, "categories": [{"id": "4bf58dd8d48988d16c941735", "name": "Burger Joint", "pluralName": "Burger Joints", "shortName": "Burgers", "icon": {"prefix": "https://ss3.4sqi.net/img/categories_v2/food/burger_", "suffix": ".png"}, "primary": true}], "photos": {"count": 0, "groups": []}}, "referralId": "e-0-4adcda88f964a520834921e3-17"}, {"reasons": {"count": 0, "items": [{"summary": "This spot is popular", "type": "general", "reasonName": "globalInteractionReason"}]}, "venue": {"id": "53d95fce498e8e0d4b39488c", "name": "CAF\u00c9 gestern, heute & morgen", "location": {"address": "Gaudystr. 1", "crossStreet": "Sch\u00f6nhauser Allee", "lat": 52.546792, "lng": 13.412589, "labeledLatLngs": [{"label": "display", "lat": 52.546792, "lng": 13.412589}], "distance": 560, "postalCode": "10437", "cc": "DE", "city": "Berlin", "state": "Berlin", "country": "Deutschland", "formattedAddress": ["Gaudystr. 1 (Sch\u00f6nhauser Allee)", "10437 Berlin", "Deutschland"]}, "categories": [{"id": "4bf58dd8d48988d16d941735", "name": "Caf\u00e9", "pluralName": "Caf\u00e9s", "shortName": "Caf\u00e9", "icon": {"prefix": "https://ss3.4sqi.net/img/categories_v2/food/cafe_", "suffix": ".png"}, "primary": true}], "photos": {"count": 0, "groups": []}}, "referralId": "e-0-53d95fce498e8e0d4b39488c-18"}, {"reasons": {"count": 0, "items": [{"summary": "This spot is popular", "type": "general", "reasonName": "globalInteractionReason"}]}, "venue": {"id": "599c164f8194fc41f1cdac6a", "name": "JOHN REED Women's Club", "location": {"address": "Sch\u00f6nhauser Allee 112, 1 & 2 OG", "lat": 52.5508288, "lng": 13.4135106, "labeledLatLngs": [{"label": "display", "lat": 52.5508288, "lng": 13.4135106}], "distance": 499, "postalCode": "10439", "cc": "DE", "city": "Berlin", "state": "Berlin", "country": "Deutschland", "formattedAddress": ["Sch\u00f6nhauser Allee 112, 1 & 2 OG", "10439 Berlin", "Deutschland"]}, "categories": [{"id": "4bf58dd8d48988d175941735", "name": "Gym / Fitness Center", "pluralName": "Gyms or Fitness Centers", "shortName": "Gym / Fitness", "icon": {"prefix": "https://ss3.4sqi.net/img/categories_v2/building/gym_", "suffix": ".png"}, "primary": true}], "photos": {"count": 0, "groups": []}}, "referralId": "e-0-599c164f8194fc41f1cdac6a-19"}, {"reasons": {"count": 0, "items": [{"summary": "This spot is popular", "type": "general", "reasonName": "globalInteractionReason"}]}, "venue": {"id": "5b437031a6031c002cac30d9", "name": "Samer Caf\u00e9", "location": {"address": "Gleimstr. 44", "lat": 52.547334, "lng": 13.408378, "labeledLatLngs": [{"label": "display", "lat": 52.547334, "lng": 13.408378}], "distance": 333, "postalCode": "10437", "cc": "DE", "city": "Berlin", "state": "Berlin", "country": "Deutschland", "formattedAddress": ["Gleimstr. 44", "10437 Berlin", "Deutschland"]}, "categories": [{"id": "4bf58dd8d48988d16d941735", "name": "Caf\u00e9", "pluralName": "Caf\u00e9s", "shortName": "Caf\u00e9", "icon": {"prefix": "https://ss3.4sqi.net/img/categories_v2/food/cafe_", "suffix": ".png"}, "primary": true}], "photos": {"count": 0, "groups": []}}, "referralId": "e-0-5b437031a6031c002cac30d9-20"}, {"reasons": {"count": 0, "items": [{"summary": "This spot is popular", "type": "general", "reasonName": "globalInteractionReason"}]}, "venue": {"id": "55996bef498e7530fe77206d", "name": "La Lupa e l'orso", "location": {"address": "Sch\u00f6nflie\u00dfer Str. 14", "lat": 52.55214912752602, "lng": 13.408402956529333, "labeledLatLngs": [{"label": "display", "lat": 52.55214912752602, "lng": 13.408402956529333}], "distance": 277, "postalCode": "10439", "cc": "DE", "city": "Berlin", "state": "Berlin", "country": "Deutschland", "formattedAddress": ["Sch\u00f6nflie\u00dfer Str. 14", "10439 Berlin", "Deutschland"]}, "categories": [{"id": "4bf58dd8d48988d110941735", "name": "Italian Restaurant", "pluralName": "Italian Restaurants", "shortName": "Italian", "icon": {"prefix": "https://ss3.4sqi.net/img/categories_v2/food/italian_", "suffix": ".png"}, "primary": true}], "photos": {"count": 0, "groups": []}}, "referralId": "e-0-55996bef498e7530fe77206d-21"}, {"reasons": {"count": 0, "items": [{"summary": "This spot is popular", "type": "general", "reasonName": "globalInteractionReason"}]}, "venue": {"id": "5766c4cd498e7d23f41e618c", "name": "Guten Dag Korean Fried Chicken", "location": {"address": "Sch\u00f6nhauser Allee", "crossStreet": "Kopenhagener Str.", "lat": 52.54831304153391, "lng": 13.413515447811514, "labeledLatLngs": [{"label": "display", "lat": 52.54831304153391, "lng": 13.413515447811514}], "distance": 527, "postalCode": "10437", "cc": "DE", "city": "Berlin", "state": "Berlin", "country": "Deutschland", "formattedAddress": ["Sch\u00f6nhauser Allee (Kopenhagener Str.)", "10437 Berlin", "Deutschland"]}, "categories": [{"id": "4d4ae6fc7a7b7dea34424761", "name": "Fried Chicken Joint", "pluralName": "Fried Chicken Joints", "shortName": "Fried Chicken", "icon": {"prefix": "https://ss3.4sqi.net/img/categories_v2/food/friedchicken_", "suffix": ".png"}, "primary": true}], "photos": {"count": 0, "groups": []}}, "referralId": "e-0-5766c4cd498e7d23f41e618c-22"}, {"reasons": {"count": 0, "items": [{"summary": "This spot is popular", "type": "general", "reasonName": "globalInteractionReason"}]}, "venue": {"id": "4b2b45c7f964a5207fb524e3", "name": "Kutzner & Kutzner", "location": {"address": "Sch\u00f6nhauser Allee 65", "crossStreet": "Gaudystr.", "lat": 52.54628748628879, "lng": 13.41309057477672, "labeledLatLngs": [{"label": "display", "lat": 52.54628748628879, "lng": 13.41309057477672}], "distance": 623, "postalCode": "10437", "cc": "DE", "city": "Berlin", "state": "Berlin", "country": "Deutschland", "formattedAddress": ["Sch\u00f6nhauser Allee 65 (Gaudystr.)", "10437 Berlin", "Deutschland"]}, "categories": [{"id": "52f2ab2ebcbc57f1066b8b45", "name": "Organic Grocery", "pluralName": "Organic Groceries", "shortName": "Organic Grocery", "icon": {"prefix": "https://ss3.4sqi.net/img/categories_v2/shops/food_grocery_", "suffix": ".png"}, "primary": true}], "photos": {"count": 0, "groups": []}}, "referralId": "e-0-4b2b45c7f964a5207fb524e3-23"}, {"reasons": {"count": 0, "items": [{"summary": "This spot is popular", "type": "general", "reasonName": "globalInteractionReason"}]}, "venue": {"id": "4f92ef75e4b01cffa14e3780", "name": "moto", "location": {"address": "Paul-Robeson-Str.", "lat": 52.55222027763351, "lng": 13.412878505330081, "labeledLatLngs": [{"label": "display", "lat": 52.55222027763351, "lng": 13.412878505330081}], "distance": 510, "postalCode": "10439", "cc": "DE", "city": "Berlin", "state": "Berlin", "country": "Deutschland", "formattedAddress": ["Paul-Robeson-Str.", "10439 Berlin", "Deutschland"]}, "categories": [{"id": "4bf58dd8d48988d116941735", "name": "Bar", "pluralName": "Bars", "shortName": "Bar", "icon": {"prefix": "https://ss3.4sqi.net/img/categories_v2/nightlife/pub_", "suffix": ".png"}, "primary": true}], "photos": {"count": 0, "groups": []}}, "referralId": "e-0-4f92ef75e4b01cffa14e3780-24"}, {"reasons": {"count": 0, "items": [{"summary": "This spot is popular", "type": "general", "reasonName": "globalInteractionReason"}]}, "venue": {"id": "4b0b3e23f964a520502f23e3", "name": "Tapitas", "location": {"address": "Gleimstr. 23", "lat": 52.547437, "lng": 13.411143, "labeledLatLngs": [{"label": "display", "lat": 52.547437, "lng": 13.411143}], "distance": 439, "postalCode": "10437", "cc": "DE", "city": "Berlin", "state": "Berlin", "country": "Deutschland", "formattedAddress": ["Gleimstr. 23", "10437 Berlin", "Deutschland"]}, "categories": [{"id": "4bf58dd8d48988d1db931735", "name": "Tapas Restaurant", "pluralName": "Tapas Restaurants", "shortName": "Tapas", "icon": {"prefix": "https://ss3.4sqi.net/img/categories_v2/food/tapas_", "suffix": ".png"}, "primary": true}], "photos": {"count": 0, "groups": []}}, "referralId": "e-0-4b0b3e23f964a520502f23e3-25"}, {"reasons": {"count": 0, "items": [{"summary": "This spot is popular", "type": "general", "reasonName": "globalInteractionReason"}]}, "venue": {"id": "4c07d1e43f200f47fa1609d1", "name": "Falkplatz", "location": {"address": "Am Falkplatz", "crossStreet": "Gleimstr.", "lat": 52.5461290370566, "lng": 13.404508022230539, "labeledLatLngs": [{"label": "display", "lat": 52.5461290370566, "lng": 13.404508022230539}], "distance": 449, "postalCode": "10437", "cc": "DE", "city": "Berlin", "state": "Berlin", "country": "Deutschland", "formattedAddress": ["Am Falkplatz (Gleimstr.)", "10437 Berlin", "Deutschland"]}, "categories": [{"id": "4bf58dd8d48988d163941735", "name": "Park", "pluralName": "Parks", "shortName": "Park", "icon": {"prefix": "https://ss3.4sqi.net/img/categories_v2/parks_outdoors/park_", "suffix": ".png"}, "primary": true}], "photos": {"count": 0, "groups": []}}, "referralId": "e-0-4c07d1e43f200f47fa1609d1-26"}, {"reasons": {"count": 0, "items": [{"summary": "This spot is popular", "type": "general", "reasonName": "globalInteractionReason"}]}, "venue": {"id": "576a613f498ea58a10196bc0", "name": "dean&david", "location": {"address": "Sch\u00f6nhauser Allee 80", "lat": 52.549741242599296, "lng": 13.41400026377851, "labeledLatLngs": [{"label": "display", "lat": 52.549741242599296, "lng": 13.41400026377851}], "distance": 525, "postalCode": "10439", "cc": "DE", "city": "Berlin", "state": "Berlin", "country": "Deutschland", "formattedAddress": ["Sch\u00f6nhauser Allee 80", "10439 Berlin", "Deutschland"]}, "categories": [{"id": "4bf58dd8d48988d1bd941735", "name": "Salad Place", "pluralName": "Salad Places", "shortName": "Salad", "icon": {"prefix": "https://ss3.4sqi.net/img/categories_v2/food/salad_", "suffix": ".png"}, "primary": true}], "photos": {"count": 0, "groups": []}}, "referralId": "e-0-576a613f498ea58a10196bc0-27"}, {"reasons": {"count": 0, "items": [{"summary": "This spot is popular", "type": "general", "reasonName": "globalInteractionReason"}]}, "venue": {"id": "5e52d680ccdd2d000839193e", "name": "Estelle Dining", "location": {"address": "Kopenhagener Str. 12 A", "lat": 52.548938, "lng": 13.409832, "labeledLatLngs": [{"label": "display", "lat": 52.548938, "lng": 13.409832}], "distance": 271, "postalCode": "10437", "cc": "DE", "city": "Berlin", "state": "Berlin", "country": "Deutschland", "formattedAddress": ["Kopenhagener Str. 12 A", "10437 Berlin", "Deutschland"]}, "categories": [{"id": "52e81612bcbc57f1066b79f1", "name": "Bistro", "pluralName": "Bistros", "shortName": "Bistro", "icon": {"prefix": "https://ss3.4sqi.net/img/categories_v2/food/default_", "suffix": ".png"}, "primary": true}], "photos": {"count": 0, "groups": []}}, "referralId": "e-0-5e52d680ccdd2d000839193e-28"}, {"reasons": {"count": 0, "items": [{"summary": "This spot is popular", "type": "general", "reasonName": "globalInteractionReason"}]}, "venue": {"id": "4bbaea30cf2fc9b6790aa202", "name": "Best Friends", "location": {"address": "Gleimstr. 10", "lat": 52.54702109687461, "lng": 13.405838231558581, "labeledLatLngs": [{"label": "display", "lat": 52.54702109687461, "lng": 13.405838231558581}], "distance": 336, "postalCode": "10437", "cc": "DE", "city": "Berlin", "state": "Berlin", "country": "Deutschland", "formattedAddress": ["Gleimstr. 10", "10437 Berlin", "Deutschland"]}, "categories": [{"id": "4bf58dd8d48988d111941735", "name": "Japanese Restaurant", "pluralName": "Japanese Restaurants", "shortName": "Japanese", "icon": {"prefix": "https://ss3.4sqi.net/img/categories_v2/food/japanese_", "suffix": ".png"}, "primary": true}], "photos": {"count": 0, "groups": []}}, "referralId": "e-0-4bbaea30cf2fc9b6790aa202-29"}, {"reasons": {"count": 0, "items": [{"summary": "This spot is popular", "type": "general", "reasonName": "globalInteractionReason"}]}, "venue": {"id": "4fb27eaae4b01bca555ceb8c", "name": "Caf\u00e9 Frau Kr\u00fcger", "location": {"address": "Kopenhagener Str. 37", "lat": 52.5483019673496, "lng": 13.400737592221304, "labeledLatLngs": [{"label": "display", "lat": 52.5483019673496, "lng": 13.400737592221304}], "distance": 419, "postalCode": "10437", "cc": "DE", "city": "Berlin", "state": "Berlin", "country": "Deutschland", "formattedAddress": ["Kopenhagener Str. 37", "10437 Berlin", "Deutschland"]}, "categories": [{"id": "4bf58dd8d48988d16d941735", "name": "Caf\u00e9", "pluralName": "Caf\u00e9s", "shortName": "Caf\u00e9", "icon": {"prefix": "https://ss3.4sqi.net/img/categories_v2/food/cafe_", "suffix": ".png"}, "primary": true}], "photos": {"count": 0, "groups": []}}, "referralId": "e-0-4fb27eaae4b01bca555ceb8c-30"}, {"reasons": {"count": 0, "items": [{"summary": "This spot is popular", "type": "general", "reasonName": "globalInteractionReason"}]}, "venue": {"id": "4aef258bf964a5200cd621e3", "name": "Bornholmer H\u00fctte", "location": {"address": "Bornholmer Str. 89", "lat": 52.553659570556846, "lng": 13.411802790903618, "labeledLatLngs": [{"label": "display", "lat": 52.553659570556846, "lng": 13.411802790903618}], "distance": 552, "postalCode": "10439", "cc": "DE", "city": "Berlin", "state": "Berlin", "country": "Deutschland", "formattedAddress": ["Bornholmer Str. 89", "10439 Berlin", "Deutschland"]}, "categories": [{"id": "4bf58dd8d48988d11b941735", "name": "Pub", "pluralName": "Pubs", "shortName": "Pub", "icon": {"prefix": "https://ss3.4sqi.net/img/categories_v2/nightlife/pub_", "suffix": ".png"}, "primary": true}], "photos": {"count": 0, "groups": []}}, "referralId": "e-0-4aef258bf964a5200cd621e3-31"}, {"reasons": {"count": 0, "items": [{"summary": "This spot is popular", "type": "general", "reasonName": "globalInteractionReason"}]}, "venue": {"id": "5b2d5cd966f3cd00397d8ea3", "name": "Dr. Maury", "location": {"address": "Sch\u00f6nhauser 62", "lat": 52.54571779653821, "lng": 13.412921661343049, "labeledLatLngs": [{"label": "display", "lat": 52.54571779653821, "lng": 13.412921661343049}], "distance": 659, "cc": "DE", "city": "Berlin", "state": "Berlin", "country": "Deutschland", "formattedAddress": ["Sch\u00f6nhauser 62", "Berlin", "Deutschland"]}, "categories": [{"id": "4bf58dd8d48988d123941735", "name": "Wine Bar", "pluralName": "Wine Bars", "shortName": "Wine Bar", "icon": {"prefix": "https://ss3.4sqi.net/img/categories_v2/food/winery_", "suffix": ".png"}, "primary": true}], "photos": {"count": 0, "groups": []}}, "referralId": "e-0-5b2d5cd966f3cd00397d8ea3-32"}, {"reasons": {"count": 0, "items": [{"summary": "This spot is popular", "type": "general", "reasonName": "globalInteractionReason"}]}, "venue": {"id": "525934f011d261e80971b93b", "name": "dm-drogerie markt", "location": {"address": "Sch\u00f6nhauser Allee 112", "lat": 52.550973, "lng": 13.413431, "labeledLatLngs": [{"label": "display", "lat": 52.550973, "lng": 13.413431}], "distance": 497, "postalCode": "10439", "cc": "DE", "city": "Berlin", "state": "Berlin", "country": "Deutschland", "formattedAddress": ["Sch\u00f6nhauser Allee 112", "10439 Berlin", "Deutschland"]}, "categories": [{"id": "5745c2e4498e11e7bccabdbd", "name": "Drugstore", "pluralName": "Drugstores", "shortName": "Drugstore", "icon": {"prefix": "https://ss3.4sqi.net/img/categories_v2/shops/pharmacy_", "suffix": ".png"}, "primary": true}], "photos": {"count": 0, "groups": []}, "venuePage": {"id": "455290716"}}, "referralId": "e-0-525934f011d261e80971b93b-33"}, {"reasons": {"count": 0, "items": [{"summary": "This spot is popular", "type": "general", "reasonName": "globalInteractionReason"}]}, "venue": {"id": "4adcda7ff964a520f84721e3", "name": "Mauerpark", "location": {"address": "Schwedter Str.", "crossStreet": "Bernauer Str.", "lat": 52.54422088234132, "lng": 13.40229034423828, "labeledLatLngs": [{"label": "display", "lat": 52.54422088234132, "lng": 13.40229034423828}], "distance": 699, "postalCode": "12305", "cc": "DE", "city": "Berlin", "state": "Berlin", "country": "Deutschland", "formattedAddress": ["Schwedter Str. (Bernauer Str.)", "12305 Berlin", "Deutschland"]}, "categories": [{"id": "4bf58dd8d48988d163941735", "name": "Park", "pluralName": "Parks", "shortName": "Park", "icon": {"prefix": "https://ss3.4sqi.net/img/categories_v2/parks_outdoors/park_", "suffix": ".png"}, "primary": true}], "photos": {"count": 0, "groups": []}}, "referralId": "e-0-4adcda7ff964a520f84721e3-34"}, {"reasons": {"count": 0, "items": [{"summary": "This spot is popular", "type": "general", "reasonName": "globalInteractionReason"}]}, "venue": {"id": "4afc7017f964a520b62222e3", "name": "Pattaya", "location": {"address": "Gleimstr. 16", "lat": 52.54728363479725, "lng": 13.40843062076886, "labeledLatLngs": [{"label": "display", "lat": 52.54728363479725, "lng": 13.40843062076886}], "distance": 339, "postalCode": "10437", "cc": "DE", "city": "Berlin", "state": "Berlin", "country": "Deutschland", "formattedAddress": ["Gleimstr. 16", "10437 Berlin", "Deutschland"]}, "categories": [{"id": "4bf58dd8d48988d149941735", "name": "Thai Restaurant", "pluralName": "Thai Restaurants", "shortName": "Thai", "icon": {"prefix": "https://ss3.4sqi.net/img/categories_v2/food/thai_", "suffix": ".png"}, "primary": true}], "photos": {"count": 0, "groups": []}}, "referralId": "e-0-4afc7017f964a520b62222e3-35"}, {"reasons": {"count": 0, "items": [{"summary": "This spot is popular", "type": "general", "reasonName": "globalInteractionReason"}]}, "venue": {"id": "5a157cb281635b7a9d84d1af", "name": "Giomecca", "location": {"address": "Erich-Weinert-Stra\u00dfe 3", "lat": 52.552105, "lng": 13.415195, "labeledLatLngs": [{"label": "display", "lat": 52.552105, "lng": 13.415195}], "distance": 648, "postalCode": "10439", "cc": "DE", "neighborhood": "Sch\u00f6nhauser Allee-Nord", "city": "Berlin", "state": "Berlin", "country": "Deutschland", "formattedAddress": ["Erich-Weinert-Stra\u00dfe 3", "10439 Berlin", "Deutschland"]}, "categories": [{"id": "5744ccdfe4b0c0459246b4e2", "name": "Pastry Shop", "pluralName": "Pastry Shops", "shortName": "Pastry", "icon": {"prefix": "https://ss3.4sqi.net/img/categories_v2/food/dessert_", "suffix": ".png"}, "primary": true}], "photos": {"count": 0, "groups": []}}, "referralId": "e-0-5a157cb281635b7a9d84d1af-36"}, {"reasons": {"count": 0, "items": [{"summary": "This spot is popular", "type": "general", "reasonName": "globalInteractionReason"}]}, "venue": {"id": "4dac537c6e81162ae7ff46a3", "name": "Jugendfarm Moritzhof", "location": {"address": "Schwedter Str. 90", "lat": 52.54795578240846, "lng": 13.400322806821837, "labeledLatLngs": [{"label": "display", "lat": 52.54795578240846, "lng": 13.400322806821837}], "distance": 462, "postalCode": "10437", "cc": "DE", "city": "Berlin", "state": "Berlin", "country": "Deutschland", "formattedAddress": ["Schwedter Str. 90", "10437 Berlin", "Deutschland"]}, "categories": [{"id": "4bf58dd8d48988d15b941735", "name": "Farm", "pluralName": "Farms", "shortName": "Farm", "icon": {"prefix": "https://ss3.4sqi.net/img/categories_v2/parks_outdoors/farm_", "suffix": ".png"}, "primary": true}], "photos": {"count": 0, "groups": []}}, "referralId": "e-0-4dac537c6e81162ae7ff46a3-37"}, {"reasons": {"count": 0, "items": [{"summary": "This spot is popular", "type": "general", "reasonName": "globalInteractionReason"}]}, "venue": {"id": "4b867844f964a5206a8b31e3", "name": "Der Fischladen", "location": {"address": "Sch\u00f6nhauser Allee 128", "lat": 52.54599, "lng": 13.41256, "labeledLatLngs": [{"label": "display", "lat": 52.54599, "lng": 13.41256}], "distance": 620, "postalCode": "10437", "cc": "DE", "neighborhood": "Sch\u00f6nhauser Allee-Nord", "city": "Berlin", "state": "Berlin", "country": "Deutschland", "formattedAddress": ["Sch\u00f6nhauser Allee 128", "10437 Berlin", "Deutschland"]}, "categories": [{"id": "4bf58dd8d48988d1ce941735", "name": "Seafood Restaurant", "pluralName": "Seafood Restaurants", "shortName": "Seafood", "icon": {"prefix": "https://ss3.4sqi.net/img/categories_v2/food/seafood_", "suffix": ".png"}, "primary": true}], "photos": {"count": 0, "groups": []}}, "referralId": "e-0-4b867844f964a5206a8b31e3-38"}, {"reasons": {"count": 0, "items": [{"summary": "This spot is popular", "type": "general", "reasonName": "globalInteractionReason"}]}, "venue": {"id": "5bf6add667e5f200398ed979", "name": "Lamm Bar", "location": {"address": "Wisbyer Str. 1", "lat": 52.553337, "lng": 13.415194, "labeledLatLngs": [{"label": "display", "lat": 52.553337, "lng": 13.415194}], "distance": 708, "postalCode": "10439", "cc": "DE", "neighborhood": "Sch\u00f6nhauser Allee-Nord", "city": "Berlin", "state": "Berlin", "country": "Deutschland", "formattedAddress": ["Wisbyer Str. 1", "10439 Berlin", "Deutschland"]}, "categories": [{"id": "4bf58dd8d48988d11e941735", "name": "Cocktail Bar", "pluralName": "Cocktail Bars", "shortName": "Cocktail", "icon": {"prefix": "https://ss3.4sqi.net/img/categories_v2/nightlife/cocktails_", "suffix": ".png"}, "primary": true}], "photos": {"count": 0, "groups": []}}, "referralId": "e-0-5bf6add667e5f200398ed979-39"}, {"reasons": {"count": 0, "items": [{"summary": "This spot is popular", "type": "general", "reasonName": "globalInteractionReason"}]}, "venue": {"id": "4bc9d6413740b713e1535f65", "name": "Spielplatz Arnimplatz", "location": {"address": "Arnimplatz", "lat": 52.55193718425706, "lng": 13.408615406646664, "labeledLatLngs": [{"label": "display", "lat": 52.55193718425706, "lng": 13.408615406646664}], "distance": 266, "postalCode": "10439", "cc": "DE", "city": "Berlin", "state": "Berlin", "country": "Deutschland", "formattedAddress": ["Arnimplatz", "10439 Berlin", "Deutschland"]}, "categories": [{"id": "4bf58dd8d48988d1e7941735", "name": "Playground", "pluralName": "Playgrounds", "shortName": "Playground", "icon": {"prefix": "https://ss3.4sqi.net/img/categories_v2/parks_outdoors/playground_", "suffix": ".png"}, "primary": true}], "photos": {"count": 0, "groups": []}}, "referralId": "e-0-4bc9d6413740b713e1535f65-40"}, {"reasons": {"count": 0, "items": [{"summary": "This spot is popular", "type": "general", "reasonName": "globalInteractionReason"}]}, "venue": {"id": "4b11a46df964a520328123e3", "name": "Die Bar", "location": {"address": "Greifenhagener Str. 54", "lat": 52.547833, "lng": 13.415339, "labeledLatLngs": [{"label": "display", "lat": 52.547833, "lng": 13.415339}], "distance": 662, "postalCode": "10437", "cc": "DE", "city": "Berlin", "state": "Berlin", "country": "Deutschland", "formattedAddress": ["Greifenhagener Str. 54", "10437 Berlin", "Deutschland"]}, "categories": [{"id": "4bf58dd8d48988d11e941735", "name": "Cocktail Bar", "pluralName": "Cocktail Bars", "shortName": "Cocktail", "icon": {"prefix": "https://ss3.4sqi.net/img/categories_v2/nightlife/cocktails_", "suffix": ".png"}, "primary": true}], "photos": {"count": 0, "groups": []}}, "referralId": "e-0-4b11a46df964a520328123e3-41"}, {"reasons": {"count": 0, "items": [{"summary": "This spot is popular", "type": "general", "reasonName": "globalInteractionReason"}]}, "venue": {"id": "4bdb139863c5c9b633372668", "name": "Alnatura", "location": {"address": "Sch\u00f6nhauser Allee 108", "lat": 52.55173339268699, "lng": 13.413797628578251, "labeledLatLngs": [{"label": "display", "lat": 52.55173339268699, "lng": 13.413797628578251}], "distance": 545, "postalCode": "10439", "cc": "DE", "city": "Berlin", "state": "Berlin", "country": "Deutschland", "formattedAddress": ["Sch\u00f6nhauser Allee 108", "10439 Berlin", "Deutschland"]}, "categories": [{"id": "52f2ab2ebcbc57f1066b8b45", "name": "Organic Grocery", "pluralName": "Organic Groceries", "shortName": "Organic Grocery", "icon": {"prefix": "https://ss3.4sqi.net/img/categories_v2/shops/food_grocery_", "suffix": ".png"}, "primary": true}], "photos": {"count": 0, "groups": []}}, "referralId": "e-0-4bdb139863c5c9b633372668-42"}, {"reasons": {"count": 0, "items": [{"summary": "This spot is popular", "type": "general", "reasonName": "globalInteractionReason"}]}, "venue": {"id": "4b4a2959f964a520e37c26e3", "name": "'A Magica", "location": {"address": "Greifenhagener Str. 54", "lat": 52.547985, "lng": 13.415465, "labeledLatLngs": [{"label": "display", "lat": 52.547985, "lng": 13.415465}], "distance": 664, "postalCode": "10437", "cc": "DE", "city": "Berlin", "state": "Berlin", "country": "Deutschland", "formattedAddress": ["Greifenhagener Str. 54", "10437 Berlin", "Deutschland"]}, "categories": [{"id": "4bf58dd8d48988d1ca941735", "name": "Pizza Place", "pluralName": "Pizza Places", "shortName": "Pizza", "icon": {"prefix": "https://ss3.4sqi.net/img/categories_v2/food/pizza_", "suffix": ".png"}, "primary": true}], "photos": {"count": 0, "groups": []}}, "referralId": "e-0-4b4a2959f964a520e37c26e3-43"}, {"reasons": {"count": 0, "items": [{"summary": "This spot is popular", "type": "general", "reasonName": "globalInteractionReason"}]}, "venue": {"id": "57bc41cb498e78cae49ad5a7", "name": "Formidable", "location": {"address": "Sch\u00f6nhauser Allee 126", "crossStreet": "Gaudystr.", "lat": 52.547062310393386, "lng": 13.412906527519226, "labeledLatLngs": [{"label": "display", "lat": 52.547062310393386, "lng": 13.412906527519226}], "distance": 559, "postalCode": "10437", "cc": "DE", "city": "Berlin", "state": "Berlin", "country": "Deutschland", "formattedAddress": ["Sch\u00f6nhauser Allee 126 (Gaudystr.)", "10437 Berlin", "Deutschland"]}, "categories": [{"id": "52e81612bcbc57f1066b79f1", "name": "Bistro", "pluralName": "Bistros", "shortName": "Bistro", "icon": {"prefix": "https://ss3.4sqi.net/img/categories_v2/food/default_", "suffix": ".png"}, "primary": true}], "photos": {"count": 0, "groups": []}}, "referralId": "e-0-57bc41cb498e78cae49ad5a7-44"}, {"reasons": {"count": 0, "items": [{"summary": "This spot is popular", "type": "general", "reasonName": "globalInteractionReason"}]}, "venue": {"id": "5803b46438faaf1a8ffd6a30", "name": "Klement's", "location": {"address": "Rodenbergstra\u00dfe 2", "lat": 52.551193, "lng": 13.414746, "labeledLatLngs": [{"label": "display", "lat": 52.551193, "lng": 13.414746}], "distance": 589, "postalCode": "10439", "cc": "DE", "city": "Berlin", "state": "Berlin", "country": "Deutschland", "formattedAddress": ["Rodenbergstra\u00dfe 2", "10439 Berlin", "Deutschland"]}, "categories": [{"id": "4bf58dd8d48988d10d941735", "name": "German Restaurant", "pluralName": "German Restaurants", "shortName": "German", "icon": {"prefix": "https://ss3.4sqi.net/img/categories_v2/food/german_", "suffix": ".png"}, "primary": true}], "photos": {"count": 0, "groups": []}}, "referralId": "e-0-5803b46438faaf1a8ffd6a30-45"}, {"reasons": {"count": 0, "items": [{"summary": "This spot is popular", "type": "general", "reasonName": "globalInteractionReason"}]}, "venue": {"id": "4b18388cf964a5200acf23e3", "name": "Le Midi", "location": {"address": "Greifenhagener Str. 17", "lat": 52.547169424024155, "lng": 13.415257964432527, "labeledLatLngs": [{"label": "display", "lat": 52.547169424024155, "lng": 13.415257964432527}], "distance": 688, "postalCode": "10437", "cc": "DE", "city": "Berlin", "state": "Berlin", "country": "Deutschland", "formattedAddress": ["Greifenhagener Str. 17", "10437 Berlin", "Deutschland"]}, "categories": [{"id": "4bf58dd8d48988d16d941735", "name": "Caf\u00e9", "pluralName": "Caf\u00e9s", "shortName": "Caf\u00e9", "icon": {"prefix": "https://ss3.4sqi.net/img/categories_v2/food/cafe_", "suffix": ".png"}, "primary": true}], "photos": {"count": 0, "groups": []}}, "referralId": "e-0-4b18388cf964a5200acf23e3-46"}, {"reasons": {"count": 0, "items": [{"summary": "This spot is popular", "type": "general", "reasonName": "globalInteractionReason"}]}, "venue": {"id": "4adcda8ef964a520834a21e3", "name": "Haus der Sinne", "location": {"address": "Ystader Str. 10", "lat": 52.54913651862875, "lng": 13.404115540552892, "labeledLatLngs": [{"label": "display", "lat": 52.54913651862875, "lng": 13.404115540552892}], "distance": 175, "postalCode": "10437", "cc": "DE", "city": "Berlin", "state": "Berlin", "country": "Deutschland", "formattedAddress": ["Ystader Str. 10", "10437 Berlin", "Deutschland"]}, "categories": [{"id": "4bf58dd8d48988d137941735", "name": "Theater", "pluralName": "Theaters", "shortName": "Theater", "icon": {"prefix": "https://ss3.4sqi.net/img/categories_v2/arts_entertainment/performingarts_theater_", "suffix": ".png"}, "primary": true}], "photos": {"count": 0, "groups": []}}, "referralId": "e-0-4adcda8ef964a520834a21e3-47"}, {"reasons": {"count": 0, "items": [{"summary": "This spot is popular", "type": "general", "reasonName": "globalInteractionReason"}]}, "venue": {"id": "4bd01759462cb7133fc4d707", "name": "Sonntagskaraoke im Mauerpark", "location": {"address": "Mauerpark", "crossStreet": "Schwedter Str.", "lat": 52.542874001995436, "lng": 13.40341355989825, "labeledLatLngs": [{"label": "display", "lat": 52.542874001995436, "lng": 13.40341355989825}], "distance": 819, "postalCode": "10437", "cc": "DE", "city": "Berlin", "state": "Berlin", "country": "Deutschland", "formattedAddress": ["Mauerpark (Schwedter Str.)", "10437 Berlin", "Deutschland"]}, "categories": [{"id": "4bf58dd8d48988d120941735", "name": "Karaoke Bar", "pluralName": "Karaoke Bars", "shortName": "Karaoke", "icon": {"prefix": "https://ss3.4sqi.net/img/categories_v2/nightlife/karaoke_", "suffix": ".png"}, "primary": true}], "photos": {"count": 0, "groups": []}}, "referralId": "e-0-4bd01759462cb7133fc4d707-48"}, {"reasons": {"count": 0, "items": [{"summary": "This spot is popular", "type": "general", "reasonName": "globalInteractionReason"}]}, "venue": {"id": "4b48eb5bf964a5205b5d26e3", "name": "Mamay", "location": {"address": "Sch\u00f6nhauser Allee 61", "lat": 52.54557148072443, "lng": 13.413206934928894, "labeledLatLngs": [{"label": "display", "lat": 52.54557148072443, "lng": 13.413206934928894}], "distance": 684, "postalCode": "10437", "cc": "DE", "city": "Berlin", "state": "Berlin", "country": "Deutschland", "formattedAddress": ["Sch\u00f6nhauser Allee 61", "10437 Berlin", "Deutschland"]}, "categories": [{"id": "4bf58dd8d48988d14a941735", "name": "Vietnamese Restaurant", "pluralName": "Vietnamese Restaurants", "shortName": "Vietnamese", "icon": {"prefix": "https://ss3.4sqi.net/img/categories_v2/food/vietnamese_", "suffix": ".png"}, "primary": true}], "photos": {"count": 0, "groups": []}}, "referralId": "e-0-4b48eb5bf964a5205b5d26e3-49"}, {"reasons": {"count": 0, "items": [{"summary": "This spot is popular", "type": "general", "reasonName": "globalInteractionReason"}]}, "venue": {"id": "4d987d7e97d06ea880a4340b", "name": "Kleingartenanlage Bornholm II e.V.", "location": {"address": "Ibsenstra\u00dfe", "lat": 52.556461225965066, "lng": 13.404135645633488, "labeledLatLngs": [{"label": "display", "lat": 52.556461225965066, "lng": 13.404135645633488}], "distance": 730, "postalCode": "10439", "cc": "DE", "city": "Berlin", "state": "Berlin", "country": "Deutschland", "formattedAddress": ["Ibsenstra\u00dfe", "10439 Berlin", "Deutschland"]}, "categories": [{"id": "4bf58dd8d48988d15a941735", "name": "Garden", "pluralName": "Gardens", "shortName": "Garden", "icon": {"prefix": "https://ss3.4sqi.net/img/categories_v2/parks_outdoors/garden_", "suffix": ".png"}, "primary": true}], "photos": {"count": 0, "groups": []}}, "referralId": "e-0-4d987d7e97d06ea880a4340b-50"}, {"reasons": {"count": 0, "items": [{"summary": "This spot is popular", "type": "general", "reasonName": "globalInteractionReason"}]}, "venue": {"id": "4de93e9952b1741cdb17e0cd", "name": "Hokey Pokey", "location": {"address": "Stargarder Str. 72-73", "lat": 52.54676547402726, "lng": 13.417608402042815, "labeledLatLngs": [{"label": "display", "lat": 52.54676547402726, "lng": 13.417608402042815}], "distance": 850, "postalCode": "10437", "cc": "DE", "neighborhood": "Sch\u00f6nhauser Allee-Nord", "city": "Berlin", "state": "Berlin", "country": "Deutschland", "formattedAddress": ["Stargarder Str. 72-73", "10437 Berlin", "Deutschland"]}, "categories": [{"id": "4bf58dd8d48988d1c9941735", "name": "Ice Cream Shop", "pluralName": "Ice Cream Shops", "shortName": "Ice Cream", "icon": {"prefix": "https://ss3.4sqi.net/img/categories_v2/food/icecream_", "suffix": ".png"}, "primary": true}], "photos": {"count": 0, "groups": []}}, "referralId": "e-0-4de93e9952b1741cdb17e0cd-51"}, {"reasons": {"count": 0, "items": [{"summary": "This spot is popular", "type": "general", "reasonName": "globalInteractionReason"}]}, "venue": {"id": "4dc3f8992271f2705106d1e2", "name": "Prenzl Apotheke", "location": {"address": "Sch\u00f6nhauser Allee 81", "lat": 52.55022785170975, "lng": 13.41395053780296, "labeledLatLngs": [{"label": "display", "lat": 52.55022785170975, "lng": 13.41395053780296}], "distance": 522, "postalCode": "10439", "cc": "DE", "city": "Berlin", "state": "Berlin", "country": "Deutschland", "formattedAddress": ["Sch\u00f6nhauser Allee 81", "10439 Berlin", "Deutschland"]}, "categories": [{"id": "4bf58dd8d48988d10f951735", "name": "Pharmacy", "pluralName": "Pharmacies", "shortName": "Pharmacy", "icon": {"prefix": "https://ss3.4sqi.net/img/categories_v2/shops/pharmacy_", "suffix": ".png"}, "primary": true}], "photos": {"count": 0, "groups": []}}, "referralId": "e-0-4dc3f8992271f2705106d1e2-52"}, {"reasons": {"count": 0, "items": [{"summary": "This spot is popular", "type": "general", "reasonName": "globalInteractionReason"}]}, "venue": {"id": "4b24dd41f964a520386a24e3", "name": "Caf\u00e9 Milchbart", "location": {"address": "Paul-Robeson-Str. 6", "lat": 52.552332131592664, "lng": 13.411752938228044, "labeledLatLngs": [{"label": "display", "lat": 52.552332131592664, "lng": 13.411752938228044}], "distance": 452, "postalCode": "10439", "cc": "DE", "city": "Berlin", "state": "Berlin", "country": "Deutschland", "formattedAddress": ["Paul-Robeson-Str. 6", "10439 Berlin", "Deutschland"]}, "categories": [{"id": "4bf58dd8d48988d16d941735", "name": "Caf\u00e9", "pluralName": "Caf\u00e9s", "shortName": "Caf\u00e9", "icon": {"prefix": "https://ss3.4sqi.net/img/categories_v2/food/cafe_", "suffix": ".png"}, "primary": true}], "photos": {"count": 0, "groups": []}}, "referralId": "e-0-4b24dd41f964a520386a24e3-53"}, {"reasons": {"count": 0, "items": [{"summary": "This spot is popular", "type": "general", "reasonName": "globalInteractionReason"}]}, "venue": {"id": "4bbdfddaf57ba59324baaeb9", "name": "Caf\u00e9 Meta", "location": {"address": "Am Falkplatz 1", "crossStreet": "Gaudystr.", "lat": 52.545803100910156, "lng": 13.406093716621399, "labeledLatLngs": [{"label": "display", "lat": 52.545803100910156, "lng": 13.406093716621399}], "distance": 470, "postalCode": "10437", "cc": "DE", "city": "Berlin", "state": "Berlin", "country": "Deutschland", "formattedAddress": ["Am Falkplatz 1 (Gaudystr.)", "10437 Berlin", "Deutschland"]}, "categories": [{"id": "52e81612bcbc57f1066b7a00", "name": "Comfort Food Restaurant", "pluralName": "Comfort Food Restaurants", "shortName": "Comfort Food", "icon": {"prefix": "https://ss3.4sqi.net/img/categories_v2/food/default_", "suffix": ".png"}, "primary": true}], "photos": {"count": 0, "groups": []}}, "referralId": "e-0-4bbdfddaf57ba59324baaeb9-54"}, {"reasons": {"count": 0, "items": [{"summary": "This spot is popular", "type": "general", "reasonName": "globalInteractionReason"}]}, "venue": {"id": "55b0d184498ec2c7ef77e14c", "name": "Zum Starken August", "location": {"address": "Sch\u00f6nhauser Allee 56", "lat": 52.54370868802825, "lng": 13.412740230560303, "labeledLatLngs": [{"label": "display", "lat": 52.54370868802825, "lng": 13.412740230560303}], "distance": 829, "postalCode": "10437", "cc": "DE", "city": "Berlin", "state": "Berlin", "country": "Deutschland", "formattedAddress": ["Sch\u00f6nhauser Allee 56", "10437 Berlin", "Deutschland"]}, "categories": [{"id": "4bf58dd8d48988d116941735", "name": "Bar", "pluralName": "Bars", "shortName": "Bar", "icon": {"prefix": "https://ss3.4sqi.net/img/categories_v2/nightlife/pub_", "suffix": ".png"}, "primary": true}], "photos": {"count": 0, "groups": []}}, "referralId": "e-0-55b0d184498ec2c7ef77e14c-55"}, {"reasons": {"count": 0, "items": [{"summary": "This spot is popular", "type": "general", "reasonName": "globalInteractionReason"}]}, "venue": {"id": "4bf52250ff90c9b65cf55528", "name": "Thanh Long", "location": {"address": "Sch\u00f6nhauser Allee 104", "lat": 52.55271295211926, "lng": 13.414343028877878, "labeledLatLngs": [{"label": "display", "lat": 52.55271295211926, "lng": 13.414343028877878}], "distance": 624, "postalCode": "10439", "cc": "DE", "city": "Berlin", "state": "Berlin", "country": "Deutschland", "formattedAddress": ["Sch\u00f6nhauser Allee 104", "10439 Berlin", "Deutschland"]}, "categories": [{"id": "4bf58dd8d48988d14a941735", "name": "Vietnamese Restaurant", "pluralName": "Vietnamese Restaurants", "shortName": "Vietnamese", "icon": {"prefix": "https://ss3.4sqi.net/img/categories_v2/food/vietnamese_", "suffix": ".png"}, "primary": true}], "photos": {"count": 0, "groups": []}}, "referralId": "e-0-4bf52250ff90c9b65cf55528-56"}, {"reasons": {"count": 0, "items": [{"summary": "This spot is popular", "type": "general", "reasonName": "globalInteractionReason"}]}, "venue": {"id": "4af1be23f964a520b2e221e3", "name": "Arnimplatz", "location": {"address": "Paul-Robeson-Str.", "crossStreet": "Schivelbeiner Str.", "lat": 52.55367546440812, "lng": 13.407206888364364, "labeledLatLngs": [{"label": "display", "lat": 52.55367546440812, "lng": 13.407206888364364}], "distance": 411, "postalCode": "10439", "cc": "DE", "city": "Berlin", "state": "Berlin", "country": "Deutschland", "formattedAddress": ["Paul-Robeson-Str. (Schivelbeiner Str.)", "10439 Berlin", "Deutschland"]}, "categories": [{"id": "4bf58dd8d48988d163941735", "name": "Park", "pluralName": "Parks", "shortName": "Park", "icon": {"prefix": "https://ss3.4sqi.net/img/categories_v2/parks_outdoors/park_", "suffix": ".png"}, "primary": true}], "photos": {"count": 0, "groups": []}}, "referralId": "e-0-4af1be23f964a520b2e221e3-57"}, {"reasons": {"count": 0, "items": [{"summary": "This spot is popular", "type": "general", "reasonName": "globalInteractionReason"}]}, "venue": {"id": "4f6b1c94e4b0a9c2c159d96e", "name": "Cafe Rhino", "location": {"address": "Rhinower Str. 5", "crossStreet": "Kopenhagener Str.", "lat": 52.54846175740072, "lng": 13.409976094261825, "labeledLatLngs": [{"label": "display", "lat": 52.54846175740072, "lng": 13.409976094261825}], "distance": 307, "postalCode": "10437", "cc": "DE", "city": "Berlin", "state": "Berlin", "country": "Deutschland", "formattedAddress": ["Rhinower Str. 5 (Kopenhagener Str.)", "10437 Berlin", "Deutschland"]}, "categories": [{"id": "4bf58dd8d48988d16d941735", "name": "Caf\u00e9", "pluralName": "Caf\u00e9s", "shortName": "Caf\u00e9", "icon": {"prefix": "https://ss3.4sqi.net/img/categories_v2/food/cafe_", "suffix": ".png"}, "primary": true}], "photos": {"count": 0, "groups": []}}, "referralId": "e-0-4f6b1c94e4b0a9c2c159d96e-58"}, {"reasons": {"count": 0, "items": [{"summary": "This spot is popular", "type": "general", "reasonName": "globalInteractionReason"}]}, "venue": {"id": "4f99b2f1e4b03f9bd57e35e0", "name": "Finn15", "location": {"address": "Finnl\u00e4ndische Stra\u00dfe 15", "lat": 52.55366028819812, "lng": 13.401536877785675, "labeledLatLngs": [{"label": "display", "lat": 52.55366028819812, "lng": 13.401536877785675}], "distance": 514, "postalCode": "10439", "cc": "DE", "city": "Berlin", "state": "Berlin", "country": "Deutschland", "formattedAddress": ["Finnl\u00e4ndische Stra\u00dfe 15", "10439 Berlin", "Deutschland"]}, "categories": [{"id": "4bf58dd8d48988d121941735", "name": "Lounge", "pluralName": "Lounges", "shortName": "Lounge", "icon": {"prefix": "https://ss3.4sqi.net/img/categories_v2/nightlife/default_", "suffix": ".png"}, "primary": true}], "photos": {"count": 0, "groups": []}, "venuePage": {"id": "47307490"}}, "referralId": "e-0-4f99b2f1e4b03f9bd57e35e0-59"}, {"reasons": {"count": 0, "items": [{"summary": "This spot is popular", "type": "general", "reasonName": "globalInteractionReason"}]}, "venue": {"id": "53491e40498e1fa85ec541c9", "name": "Kirschbl\u00fctenweg", "location": {"address": "Bornhomer Str.", "crossStreet": "Esplanade", "lat": 52.555886, "lng": 13.398573, "labeledLatLngs": [{"label": "display", "lat": 52.555886, "lng": 13.398573}], "distance": 833, "postalCode": "13187", "cc": "DE", "city": "Berlin", "state": "Berlin", "country": "Deutschland", "formattedAddress": ["Bornhomer Str. (Esplanade)", "13187 Berlin", "Deutschland"]}, "categories": [{"id": "4bf58dd8d48988d159941735", "name": "Trail", "pluralName": "Trails", "shortName": "Trail", "icon": {"prefix": "https://ss3.4sqi.net/img/categories_v2/parks_outdoors/hikingtrail_", "suffix": ".png"}, "primary": true}], "photos": {"count": 0, "groups": []}}, "referralId": "e-0-53491e40498e1fa85ec541c9-60"}, {"reasons": {"count": 0, "items": [{"summary": "This spot is popular", "type": "general", "reasonName": "globalInteractionReason"}]}, "venue": {"id": "4e0f5c3ab0fb59de67dfbef9", "name": "Asiak\u00fcche Phuoc", "location": {"address": "Schivelbeiner Stra\u00dfe 26", "lat": 52.55129978077859, "lng": 13.405170043818746, "labeledLatLngs": [{"label": "display", "lat": 52.55129978077859, "lng": 13.405170043818746}], "distance": 158, "postalCode": "10439", "cc": "DE", "neighborhood": "Nordische Viertel", "city": "Berlin", "state": "Berlin", "country": "Deutschland", "formattedAddress": ["Schivelbeiner Stra\u00dfe 26", "10439 Prenzlauer Berg", "Deutschland"]}, "categories": [{"id": "4bf58dd8d48988d14a941735", "name": "Vietnamese Restaurant", "pluralName": "Vietnamese Restaurants", "shortName": "Vietnamese", "icon": {"prefix": "https://ss3.4sqi.net/img/categories_v2/food/vietnamese_", "suffix": ".png"}, "primary": true}], "photos": {"count": 0, "groups": []}}, "referralId": "e-0-4e0f5c3ab0fb59de67dfbef9-61"}, {"reasons": {"count": 0, "items": [{"summary": "This spot is popular", "type": "general", "reasonName": "globalInteractionReason"}]}, "venue": {"id": "4efeaf0af9abd5b38f7f00a8", "name": "Konditorei Krautzig", "location": {"address": "Sch\u00f6nhauser Allee 126", "lat": 52.546301261612605, "lng": 13.413970413342586, "labeledLatLngs": [{"label": "display", "lat": 52.546301261612605, "lng": 13.413970413342586}], "distance": 667, "postalCode": "10437", "cc": "DE", "city": "Berlin", "state": "Berlin", "country": "Deutschland", "formattedAddress": ["Sch\u00f6nhauser Allee 126", "10437 Berlin", "Deutschland"]}, "categories": [{"id": "4bf58dd8d48988d16a941735", "name": "Bakery", "pluralName": "Bakeries", "shortName": "Bakery", "icon": {"prefix": "https://ss3.4sqi.net/img/categories_v2/food/bakery_", "suffix": ".png"}, "primary": true}], "photos": {"count": 0, "groups": []}}, "referralId": "e-0-4efeaf0af9abd5b38f7f00a8-62"}, {"reasons": {"count": 0, "items": [{"summary": "This spot is popular", "type": "general", "reasonName": "globalInteractionReason"}]}, "venue": {"id": "4ff43e91e4b05ae522c86f34", "name": "Caff\u00e8 Monelli", "location": {"address": "Greifenhagener Stra\u00dfe 53", "lat": 52.547962, "lng": 13.415492, "labeledLatLngs": [{"label": "display", "lat": 52.547962, "lng": 13.415492}], "distance": 666, "postalCode": "10437", "cc": "DE", "city": "Berlin", "state": "Berlin", "country": "Deutschland", "formattedAddress": ["Greifenhagener Stra\u00dfe 53", "10437 Berlin", "Deutschland"]}, "categories": [{"id": "4bf58dd8d48988d16d941735", "name": "Caf\u00e9", "pluralName": "Caf\u00e9s", "shortName": "Caf\u00e9", "icon": {"prefix": "https://ss3.4sqi.net/img/categories_v2/food/cafe_", "suffix": ".png"}, "primary": true}], "photos": {"count": 0, "groups": []}}, "referralId": "e-0-4ff43e91e4b05ae522c86f34-63"}, {"reasons": {"count": 0, "items": [{"summary": "This spot is popular", "type": "general", "reasonName": "globalInteractionReason"}]}, "venue": {"id": "5053569be4b02204c1e360c1", "name": "BadFish", "location": {"address": "Stargarder Str. 14", "lat": 52.54668740995205, "lng": 13.417764298661544, "labeledLatLngs": [{"label": "display", "lat": 52.54668740995205, "lng": 13.417764298661544}], "distance": 864, "postalCode": "10439", "cc": "DE", "city": "Berlin", "state": "Berlin", "country": "Deutschland", "formattedAddress": ["Stargarder Str. 14", "10439 Berlin", "Deutschland"]}, "categories": [{"id": "4bf58dd8d48988d116941735", "name": "Bar", "pluralName": "Bars", "shortName": "Bar", "icon": {"prefix": "https://ss3.4sqi.net/img/categories_v2/nightlife/pub_", "suffix": ".png"}, "primary": true}], "photos": {"count": 0, "groups": []}, "venuePage": {"id": "39225621"}}, "referralId": "e-0-5053569be4b02204c1e360c1-64"}, {"reasons": {"count": 0, "items": [{"summary": "This spot is popular", "type": "general", "reasonName": "globalInteractionReason"}]}, "venue": {"id": "5443e763498edf77dae81625", "name": "Minty", "location": {"address": "Sch\u00f6nhauser Allee 134", "lat": 52.54439034405498, "lng": 13.412349759782176, "labeledLatLngs": [{"label": "display", "lat": 52.54439034405498, "lng": 13.412349759782176}], "distance": 751, "cc": "DE", "city": "Berlin", "state": "Berlin", "country": "Deutschland", "formattedAddress": ["Sch\u00f6nhauser Allee 134", "Berlin", "Deutschland"]}, "categories": [{"id": "4bf58dd8d48988d14a941735", "name": "Vietnamese Restaurant", "pluralName": "Vietnamese Restaurants", "shortName": "Vietnamese", "icon": {"prefix": "https://ss3.4sqi.net/img/categories_v2/food/vietnamese_", "suffix": ".png"}, "primary": true}], "photos": {"count": 0, "groups": []}}, "referralId": "e-0-5443e763498edf77dae81625-65"}, {"reasons": {"count": 0, "items": [{"summary": "This spot is popular", "type": "general", "reasonName": "globalInteractionReason"}]}, "venue": {"id": "4b7688a4f964a520d9502ee3", "name": "Black Dog Comics", "location": {"address": "Rodenbergstr.", "crossStreet": "Sch\u00f6nhauser Allee", "lat": 52.5506137, "lng": 13.4178893, "labeledLatLngs": [{"label": "display", "lat": 52.5506137, "lng": 13.4178893}], "distance": 790, "postalCode": "10439", "cc": "DE", "neighborhood": "Sch\u00f6nhauser Allee-Nord", "city": "Berlin", "state": "Berlin", "country": "Deutschland", "formattedAddress": ["Rodenbergstr. (Sch\u00f6nhauser Allee)", "10439 Berlin", "Deutschland"]}, "categories": [{"id": "52f2ab2ebcbc57f1066b8b18", "name": "Comic Shop", "pluralName": "Comic Shops", "shortName": "Comic Shop", "icon": {"prefix": "https://ss3.4sqi.net/img/categories_v2/shops/comic_", "suffix": ".png"}, "primary": true}], "photos": {"count": 0, "groups": []}, "venuePage": {"id": "128372000"}}, "referralId": "e-0-4b7688a4f964a520d9502ee3-66"}, {"reasons": {"count": 0, "items": [{"summary": "This spot is popular", "type": "general", "reasonName": "globalInteractionReason"}]}, "venue": {"id": "4b44db07f964a5204bfe25e3", "name": "Zia Maria", "location": {"address": "Pappelallee 32a", "lat": 52.54595611949305, "lng": 13.41762881944121, "labeledLatLngs": [{"label": "display", "lat": 52.54595611949305, "lng": 13.41762881944121}], "distance": 894, "postalCode": "10437", "cc": "DE", "city": "Berlin", "state": "Berlin", "country": "Deutschland", "formattedAddress": ["Pappelallee 32a", "10437 Berlin", "Deutschland"]}, "categories": [{"id": "4bf58dd8d48988d1ca941735", "name": "Pizza Place", "pluralName": "Pizza Places", "shortName": "Pizza", "icon": {"prefix": "https://ss3.4sqi.net/img/categories_v2/food/pizza_", "suffix": ".png"}, "primary": true}], "photos": {"count": 0, "groups": []}}, "referralId": "e-0-4b44db07f964a5204bfe25e3-67"}, {"reasons": {"count": 0, "items": [{"summary": "This spot is popular", "type": "general", "reasonName": "globalInteractionReason"}]}, "venue": {"id": "5706a2fe498e60ef83efa4ff", "name": "BIO COMPANY", "location": {"address": "Gleimstr. 30-35", "lat": 52.54764030189013, "lng": 13.41206306057418, "labeledLatLngs": [{"label": "display", "lat": 52.54764030189013, "lng": 13.41206306057418}], "distance": 475, "postalCode": "10437", "cc": "DE", "city": "Berlin", "state": "Berlin", "country": "Deutschland", "formattedAddress": ["Gleimstr. 30-35", "10437 Berlin", "Deutschland"]}, "categories": [{"id": "52f2ab2ebcbc57f1066b8b45", "name": "Organic Grocery", "pluralName": "Organic Groceries", "shortName": "Organic Grocery", "icon": {"prefix": "https://ss3.4sqi.net/img/categories_v2/shops/food_grocery_", "suffix": ".png"}, "primary": true}], "photos": {"count": 0, "groups": []}, "venuePage": {"id": "478200943"}}, "referralId": "e-0-5706a2fe498e60ef83efa4ff-68"}, {"reasons": {"count": 0, "items": [{"summary": "This spot is popular", "type": "general", "reasonName": "globalInteractionReason"}]}, "venue": {"id": "4cf935a2ce1da1cdf85fcce1", "name": "denn's Biomarkt", "location": {"address": "Sch\u00f6nhauser Allee 80", "lat": 52.54951021968417, "lng": 13.414352849526024, "labeledLatLngs": [{"label": "display", "lat": 52.54951021968417, "lng": 13.414352849526024}], "distance": 551, "postalCode": "10439", "cc": "DE", "city": "Berlin", "state": "Berlin", "country": "Deutschland", "formattedAddress": ["Sch\u00f6nhauser Allee 80", "10439 Berlin", "Deutschland"]}, "categories": [{"id": "52f2ab2ebcbc57f1066b8b45", "name": "Organic Grocery", "pluralName": "Organic Groceries", "shortName": "Organic Grocery", "icon": {"prefix": "https://ss3.4sqi.net/img/categories_v2/shops/food_grocery_", "suffix": ".png"}, "primary": true}], "photos": {"count": 0, "groups": []}}, "referralId": "e-0-4cf935a2ce1da1cdf85fcce1-69"}, {"reasons": {"count": 0, "items": [{"summary": "This spot is popular", "type": "general", "reasonName": "globalInteractionReason"}]}, "venue": {"id": "4e0cc5d0d1646f1517899b81", "name": "Sophak Thai Massage", "location": {"address": "Pappelallee 76", "lat": 52.543561918676424, "lng": 13.41491217809899, "labeledLatLngs": [{"label": "display", "lat": 52.543561918676424, "lng": 13.41491217809899}], "distance": 928, "postalCode": "10437", "cc": "DE", "city": "Berlin", "state": "Berlin", "country": "Deutschland", "formattedAddress": ["Pappelallee 76", "10437 Berlin", "Deutschland"]}, "categories": [{"id": "52f2ab2ebcbc57f1066b8b3c", "name": "Massage Studio", "pluralName": "Massage Studios", "shortName": "Massage Studio", "icon": {"prefix": "https://ss3.4sqi.net/img/categories_v2/shops/spa_", "suffix": ".png"}, "primary": true}], "photos": {"count": 0, "groups": []}}, "referralId": "e-0-4e0cc5d0d1646f1517899b81-70"}, {"reasons": {"count": 0, "items": [{"summary": "This spot is popular", "type": "general", "reasonName": "globalInteractionReason"}]}, "venue": {"id": "5b922e726e46500039fbf285", "name": "Budni", "location": {"address": "Sch\u00f6nhauser Allee 120", "lat": 52.54850742079663, "lng": 13.413169384002686, "labeledLatLngs": [{"label": "display", "lat": 52.54850742079663, "lng": 13.413169384002686}], "distance": 498, "postalCode": "10437", "cc": "DE", "city": "Berlin", "state": "Berlin", "country": "Deutschland", "formattedAddress": ["Sch\u00f6nhauser Allee 120", "10437 Berlin", "Deutschland"]}, "categories": [{"id": "5745c2e4498e11e7bccabdbd", "name": "Drugstore", "pluralName": "Drugstores", "shortName": "Drugstore", "icon": {"prefix": "https://ss3.4sqi.net/img/categories_v2/shops/pharmacy_", "suffix": ".png"}, "primary": true}], "photos": {"count": 0, "groups": []}}, "referralId": "e-0-5b922e726e46500039fbf285-71"}, {"reasons": {"count": 0, "items": [{"summary": "This spot is popular", "type": "general", "reasonName": "globalInteractionReason"}]}, "venue": {"id": "4fe5b98be4b0176e691f5e08", "name": "Escendo", "location": {"address": "Gleimstr 21", "lat": 52.547317, "lng": 13.410643, "labeledLatLngs": [{"label": "display", "lat": 52.547317, "lng": 13.410643}], "distance": 424, "postalCode": "10437", "cc": "DE", "neighborhood": "Sch\u00f6nhauser Allee-Nord", "city": "Berlin", "state": "Berlin", "country": "Deutschland", "formattedAddress": ["Gleimstr 21", "10437 Berlin", "Deutschland"]}, "categories": [{"id": "4bf58dd8d48988d110941735", "name": "Italian Restaurant", "pluralName": "Italian Restaurants", "shortName": "Italian", "icon": {"prefix": "https://ss3.4sqi.net/img/categories_v2/food/italian_", "suffix": ".png"}, "primary": true}], "photos": {"count": 0, "groups": []}}, "referralId": "e-0-4fe5b98be4b0176e691f5e08-72"}, {"reasons": {"count": 0, "items": [{"summary": "This spot is popular", "type": "general", "reasonName": "globalInteractionReason"}]}, "venue": {"id": "56fd0500498e4f56df2da93a", "name": "OAK & ICE", "location": {"address": "Sch\u00f6nhauser Allee 52", "lat": 52.54286062146601, "lng": 13.412397943671383, "labeledLatLngs": [{"label": "display", "lat": 52.54286062146601, "lng": 13.412397943671383}], "distance": 900, "postalCode": "10437", "cc": "DE", "city": "Berlin", "state": "Berlin", "country": "Deutschland", "formattedAddress": ["Sch\u00f6nhauser Allee 52", "10437 Berlin", "Deutschland"]}, "categories": [{"id": "4bf58dd8d48988d1c9941735", "name": "Ice Cream Shop", "pluralName": "Ice Cream Shops", "shortName": "Ice Cream", "icon": {"prefix": "https://ss3.4sqi.net/img/categories_v2/food/icecream_", "suffix": ".png"}, "primary": true}], "photos": {"count": 0, "groups": []}, "venuePage": {"id": "173227555"}}, "referralId": "e-0-56fd0500498e4f56df2da93a-73"}, {"reasons": {"count": 0, "items": [{"summary": "This spot is popular", "type": "general", "reasonName": "globalInteractionReason"}]}, "venue": {"id": "4af5fd2ef964a520dbff21e3", "name": "Becketts Kopf", "location": {"address": "Pappelallee 64", "lat": 52.54548368774649, "lng": 13.417096063531707, "labeledLatLngs": [{"label": "display", "lat": 52.54548368774649, "lng": 13.417096063531707}], "distance": 892, "postalCode": "10437", "cc": "DE", "city": "Berlin", "state": "Berlin", "country": "Deutschland", "formattedAddress": ["Pappelallee 64", "10437 Berlin", "Deutschland"]}, "categories": [{"id": "4bf58dd8d48988d11e941735", "name": "Cocktail Bar", "pluralName": "Cocktail Bars", "shortName": "Cocktail", "icon": {"prefix": "https://ss3.4sqi.net/img/categories_v2/nightlife/cocktails_", "suffix": ".png"}, "primary": true}], "photos": {"count": 0, "groups": []}}, "referralId": "e-0-4af5fd2ef964a520dbff21e3-74"}, {"reasons": {"count": 0, "items": [{"summary": "This spot is popular", "type": "general", "reasonName": "globalInteractionReason"}]}, "venue": {"id": "4b0cafcbf964a520ff4023e3", "name": "Wok Show", "location": {"address": "Greifenhagener Str. 31", "crossStreet": "Kuglerstr.", "lat": 52.55205548775524, "lng": 13.419139854919306, "labeledLatLngs": [{"label": "display", "lat": 52.55205548775524, "lng": 13.419139854919306}], "distance": 901, "postalCode": "10437", "cc": "DE", "neighborhood": "Prenzlauer Berg", "city": "Berlin", "state": "Berlin", "country": "Deutschland", "formattedAddress": ["Greifenhagener Str. 31 (Kuglerstr.)", "10437 Berlin", "Deutschland"]}, "categories": [{"id": "4bf58dd8d48988d1f5931735", "name": "Dim Sum Restaurant", "pluralName": "Dim Sum Restaurants", "shortName": "Dim Sum", "icon": {"prefix": "https://ss3.4sqi.net/img/categories_v2/food/dimsum_", "suffix": ".png"}, "primary": true}], "photos": {"count": 0, "groups": []}}, "referralId": "e-0-4b0cafcbf964a520ff4023e3-75"}, {"reasons": {"count": 0, "items": [{"summary": "This spot is popular", "type": "general", "reasonName": "globalInteractionReason"}]}, "venue": {"id": "59b01c78f4b5252de07ede82", "name": "Pok\u00e9 Pelelina", "location": {"address": "Stargarder Str. 68", "lat": 52.546249985045755, "lng": 13.418940967025895, "labeledLatLngs": [{"label": "display", "lat": 52.546249985045755, "lng": 13.418940967025895}], "distance": 956, "postalCode": "10437", "cc": "DE", "neighborhood": "Prenzlauer Berg", "city": "Berlin", "state": "Berlin", "country": "Deutschland", "formattedAddress": ["Stargarder Str. 68", "10437 Berlin", "Deutschland"]}, "categories": [{"id": "52e81612bcbc57f1066b79fe", "name": "Hawaiian Restaurant", "pluralName": "Hawaiian Restaurants", "shortName": "Hawaiian", "icon": {"prefix": "https://ss3.4sqi.net/img/categories_v2/food/default_", "suffix": ".png"}, "primary": true}], "photos": {"count": 0, "groups": []}}, "referralId": "e-0-59b01c78f4b5252de07ede82-76"}, {"reasons": {"count": 0, "items": [{"summary": "This spot is popular", "type": "general", "reasonName": "globalInteractionReason"}]}, "venue": {"id": "52714b2e11d252b8e27b5c6f", "name": "Suzette", "location": {"address": "Pappelallee 15", "lat": 52.543356818522035, "lng": 13.414827973512976, "labeledLatLngs": [{"label": "display", "lat": 52.543356818522035, "lng": 13.414827973512976}], "distance": 943, "postalCode": "10437", "cc": "DE", "city": "Berlin", "state": "Berlin", "country": "Deutschland", "formattedAddress": ["Pappelallee 15", "10437 Berlin", "Deutschland"]}, "categories": [{"id": "52e81612bcbc57f1066b79f2", "name": "Creperie", "pluralName": "Creperies", "shortName": "Creperie", "icon": {"prefix": "https://ss3.4sqi.net/img/categories_v2/food/creperie_", "suffix": ".png"}, "primary": true}], "photos": {"count": 0, "groups": []}, "venuePage": {"id": "76940988"}}, "referralId": "e-0-52714b2e11d252b8e27b5c6f-77"}, {"reasons": {"count": 0, "items": [{"summary": "This spot is popular", "type": "general", "reasonName": "globalInteractionReason"}]}, "venue": {"id": "5471f736498ea09f2bcf22bb", "name": "Liquid Garden", "location": {"address": "Stargarder Str. 72", "lat": 52.54680914983472, "lng": 13.41750318547853, "labeledLatLngs": [{"label": "display", "lat": 52.54680914983472, "lng": 13.41750318547853}], "distance": 842, "postalCode": "10437", "cc": "DE", "city": "Berlin", "state": "Berlin", "country": "Deutschland", "formattedAddress": ["Stargarder Str. 72", "10437 Berlin", "Deutschland"]}, "categories": [{"id": "4bf58dd8d48988d112941735", "name": "Juice Bar", "pluralName": "Juice Bars", "shortName": "Juice Bar", "icon": {"prefix": "https://ss3.4sqi.net/img/categories_v2/food/juicebar_", "suffix": ".png"}, "primary": true}], "photos": {"count": 0, "groups": []}}, "referralId": "e-0-5471f736498ea09f2bcf22bb-78"}, {"reasons": {"count": 0, "items": [{"summary": "This spot is popular", "type": "general", "reasonName": "globalInteractionReason"}]}, "venue": {"id": "4bc06ffe2a89ef3b937df088", "name": "Kebaphaus Ilayda", "location": {"address": "Sch\u00f6nhauser Allee 109", "lat": 52.551377588902106, "lng": 13.413971262231195, "labeledLatLngs": [{"label": "display", "lat": 52.551377588902106, "lng": 13.413971262231195}], "distance": 544, "postalCode": "10439", "cc": "DE", "city": "Berlin", "state": "Berlin", "country": "Deutschland", "formattedAddress": ["Sch\u00f6nhauser Allee 109", "10439 Berlin", "Deutschland"]}, "categories": [{"id": "4bf58dd8d48988d10b941735", "name": "Falafel Restaurant", "pluralName": "Falafel Restaurants", "shortName": "Falafel", "icon": {"prefix": "https://ss3.4sqi.net/img/categories_v2/food/falafel_", "suffix": ".png"}, "primary": true}], "photos": {"count": 0, "groups": []}}, "referralId": "e-0-4bc06ffe2a89ef3b937df088-79"}, {"reasons": {"count": 0, "items": [{"summary": "This spot is popular", "type": "general", "reasonName": "globalInteractionReason"}]}, "venue": {"id": "577944d9498e3d8851d97c50", "name": "Hum vegan cuisine", "location": {"address": "Raumerstr. 38", "lat": 52.54365117699298, "lng": 13.41649562512907, "labeledLatLngs": [{"label": "display", "lat": 52.54365117699298, "lng": 13.41649562512907}], "distance": 992, "postalCode": "10437", "cc": "DE", "neighborhood": "Helmholtzkiez", "city": "Berlin", "state": "Berlin", "country": "Deutschland", "formattedAddress": ["Raumerstr. 38", "10437 Berlin", "Deutschland"]}, "categories": [{"id": "4bf58dd8d48988d14a941735", "name": "Vietnamese Restaurant", "pluralName": "Vietnamese Restaurants", "shortName": "Vietnamese", "icon": {"prefix": "https://ss3.4sqi.net/img/categories_v2/food/vietnamese_", "suffix": ".png"}, "primary": true}], "photos": {"count": 0, "groups": []}}, "referralId": "e-0-577944d9498e3d8851d97c50-80"}, {"reasons": {"count": 0, "items": [{"summary": "This spot is popular", "type": "general", "reasonName": "globalInteractionReason"}]}, "venue": {"id": "4b5aeda1f964a520b0da28e3", "name": "Signore Batistin", "location": {"address": "Stargarder Stra\u00dfe 16", "lat": 52.546101, "lng": 13.418705, "labeledLatLngs": [{"label": "display", "lat": 52.546101, "lng": 13.418705}], "distance": 950, "postalCode": "10437", "cc": "DE", "city": "Berlin", "state": "Berlin", "country": "Deutschland", "formattedAddress": ["Stargarder Stra\u00dfe 16", "10437 Berlin", "Deutschland"]}, "categories": [{"id": "4bf58dd8d48988d146941735", "name": "Deli / Bodega", "pluralName": "Delis / Bodegas", "shortName": "Deli / Bodega", "icon": {"prefix": "https://ss3.4sqi.net/img/categories_v2/food/deli_", "suffix": ".png"}, "primary": true}], "photos": {"count": 0, "groups": []}}, "referralId": "e-0-4b5aeda1f964a520b0da28e3-81"}, {"reasons": {"count": 0, "items": [{"summary": "This spot is popular", "type": "general", "reasonName": "globalInteractionReason"}]}, "venue": {"id": "54198830498e1a6158ad411f", "name": "Jute B\u00e4ckerei", "location": {"address": "Sch\u00f6nhauser Allee 52 a", "lat": 52.543033829514314, "lng": 13.412314631650354, "labeledLatLngs": [{"label": "display", "lat": 52.543033829514314, "lng": 13.412314631650354}], "distance": 880, "postalCode": "10437", "cc": "DE", "city": "Berlin", "state": "Berlin", "country": "Deutschland", "formattedAddress": ["Sch\u00f6nhauser Allee 52 a", "10437 Berlin", "Deutschland"]}, "categories": [{"id": "4bf58dd8d48988d16a941735", "name": "Bakery", "pluralName": "Bakeries", "shortName": "Bakery", "icon": {"prefix": "https://ss3.4sqi.net/img/categories_v2/food/bakery_", "suffix": ".png"}, "primary": true}], "photos": {"count": 0, "groups": []}}, "referralId": "e-0-54198830498e1a6158ad411f-82"}, {"reasons": {"count": 0, "items": [{"summary": "This spot is popular", "type": "general", "reasonName": "globalInteractionReason"}]}, "venue": {"id": "4b1ad41ff964a520b6f223e3", "name": "Van Hoa", "location": {"address": "Stargarder Str. 79", "lat": 52.54759282385181, "lng": 13.414642536350147, "labeledLatLngs": [{"label": "display", "lat": 52.54759282385181, "lng": 13.414642536350147}], "distance": 629, "postalCode": "10437", "cc": "DE", "city": "Berlin", "state": "Berlin", "country": "Deutschland", "formattedAddress": ["Stargarder Str. 79", "10437 Berlin", "Deutschland"]}, "categories": [{"id": "4bf58dd8d48988d14a941735", "name": "Vietnamese Restaurant", "pluralName": "Vietnamese Restaurants", "shortName": "Vietnamese", "icon": {"prefix": "https://ss3.4sqi.net/img/categories_v2/food/vietnamese_", "suffix": ".png"}, "primary": true}], "photos": {"count": 0, "groups": []}}, "referralId": "e-0-4b1ad41ff964a520b6f223e3-83"}, {"reasons": {"count": 0, "items": [{"summary": "This spot is popular", "type": "general", "reasonName": "globalInteractionReason"}]}, "venue": {"id": "4be533992457a593823cab15", "name": "Pakolat", "location": {"address": "Raumerstr. 40", "lat": 52.54381372971663, "lng": 13.416153352998345, "labeledLatLngs": [{"label": "display", "lat": 52.54381372971663, "lng": 13.416153352998345}], "distance": 963, "postalCode": "10437", "cc": "DE", "city": "Berlin", "state": "Berlin", "country": "Deutschland", "formattedAddress": ["Raumerstr. 40", "10437 Berlin", "Deutschland"]}, "categories": [{"id": "4bf58dd8d48988d1e0931735", "name": "Coffee Shop", "pluralName": "Coffee Shops", "shortName": "Coffee Shop", "icon": {"prefix": "https://ss3.4sqi.net/img/categories_v2/food/coffeeshop_", "suffix": ".png"}, "primary": true}], "photos": {"count": 0, "groups": []}}, "referralId": "e-0-4be533992457a593823cab15-84"}, {"reasons": {"count": 0, "items": [{"summary": "This spot is popular", "type": "general", "reasonName": "globalInteractionReason"}]}, "venue": {"id": "4fcfa2eae4b05e014d3050a2", "name": "Osmans T\u00f6chter", "location": {"address": "Pappelallee 15", "lat": 52.54316300819961, "lng": 13.414681008538409, "labeledLatLngs": [{"label": "display", "lat": 52.54316300819961, "lng": 13.414681008538409}], "distance": 954, "postalCode": "10437", "cc": "DE", "neighborhood": "Helmholtzkiez", "city": "Berlin", "state": "Berlin", "country": "Deutschland", "formattedAddress": ["Pappelallee 15", "10437 Berlin", "Deutschland"]}, "categories": [{"id": "4f04af1f2fb6e1c99f3db0bb", "name": "Turkish Restaurant", "pluralName": "Turkish Restaurants", "shortName": "Turkish", "icon": {"prefix": "https://ss3.4sqi.net/img/categories_v2/food/turkish_", "suffix": ".png"}, "primary": true}], "photos": {"count": 0, "groups": []}}, "referralId": "e-0-4fcfa2eae4b05e014d3050a2-85"}, {"reasons": {"count": 0, "items": [{"summary": "This spot is popular", "type": "general", "reasonName": "globalInteractionReason"}]}, "venue": {"id": "4b1a0e35f964a52041e723e3", "name": "Blumencaf\u00e9", "location": {"address": "Sch\u00f6nhauser Allee 127a", "lat": 52.54612798568233, "lng": 13.412913624488402, "labeledLatLngs": [{"label": "display", "lat": 52.54612798568233, "lng": 13.412913624488402}], "distance": 626, "postalCode": "10437", "cc": "DE", "city": "Berlin", "state": "Berlin", "country": "Deutschland", "formattedAddress": ["Sch\u00f6nhauser Allee 127a", "10437 Berlin", "Deutschland"]}, "categories": [{"id": "4bf58dd8d48988d16d941735", "name": "Caf\u00e9", "pluralName": "Caf\u00e9s", "shortName": "Caf\u00e9", "icon": {"prefix": "https://ss3.4sqi.net/img/categories_v2/food/cafe_", "suffix": ".png"}, "primary": true}], "photos": {"count": 0, "groups": []}}, "referralId": "e-0-4b1a0e35f964a52041e723e3-86"}, {"reasons": {"count": 0, "items": [{"summary": "This spot is popular", "type": "general", "reasonName": "globalInteractionReason"}]}, "venue": {"id": "4c45fd66f1b5c9b6bc2f78ef", "name": "Tortenwerkstatt", "location": {"address": "Gleimstr. 6", "lat": 52.54626615824266, "lng": 13.397768503628976, "labeledLatLngs": [{"label": "display", "lat": 52.54626615824266, "lng": 13.397768503628976}], "distance": 710, "postalCode": "13355", "cc": "DE", "city": "Berlin", "state": "Berlin", "country": "Deutschland", "formattedAddress": ["Gleimstr. 6", "13355 Berlin", "Deutschland"]}, "categories": [{"id": "4bf58dd8d48988d16d941735", "name": "Caf\u00e9", "pluralName": "Caf\u00e9s", "shortName": "Caf\u00e9", "icon": {"prefix": "https://ss3.4sqi.net/img/categories_v2/food/cafe_", "suffix": ".png"}, "primary": true}], "photos": {"count": 0, "groups": []}}, "referralId": "e-0-4c45fd66f1b5c9b6bc2f78ef-87"}, {"reasons": {"count": 0, "items": [{"summary": "This spot is popular", "type": "general", "reasonName": "globalInteractionReason"}]}, "venue": {"id": "5c714d25872f7d0039a39153", "name": "SPRO Scones Bakery & Coffee", "location": {"address": "Sch\u00f6nhauser Allee 50A", "lat": 52.542423, "lng": 13.412743, "labeledLatLngs": [{"label": "display", "lat": 52.542423, "lng": 13.412743}], "distance": 954, "postalCode": "10437", "cc": "DE", "city": "Berlin", "state": "Berlin", "country": "Deutschland", "formattedAddress": ["Sch\u00f6nhauser Allee 50A", "10437 Berlin", "Deutschland"]}, "categories": [{"id": "4bf58dd8d48988d16a941735", "name": "Bakery", "pluralName": "Bakeries", "shortName": "Bakery", "icon": {"prefix": "https://ss3.4sqi.net/img/categories_v2/food/bakery_", "suffix": ".png"}, "primary": true}], "photos": {"count": 0, "groups": []}}, "referralId": "e-0-5c714d25872f7d0039a39153-88"}, {"reasons": {"count": 0, "items": [{"summary": "This spot is popular", "type": "general", "reasonName": "globalInteractionReason"}]}, "venue": {"id": "5133921fe4b0fb518a15861e", "name": "Platz des 9. November 1989", "location": {"address": "Platz des 9. November 1989", "lat": 52.55484046427757, "lng": 13.399666307309772, "labeledLatLngs": [{"label": "display", "lat": 52.55484046427757, "lng": 13.399666307309772}], "distance": 696, "postalCode": "10439", "cc": "DE", "city": "Berlin", "state": "Berlin", "country": "Deutschland", "formattedAddress": ["Platz des 9. November 1989", "10439 Berlin", "Deutschland"]}, "categories": [{"id": "4bf58dd8d48988d164941735", "name": "Plaza", "pluralName": "Plazas", "shortName": "Plaza", "icon": {"prefix": "https://ss3.4sqi.net/img/categories_v2/parks_outdoors/plaza_", "suffix": ".png"}, "primary": true}], "photos": {"count": 0, "groups": []}}, "referralId": "e-0-5133921fe4b0fb518a15861e-89"}, {"reasons": {"count": 0, "items": [{"summary": "This spot is popular", "type": "general", "reasonName": "globalInteractionReason"}]}, "venue": {"id": "50277b7be4b031f7a25f6951", "name": "Vietnam-Aroma", "location": {"address": "Wichertstr. 5", "lat": 52.550274653699795, "lng": 13.415716389952063, "labeledLatLngs": [{"label": "display", "lat": 52.550274653699795, "lng": 13.415716389952063}], "distance": 641, "postalCode": "10439", "cc": "DE", "city": "Berlin", "state": "Berlin", "country": "Deutschland", "formattedAddress": ["Wichertstr. 5", "10439 Berlin", "Deutschland"]}, "categories": [{"id": "4bf58dd8d48988d14a941735", "name": "Vietnamese Restaurant", "pluralName": "Vietnamese Restaurants", "shortName": "Vietnamese", "icon": {"prefix": "https://ss3.4sqi.net/img/categories_v2/food/vietnamese_", "suffix": ".png"}, "primary": true}], "photos": {"count": 0, "groups": []}}, "referralId": "e-0-50277b7be4b031f7a25f6951-90"}, {"reasons": {"count": 0, "items": [{"summary": "This spot is popular", "type": "general", "reasonName": "globalInteractionReason"}]}, "venue": {"id": "535cffd7498e40a294172ad0", "name": "Schneiderei", "location": {"address": "Kuglerstr. 31", "lat": 52.55214401770024, "lng": 13.419189436197248, "labeledLatLngs": [{"label": "display", "lat": 52.55214401770024, "lng": 13.419189436197248}], "distance": 907, "postalCode": "10439", "cc": "DE", "city": "Berlin", "state": "Berlin", "country": "Deutschland", "formattedAddress": ["Kuglerstr. 31", "10439 Berlin", "Deutschland"]}, "categories": [{"id": "4bf58dd8d48988d16d941735", "name": "Caf\u00e9", "pluralName": "Caf\u00e9s", "shortName": "Caf\u00e9", "icon": {"prefix": "https://ss3.4sqi.net/img/categories_v2/food/cafe_", "suffix": ".png"}, "primary": true}], "photos": {"count": 0, "groups": []}}, "referralId": "e-0-535cffd7498e40a294172ad0-91"}, {"reasons": {"count": 0, "items": [{"summary": "This spot is popular", "type": "general", "reasonName": "globalInteractionReason"}]}, "venue": {"id": "5028f5b0e4b004413adef40a", "name": "Linnen", "location": {"address": "Eberswalder Str. 35", "crossStreet": "Topsstr.", "lat": 52.54144125924865, "lng": 13.408958315849304, "labeledLatLngs": [{"label": "display", "lat": 52.54144125924865, "lng": 13.408958315849304}], "distance": 973, "postalCode": "10437", "cc": "DE", "city": "Berlin", "state": "Berlin", "country": "Deutschland", "formattedAddress": ["Eberswalder Str. 35 (Topsstr.)", "10437 Berlin", "Deutschland"]}, "categories": [{"id": "4bf58dd8d48988d1f8931735", "name": "Bed & Breakfast", "pluralName": "Bed & Breakfasts", "shortName": "B & B", "icon": {"prefix": "https://ss3.4sqi.net/img/categories_v2/travel/bedandbreakfast_", "suffix": ".png"}, "primary": true}], "photos": {"count": 0, "groups": []}, "venuePage": {"id": "46192438"}}, "referralId": "e-0-5028f5b0e4b004413adef40a-92"}, {"reasons": {"count": 0, "items": [{"summary": "This spot is popular", "type": "general", "reasonName": "globalInteractionReason"}]}, "venue": {"id": "4b813652f964a520a49a30e3", "name": "Flohmarkt am Mauerpark", "location": {"address": "Bernauer Str. 63-64", "lat": 52.54158481216926, "lng": 13.402118682861328, "labeledLatLngs": [{"label": "display", "lat": 52.54158481216926, "lng": 13.402118682861328}], "distance": 980, "postalCode": "13355", "cc": "DE", "neighborhood": "Gesundbrunnen", "city": "Berlin", "state": "Berlin", "country": "Deutschland", "formattedAddress": ["Bernauer Str. 63-64", "13355 Berlin", "Deutschland"]}, "categories": [{"id": "4bf58dd8d48988d1f7941735", "name": "Flea Market", "pluralName": "Flea Markets", "shortName": "Flea Market", "icon": {"prefix": "https://ss3.4sqi.net/img/categories_v2/shops/fleamarket_", "suffix": ".png"}, "primary": true}], "photos": {"count": 0, "groups": []}}, "referralId": "e-0-4b813652f964a520a49a30e3-93"}, {"reasons": {"count": 0, "items": [{"summary": "This spot is popular", "type": "general", "reasonName": "globalInteractionReason"}]}, "venue": {"id": "4dbd6aaef7b1ab37dd754a70", "name": "Cholila", "location": {"address": "Gleimstr. 54", "crossStreet": "Am Falkplatz", "lat": 52.54683194099644, "lng": 13.403927694498824, "labeledLatLngs": [{"label": "display", "lat": 52.54683194099644, "lng": 13.403927694498824}], "distance": 388, "postalCode": "10437", "cc": "DE", "city": "Berlin", "state": "Berlin", "country": "Deutschland", "formattedAddress": ["Gleimstr. 54 (Am Falkplatz)", "10437 Berlin", "Deutschland"]}, "categories": [{"id": "4bf58dd8d48988d1c9941735", "name": "Ice Cream Shop", "pluralName": "Ice Cream Shops", "shortName": "Ice Cream", "icon": {"prefix": "https://ss3.4sqi.net/img/categories_v2/food/icecream_", "suffix": ".png"}, "primary": true}], "photos": {"count": 0, "groups": []}}, "referralId": "e-0-4dbd6aaef7b1ab37dd754a70-94"}, {"reasons": {"count": 0, "items": [{"summary": "This spot is popular", "type": "general", "reasonName": "globalInteractionReason"}]}, "venue": {"id": "5527c483498ea157a1b1a740", "name": "Friedl R\u00f6sterei & Kekse", "location": {"address": "Pappelallee 35", "lat": 52.546363202401665, "lng": 13.418019888019916, "labeledLatLngs": [{"label": "display", "lat": 52.546363202401665, "lng": 13.418019888019916}], "distance": 895, "postalCode": "10437", "cc": "DE", "city": "Berlin", "state": "Berlin", "country": "Deutschland", "formattedAddress": ["Pappelallee 35", "10437 Berlin", "Deutschland"]}, "categories": [{"id": "4bf58dd8d48988d16a941735", "name": "Bakery", "pluralName": "Bakeries", "shortName": "Bakery", "icon": {"prefix": "https://ss3.4sqi.net/img/categories_v2/food/bakery_", "suffix": ".png"}, "primary": true}], "photos": {"count": 0, "groups": []}}, "referralId": "e-0-5527c483498ea157a1b1a740-95"}, {"reasons": {"count": 0, "items": [{"summary": "This spot is popular", "type": "general", "reasonName": "globalInteractionReason"}]}, "venue": {"id": "4bf030c8c601a5936863c3d1", "name": "Spielplatz hinter der Gethsemanekirche", "location": {"address": "Gethsemanestr. 3", "lat": 52.547864730342816, "lng": 13.416940076780646, "labeledLatLngs": [{"label": "display", "lat": 52.547864730342816, "lng": 13.416940076780646}], "distance": 763, "postalCode": "10437", "cc": "DE", "city": "Berlin", "state": "Berlin", "country": "Deutschland", "formattedAddress": ["Gethsemanestr. 3", "10437 Berlin", "Deutschland"]}, "categories": [{"id": "4bf58dd8d48988d1e7941735", "name": "Playground", "pluralName": "Playgrounds", "shortName": "Playground", "icon": {"prefix": "https://ss3.4sqi.net/img/categories_v2/parks_outdoors/playground_", "suffix": ".png"}, "primary": true}], "photos": {"count": 0, "groups": []}}, "referralId": "e-0-4bf030c8c601a5936863c3d1-96"}, {"reasons": {"count": 0, "items": [{"summary": "This spot is popular", "type": "general", "reasonName": "globalInteractionReason"}]}, "venue": {"id": "55682d59498efaa3cd2b0f0c", "name": "Hostelo Berlin", "location": {"address": "J\u00fclicher Str. 14", "crossStreet": "Behmstr.", "lat": 52.55045176738218, "lng": 13.39151534555728, "labeledLatLngs": [{"label": "display", "lat": 52.55045176738218, "lng": 13.39151534555728}], "distance": 998, "postalCode": "13357", "cc": "DE", "city": "Berlin", "state": "Berlin", "country": "Deutschland", "formattedAddress": ["J\u00fclicher Str. 14 (Behmstr.)", "13357 Berlin", "Deutschland"]}, "categories": [{"id": "4bf58dd8d48988d1ee931735", "name": "Hostel", "pluralName": "Hostels", "shortName": "Hostel", "icon": {"prefix": "https://ss3.4sqi.net/img/categories_v2/travel/hostel_", "suffix": ".png"}, "primary": true}], "photos": {"count": 0, "groups": []}}, "referralId": "e-0-55682d59498efaa3cd2b0f0c-97"}, {"reasons": {"count": 0, "items": [{"summary": "This spot is popular", "type": "general", "reasonName": "globalInteractionReason"}]}, "venue": {"id": "4db9e041cda173a95d0bc507", "name": "Birkenw\u00e4ldchen im Mauerpark", "location": {"address": "Schwedter Str.", "crossStreet": "Falkplatz", "lat": 52.545744380415364, "lng": 13.401185274124144, "labeledLatLngs": [{"label": "display", "lat": 52.545744380415364, "lng": 13.401185274124144}], "distance": 587, "postalCode": "10437", "cc": "DE", "city": "Berlin", "state": "Berlin", "country": "Deutschland", "formattedAddress": ["Schwedter Str. (Falkplatz)", "10437 Berlin", "Deutschland"]}, "categories": [{"id": "52e81612bcbc57f1066b7a23", "name": "Forest", "pluralName": "Forests", "shortName": "Forest", "icon": {"prefix": "https://ss3.4sqi.net/img/categories_v2/parks_outdoors/default_", "suffix": ".png"}, "primary": true}], "photos": {"count": 0, "groups": []}}, "referralId": "e-0-4db9e041cda173a95d0bc507-98"}, {"reasons": {"count": 0, "items": [{"summary": "This spot is popular", "type": "general", "reasonName": "globalInteractionReason"}]}, "venue": {"id": "560984da498e263b8162eb13", "name": "Blackbeards", "location": {"address": "Pappelallee 55", "lat": 52.546853, "lng": 13.418332, "labeledLatLngs": [{"label": "display", "lat": 52.546853, "lng": 13.418332}], "distance": 891, "postalCode": "10437", "cc": "DE", "city": "Berlin", "state": "Berlin", "country": "Deutschland", "formattedAddress": ["Pappelallee 55", "10437 Berlin", "Deutschland"]}, "categories": [{"id": "4bf58dd8d48988d16c941735", "name": "Burger Joint", "pluralName": "Burger Joints", "shortName": "Burgers", "icon": {"prefix": "https://ss3.4sqi.net/img/categories_v2/food/burger_", "suffix": ".png"}, "primary": true}], "photos": {"count": 0, "groups": []}}, "referralId": "e-0-560984da498e263b8162eb13-99"}]