[{"reasons": {"count": 0, "items": [{"summary": "This spot is popular", "type": "general", "reasonName": "globalInteractionReason"}]}, "venue": {"id": "4af9ae6af964a5204c1322e3", "name": "Weinladen Schmidt", "location": {"address": "Kollwitzstr. 50", "lat": 52.534699796594396, "lng": 13.416316645041784, "labeledLatLngs": [{"label": "display", "lat": 52.534699796594396, "lng": 13.416316645041784}], "distance": 170, "postalCode": "10405", "cc": "DE", "city": "Berlin", "state": "Berlin", "country": "Deutschland", "formattedAddress": ["Kollwitzstr. 50", "10405 Berlin", "Deutschland"]}, "categories": [{"id": "4bf58dd8d48988d119951735", "name": "Wine Shop", "pluralName": "Wine Shops", "shortName": "Wine Shop", "icon": {"prefix": "https://ss3.4sqi.net/img/categories_v2/shops/food_wineshop_", "suffix": ".png"}, "primary": true}], "photos": {"count": 0, "groups": []}}, "referralId": "e-0-4af9ae6af964a5204c1322e3-0"}, {"reasons": {"count": 0, "items": [{"summary": "This spot is popular", "type": "general", "reasonName": "globalInteractionReason"}]}, "venue": {"id": "5c30be5d135b39002c562868", "name": "Le Belfort", "location": {"address": "Kollwitzstra\u00dfe 28", "crossStreet": "Belforter", "lat": 52.533332, "lng": 13.415582, "labeledLatLngs": [{"label": "display", "lat": 52.533332, "lng": 13.415582}], "distance": 211, "postalCode": "10405", "cc": "DE", "city": "Berlin", "state": "Berlin", "country": "Deutschland", "formattedAddress": ["Kollwitzstra\u00dfe 28 (Belforter)", "10405 Berlin", "Deutschland"]}, "categories": [{"id": "52e81612bcbc57f1066b79f1", "name": "Bistro", "pluralName": "Bistros", "shortName": "Bistro", "icon": {"prefix": "https://ss3.4sqi.net/img/categories_v2/food/default_", "suffix": ".png"}, "primary": true}], "photos": {"count": 0, "groups": []}}, "referralId": "e-0-5c30be5d135b39002c562868-1"}, {"reasons": {"count": 0, "items": [{"summary": "This spot is popular", "type": "general", "reasonName": "globalInteractionReason"}]}, "venue": {"id": "50cf70ede4b05e0e62b2d398", "name": "HERMAN", "location": {"address": "Sch\u00f6nhauser Allee 173", "lat": 52.5323916321789, "lng": 13.412292397754532, "labeledLatLngs": [{"label": "display", "lat": 52.5323916321789, "lng": 13.412292397754532}], "distance": 298, "postalCode": "10119", "cc": "DE", "neighborhood": "Prenzlauer Berg", "city": "Berlin", "state": "Berlin", "country": "Deutschland", "formattedAddress": ["Sch\u00f6nhauser Allee 173", "10119 Berlin", "Deutschland"]}, "categories": [{"id": "56aa371ce4b08b9a8d57356c", "name": "Beer Bar", "pluralName": "Beer Bars", "shortName": "Beer Bar", "icon": {"prefix": "https://ss3.4sqi.net/img/categories_v2/nightlife/pub_", "suffix": ".png"}, "primary": true}], "photos": {"count": 0, "groups": []}, "venuePage": {"id": "52309861"}}, "referralId": "e-0-50cf70ede4b05e0e62b2d398-2"}, {"reasons": {"count": 0, "items": [{"summary": "This spot is popular", "type": "general", "reasonName": "globalInteractionReason"}]}, "venue": {"id": "5356d1db498ec5d548edc84f", "name": "Baden im Wein", "location": {"address": "Sch\u00f6nhauser Allee 155", "lat": 52.537881, "lng": 13.411955, "labeledLatLngs": [{"label": "display", "lat": 52.537881, "lng": 13.411955}], "distance": 354, "postalCode": "10435", "cc": "DE", "city": "Berlin", "state": "Berlin", "country": "Deutschland", "formattedAddress": ["Sch\u00f6nhauser Allee 155", "10435 Berlin", "Deutschland"]}, "categories": [{"id": "4bf58dd8d48988d123941735", "name": "Wine Bar", "pluralName": "Wine Bars", "shortName": "Wine Bar", "icon": {"prefix": "https://ss3.4sqi.net/img/categories_v2/food/winery_", "suffix": ".png"}, "primary": true}], "photos": {"count": 0, "groups": []}}, "referralId": "e-0-5356d1db498ec5d548edc84f-3"}, {"reasons": {"count": 0, "items": [{"summary": "This spot is popular", "type": "general", "reasonName": "globalInteractionReason"}]}, "venue": {"id": "4c2afe458abca593cd80ff1f", "name": "EastSeven Berlin Hostel", "location": {"address": "Schwedter Str. 7", "lat": 52.53346187395801, "lng": 13.41054917570367, "labeledLatLngs": [{"label": "display", "lat": 52.53346187395801, "lng": 13.41054917570367}], "distance": 274, "postalCode": "10119", "cc": "DE", "city": "Berlin", "state": "Berlin", "country": "Deutschland", "formattedAddress": ["Schwedter Str. 7", "10119 Berlin", "Deutschland"]}, "categories": [{"id": "4bf58dd8d48988d1ee931735", "name": "Hostel", "pluralName": "Hostels", "shortName": "Hostel", "icon": {"prefix": "https://ss3.4sqi.net/img/categories_v2/travel/hostel_", "suffix": ".png"}, "primary": true}], "photos": {"count": 0, "groups": []}}, "referralId": "e-0-4c2afe458abca593cd80ff1f-4"}, {"reasons": {"count": 0, "items": [{"summary": "This spot is popular", "type": "general", "reasonName": "globalInteractionReason"}]}, "venue": {"id": "4d4401f91ed56dcb171caa54", "name": "Park am Wasserturm", "location": {"address": "Belforter Str.", "crossStreet": "Kolmarer Str.", "lat": 52.53387144031121, "lng": 13.418126106262207, "labeledLatLngs": [{"label": "display", "lat": 52.53387144031121, "lng": 13.418126106262207}], "distance": 313, "postalCode": "10405", "cc": "DE", "city": "Berlin", "state": "Berlin", "country": "Deutschland", "formattedAddress": ["Belforter Str. (Kolmarer Str.)", "10405 Berlin", "Deutschland"]}, "categories": [{"id": "4bf58dd8d48988d163941735", "name": "Park", "pluralName": "Parks", "shortName": "Park", "icon": {"prefix": "https://ss3.4sqi.net/img/categories_v2/parks_outdoors/park_", "suffix": ".png"}, "primary": true}], "photos": {"count": 0, "groups": []}}, "referralId": "e-0-4d4401f91ed56dcb171caa54-5"}, {"reasons": {"count": 0, "items": [{"summary": "This spot is popular", "type": "general", "reasonName": "globalInteractionReason"}]}, "venue": {"id": "519e4bb1498e8864b86cdad7", "name": "MDC Cosmetic", "location": {"address": "Knaackstrasse 26", "lat": 52.53496545839637, "lng": 13.4178760373489, "labeledLatLngs": [{"label": "display", "lat": 52.53496545839637, "lng": 13.4178760373489}], "distance": 274, "postalCode": "10405", "cc": "DE", "city": "Berlin", "state": "Berlin", "country": "Deutschland", "formattedAddress": ["Knaackstrasse 26", "10405 Berlin", "Deutschland"]}, "categories": [{"id": "4bf58dd8d48988d10c951735", "name": "Cosmetics Shop", "pluralName": "Cosmetics Shops", "shortName": "Cosmetics", "icon": {"prefix": "https://ss3.4sqi.net/img/categories_v2/shops/beauty_cosmetic_", "suffix": ".png"}, "primary": true}], "photos": {"count": 0, "groups": []}}, "referralId": "e-0-519e4bb1498e8864b86cdad7-6"}, {"reasons": {"count": 0, "items": [{"summary": "This spot is popular", "type": "general", "reasonName": "globalInteractionReason"}]}, "venue": {"id": "4b9ad22cf964a520fbd835e3", "name": "Hausbar", "location": {"address": "Rykestr. 54", "crossStreet": "Knaackstr.", "lat": 52.534898, "lng": 13.418957, "labeledLatLngs": [{"label": "display", "lat": 52.534898, "lng": 13.418957}], "distance": 347, "postalCode": "10405", "cc": "DE", "city": "Berlin", "state": "Berlin", "country": "Deutschland", "formattedAddress": ["Rykestr. 54 (Knaackstr.)", "10405 Berlin", "Deutschland"]}, "categories": [{"id": "4bf58dd8d48988d11e941735", "name": "Cocktail Bar", "pluralName": "Cocktail Bars", "shortName": "Cocktail", "icon": {"prefix": "https://ss3.4sqi.net/img/categories_v2/nightlife/cocktails_", "suffix": ".png"}, "primary": true}], "photos": {"count": 0, "groups": []}}, "referralId": "e-0-4b9ad22cf964a520fbd835e3-7"}, {"reasons": {"count": 0, "items": [{"summary": "This spot is popular", "type": "general", "reasonName": "globalInteractionReason"}]}, "venue": {"id": "4b110f3df964a520cc7723e3", "name": "Wochenmarkt am Kollwitzplatz", "location": {"address": "Kollwitzstr.", "crossStreet": "W\u00f6rther Str.", "lat": 52.53659933582729, "lng": 13.418276309967041, "labeledLatLngs": [{"label": "display", "lat": 52.53659933582729, "lng": 13.418276309967041}], "distance": 355, "postalCode": "10405", "cc": "DE", "city": "Berlin", "state": "Berlin", "country": "Deutschland", "formattedAddress": ["Kollwitzstr. (W\u00f6rther Str.)", "10405 Berlin", "Deutschland"]}, "categories": [{"id": "4bf58dd8d48988d1fa941735", "name": "Farmers Market", "pluralName": "Farmers Markets", "shortName": "Farmer's Market", "icon": {"prefix": "https://ss3.4sqi.net/img/categories_v2/shops/food_farmersmarket_", "suffix": ".png"}, "primary": true}], "photos": {"count": 0, "groups": []}}, "referralId": "e-0-4b110f3df964a520cc7723e3-8"}, {"reasons": {"count": 0, "items": [{"summary": "This spot is popular", "type": "general", "reasonName": "globalInteractionReason"}]}, "venue": {"id": "4adcda7df964a520624721e3", "name": "Kollwitzplatz", "location": {"address": "Kollwitzstr.", "crossStreet": "W\u00f6rther Str.", "lat": 52.536236, "lng": 13.417045, "labeledLatLngs": [{"label": "display", "lat": 52.536236, "lng": 13.417045}], "distance": 263, "postalCode": "10435", "cc": "DE", "neighborhood": "Kollwitzkiez", "city": "Berlin", "state": "Berlin", "country": "Deutschland", "formattedAddress": ["Kollwitzstr. (W\u00f6rther Str.)", "10435 Berlin", "Deutschland"]}, "categories": [{"id": "4bf58dd8d48988d164941735", "name": "Plaza", "pluralName": "Plazas", "shortName": "Plaza", "icon": {"prefix": "https://ss3.4sqi.net/img/categories_v2/parks_outdoors/plaza_", "suffix": ".png"}, "primary": true}], "photos": {"count": 0, "groups": []}}, "referralId": "e-0-4adcda7df964a520624721e3-9"}, {"reasons": {"count": 0, "items": [{"summary": "This spot is popular", "type": "general", "reasonName": "globalInteractionReason"}]}, "venue": {"id": "4adcda7df964a520634721e3", "name": "Wasserturm", "location": {"address": "Knaackstr.", "crossStreet": "Rykestr.", "lat": 52.53419122630572, "lng": 13.418587446212769, "labeledLatLngs": [{"label": "display", "lat": 52.53419122630572, "lng": 13.418587446212769}], "distance": 331, "postalCode": "10435", "cc": "DE", "city": "Berlin", "state": "Berlin", "country": "Deutschland", "formattedAddress": ["Knaackstr. (Rykestr.)", "10435 Berlin", "Deutschland"]}, "categories": [{"id": "4deefb944765f83613cdba6e", "name": "Historic Site", "pluralName": "Historic Sites", "shortName": "Historic Site", "icon": {"prefix": "https://ss3.4sqi.net/img/categories_v2/arts_entertainment/historicsite_", "suffix": ".png"}, "primary": true}], "photos": {"count": 0, "groups": []}}, "referralId": "e-0-4adcda7df964a520634721e3-10"}, {"reasons": {"count": 0, "items": [{"summary": "This spot is popular", "type": "general", "reasonName": "globalInteractionReason"}]}, "venue": {"id": "5a50ff2c610f0478e4a08d17", "name": "The Bird Barbecue", "location": {"address": "Oderberger Str. 61", "lat": 52.53774902890648, "lng": 13.411588377583156, "labeledLatLngs": [{"label": "display", "lat": 52.53774902890648, "lng": 13.411588377583156}], "distance": 350, "postalCode": "10435", "cc": "DE", "city": "Berlin", "state": "Berlin", "country": "Deutschland", "formattedAddress": ["Oderberger Str. 61", "10435 Berlin", "Deutschland"]}, "categories": [{"id": "4bf58dd8d48988d14e941735", "name": "American Restaurant", "pluralName": "American Restaurants", "shortName": "American", "icon": {"prefix": "https://ss3.4sqi.net/img/categories_v2/food/default_", "suffix": ".png"}, "primary": true}], "photos": {"count": 0, "groups": []}}, "referralId": "e-0-5a50ff2c610f0478e4a08d17-11"}, {"reasons": {"count": 0, "items": [{"summary": "This spot is popular", "type": "general", "reasonName": "globalInteractionReason"}]}, "venue": {"id": "4adcda8cf964a5203b4a21e3", "name": "Dock 11", "location": {"address": "Kastanienallee 79", "lat": 52.536545908552746, "lng": 13.408585150976046, "labeledLatLngs": [{"label": "display", "lat": 52.536545908552746, "lng": 13.408585150976046}], "distance": 399, "postalCode": "10435", "cc": "DE", "city": "Berlin", "state": "Berlin", "country": "Deutschland", "formattedAddress": ["Kastanienallee 79", "10435 Berlin", "Deutschland"]}, "categories": [{"id": "4bf58dd8d48988d135941735", "name": "Indie Theater", "pluralName": "Indie Theaters", "shortName": "Indie", "icon": {"prefix": "https://ss3.4sqi.net/img/categories_v2/arts_entertainment/performingarts_theater_", "suffix": ".png"}, "primary": true}], "photos": {"count": 0, "groups": []}}, "referralId": "e-0-4adcda8cf964a5203b4a21e3-12"}, {"reasons": {"count": 0, "items": [{"summary": "This spot is popular", "type": "general", "reasonName": "globalInteractionReason"}]}, "venue": {"id": "53677d21498e567ae5c7e8f3", "name": "Umami", "location": {"address": "Knaackstr. 16", "crossStreet": "Rykestr.", "lat": 52.534477, "lng": 13.419286, "labeledLatLngs": [{"label": "display", "lat": 52.534477, "lng": 13.419286}], "distance": 372, "postalCode": "10405", "cc": "DE", "city": "Berlin", "state": "Berlin", "country": "Deutschland", "formattedAddress": ["Knaackstr. 16 (Rykestr.)", "10405 Berlin", "Deutschland"]}, "categories": [{"id": "4bf58dd8d48988d14a941735", "name": "Vietnamese Restaurant", "pluralName": "Vietnamese Restaurants", "shortName": "Vietnamese", "icon": {"prefix": "https://ss3.4sqi.net/img/categories_v2/food/vietnamese_", "suffix": ".png"}, "primary": true}], "photos": {"count": 0, "groups": []}}, "referralId": "e-0-53677d21498e567ae5c7e8f3-13"}, {"reasons": {"count": 0, "items": [{"summary": "This spot is popular", "type": "general", "reasonName": "globalInteractionReason"}]}, "venue": {"id": "4da184a3d686b60ceb9ba628", "name": "Lucky Leek", "location": {"address": "Kollwitzstr 54", "lat": 52.534924, "lng": 13.416813, "labeledLatLngs": [{"label": "display", "lat": 52.534924, "lng": 13.416813}], "distance": 202, "postalCode": "10405", "cc": "DE", "city": "Berlin", "state": "Berlin", "country": "Deutschland", "formattedAddress": ["Kollwitzstr 54", "10405 Berlin", "Deutschland"]}, "categories": [{"id": "4bf58dd8d48988d1d3941735", "name": "Vegetarian / Vegan Restaurant", "pluralName": "Vegetarian / Vegan Restaurants", "shortName": "Vegetarian / Vegan", "icon": {"prefix": "https://ss3.4sqi.net/img/categories_v2/food/vegetarian_", "suffix": ".png"}, "primary": true}], "photos": {"count": 0, "groups": []}}, "referralId": "e-0-4da184a3d686b60ceb9ba628-14"}, {"reasons": {"count": 0, "items": [{"summary": "This spot is popular", "type": "general", "reasonName": "globalInteractionReason"}]}, "venue": {"id": "4c489e8e31e41b8df4b65035", "name": "Spielplatz am Wasserturm", "location": {"address": "Kolmarer Str.", "crossStreet": "Knaackstr.", "lat": 52.533891019112495, "lng": 13.418866395950317, "labeledLatLngs": [{"label": "display", "lat": 52.533891019112495, "lng": 13.418866395950317}], "distance": 359, "postalCode": "10405", "cc": "DE", "city": "Berlin", "state": "Berlin", "country": "Deutschland", "formattedAddress": ["Kolmarer Str. (Knaackstr.)", "10405 Berlin", "Deutschland"]}, "categories": [{"id": "4bf58dd8d48988d1e7941735", "name": "Playground", "pluralName": "Playgrounds", "shortName": "Playground", "icon": {"prefix": "https://ss3.4sqi.net/img/categories_v2/parks_outdoors/playground_", "suffix": ".png"}, "primary": true}], "photos": {"count": 0, "groups": []}}, "referralId": "e-0-4c489e8e31e41b8df4b65035-15"}, {"reasons": {"count": 0, "items": [{"summary": "This spot is popular", "type": "general", "reasonName": "globalInteractionReason"}]}, "venue": {"id": "4c813046d92ea0931f7f3e72", "name": "Etc:Bar", "location": {"address": "Knaackstr. 12", "lat": 52.534070432050434, "lng": 13.419661987048961, "labeledLatLngs": [{"label": "display", "lat": 52.534070432050434, "lng": 13.419661987048961}], "distance": 405, "postalCode": "10405", "cc": "DE", "city": "Berlin", "state": "Berlin", "country": "Deutschland", "formattedAddress": ["Knaackstr. 12", "10405 Berlin", "Deutschland"]}, "categories": [{"id": "4bf58dd8d48988d116941735", "name": "Bar", "pluralName": "Bars", "shortName": "Bar", "icon": {"prefix": "https://ss3.4sqi.net/img/categories_v2/nightlife/pub_", "suffix": ".png"}, "primary": true}], "photos": {"count": 0, "groups": []}}, "referralId": "e-0-4c813046d92ea0931f7f3e72-16"}, {"reasons": {"count": 0, "items": [{"summary": "This spot is popular", "type": "general", "reasonName": "globalInteractionReason"}]}, "venue": {"id": "5596298b498e7530f507aba3", "name": "Kaffee K\u00e4the", "location": {"address": "Kollwitzstr. 38", "lat": 52.53390313900558, "lng": 13.415436381121081, "labeledLatLngs": [{"label": "display", "lat": 52.53390313900558, "lng": 13.415436381121081}], "distance": 156, "postalCode": "10405", "cc": "DE", "city": "Berlin", "state": "Berlin", "country": "Deutschland", "formattedAddress": ["Kollwitzstr. 38", "10405 Berlin", "Deutschland"]}, "categories": [{"id": "4bf58dd8d48988d16d941735", "name": "Caf\u00e9", "pluralName": "Caf\u00e9s", "shortName": "Caf\u00e9", "icon": {"prefix": "https://ss3.4sqi.net/img/categories_v2/food/cafe_", "suffix": ".png"}, "primary": true}], "photos": {"count": 0, "groups": []}}, "referralId": "e-0-5596298b498e7530f507aba3-17"}, {"reasons": {"count": 0, "items": [{"summary": "This spot is popular", "type": "general", "reasonName": "globalInteractionReason"}]}, "venue": {"id": "5cd3f9062bf29b002d07c0d6", "name": "S\u00fc\u00dffein", "location": {"address": "Rykestr. 50", "lat": 52.535415, "lng": 13.419287, "labeledLatLngs": [{"label": "display", "lat": 52.535415, "lng": 13.419287}], "distance": 373, "postalCode": "10405", "cc": "DE", "city": "Berlin", "state": "Berlin", "country": "Deutschland", "formattedAddress": ["Rykestr. 50", "10405 Berlin", "Deutschland"]}, "categories": [{"id": "4bf58dd8d48988d1c9941735", "name": "Ice Cream Shop", "pluralName": "Ice Cream Shops", "shortName": "Ice Cream", "icon": {"prefix": "https://ss3.4sqi.net/img/categories_v2/food/icecream_", "suffix": ".png"}, "primary": true}], "photos": {"count": 0, "groups": []}}, "referralId": "e-0-5cd3f9062bf29b002d07c0d6-18"}, {"reasons": {"count": 0, "items": [{"summary": "This spot is popular", "type": "general", "reasonName": "globalInteractionReason"}]}, "venue": {"id": "4afc671bf964a5204d2222e3", "name": "Scotch & Sofa", "location": {"address": "Kollwitzstr. 18", "lat": 52.532728, "lng": 13.414367, "labeledLatLngs": [{"label": "display", "lat": 52.532728, "lng": 13.414367}], "distance": 245, "postalCode": "10405", "cc": "DE", "city": "Berlin", "state": "Berlin", "country": "Deutschland", "formattedAddress": ["Kollwitzstr. 18", "10405 Berlin", "Deutschland"]}, "categories": [{"id": "4bf58dd8d48988d11e941735", "name": "Cocktail Bar", "pluralName": "Cocktail Bars", "shortName": "Cocktail", "icon": {"prefix": "https://ss3.4sqi.net/img/categories_v2/nightlife/cocktails_", "suffix": ".png"}, "primary": true}], "photos": {"count": 0, "groups": []}}, "referralId": "e-0-4afc671bf964a5204d2222e3-19"}, {"reasons": {"count": 0, "items": [{"summary": "This spot is popular", "type": "general", "reasonName": "globalInteractionReason"}]}, "venue": {"id": "4adcda86f964a520224921e3", "name": "Pasternak", "location": {"address": "Knaackstr. 22-24", "lat": 52.53465906029785, "lng": 13.418682027809362, "labeledLatLngs": [{"label": "display", "lat": 52.53465906029785, "lng": 13.418682027809362}], "distance": 329, "postalCode": "10405", "cc": "DE", "city": "Berlin", "state": "Berlin", "country": "Deutschland", "formattedAddress": ["Knaackstr. 22-24", "10405 Berlin", "Deutschland"]}, "categories": [{"id": "5293a7563cf9994f4e043a44", "name": "Russian Restaurant", "pluralName": "Russian Restaurants", "shortName": "Russian", "icon": {"prefix": "https://ss3.4sqi.net/img/categories_v2/food/russian_", "suffix": ".png"}, "primary": true}], "photos": {"count": 0, "groups": []}}, "referralId": "e-0-4adcda86f964a520224921e3-20"}, {"reasons": {"count": 0, "items": [{"summary": "This spot is popular", "type": "general", "reasonName": "globalInteractionReason"}]}, "venue": {"id": "4c1f6d4c63750f47c314bb67", "name": "OYE Records", "location": {"address": "Oderberger Str. 4", "lat": 52.53828829143888, "lng": 13.41061826530336, "labeledLatLngs": [{"label": "display", "lat": 52.53828829143888, "lng": 13.41061826530336}], "distance": 434, "postalCode": "10435", "cc": "DE", "city": "Berlin", "state": "Berlin", "country": "Deutschland", "formattedAddress": ["Oderberger Str. 4", "10435 Berlin", "Deutschland"]}, "categories": [{"id": "4bf58dd8d48988d10d951735", "name": "Record Shop", "pluralName": "Record Shops", "shortName": "Record Shop", "icon": {"prefix": "https://ss3.4sqi.net/img/categories_v2/shops/record_shop_", "suffix": ".png"}, "primary": true}], "photos": {"count": 0, "groups": []}}, "referralId": "e-0-4c1f6d4c63750f47c314bb67-21"}, {"reasons": {"count": 0, "items": [{"summary": "This spot is popular", "type": "general", "reasonName": "globalInteractionReason"}]}, "venue": {"id": "5a60e8edc5b11c5742e7b262", "name": "MontRaw Restaurant", "location": {"address": "Stra\u00dfburger Str. 33", "crossStreet": "Metzer Str.", "lat": 52.53186, "lng": 13.415882, "labeledLatLngs": [{"label": "display", "lat": 52.53186, "lng": 13.415882}], "distance": 366, "postalCode": "10405", "cc": "DE", "neighborhood": "Kollwitzkiez", "city": "Berlin", "state": "Berlin", "country": "Deutschland", "formattedAddress": ["Stra\u00dfburger Str. 33 (Metzer Str.)", "10405 Berlin", "Deutschland"]}, "categories": [{"id": "56aa371be4b08b9a8d573529", "name": "Israeli Restaurant", "pluralName": "Israeli Restaurants", "shortName": "Israeli", "icon": {"prefix": "https://ss3.4sqi.net/img/categories_v2/food/falafel_", "suffix": ".png"}, "primary": true}], "photos": {"count": 0, "groups": []}, "venuePage": {"id": "478236977"}}, "referralId": "e-0-5a60e8edc5b11c5742e7b262-22"}, {"reasons": {"count": 0, "items": [{"summary": "This spot is popular", "type": "general", "reasonName": "globalInteractionReason"}]}, "venue": {"id": "5298fdf411d2a2b04ab76eba", "name": "Kapitalist", "location": {"address": "Oderberger Str. 2", "lat": 52.53801937999754, "lng": 13.41131075217303, "labeledLatLngs": [{"label": "display", "lat": 52.53801937999754, "lng": 13.41131075217303}], "distance": 386, "postalCode": "10435", "cc": "DE", "city": "Berlin", "state": "Berlin", "country": "Deutschland", "formattedAddress": ["Oderberger Str. 2", "10435 Berlin", "Deutschland"]}, "categories": [{"id": "4bf58dd8d48988d116941735", "name": "Bar", "pluralName": "Bars", "shortName": "Bar", "icon": {"prefix": "https://ss3.4sqi.net/img/categories_v2/nightlife/pub_", "suffix": ".png"}, "primary": true}], "photos": {"count": 0, "groups": []}}, "referralId": "e-0-5298fdf411d2a2b04ab76eba-23"}, {"reasons": {"count": 0, "items": [{"summary": "This spot is popular", "type": "general", "reasonName": "globalInteractionReason"}]}, "venue": {"id": "4ffd439debca199e95524658", "name": "Ziervogels Kult-Curry", "location": {"address": "Sch\u00f6nhauser Allee 20", "lat": 52.533101929527895, "lng": 13.412688522627654, "labeledLatLngs": [{"label": "display", "lat": 52.533101929527895, "lng": 13.412688522627654}], "distance": 215, "postalCode": "10435", "cc": "DE", "city": "Berlin", "state": "Berlin", "country": "Deutschland", "formattedAddress": ["Sch\u00f6nhauser Allee 20", "10435 Berlin", "Deutschland"]}, "categories": [{"id": "56aa371ce4b08b9a8d57358b", "name": "Currywurst Joint", "pluralName": "Currywurst Joints", "shortName": "Currywurst", "icon": {"prefix": "https://ss3.4sqi.net/img/categories_v2/food/bbqalt_", "suffix": ".png"}, "primary": true}], "photos": {"count": 0, "groups": []}}, "referralId": "e-0-4ffd439debca199e95524658-24"}, {"reasons": {"count": 0, "items": [{"summary": "This spot is popular", "type": "general", "reasonName": "globalInteractionReason"}]}, "venue": {"id": "4bc9fcaf68f976b087515e83", "name": "Zula Hummus Caf\u00e9", "location": {"address": "Husemannstr. 10", "lat": 52.53753561268995, "lng": 13.417467407408422, "labeledLatLngs": [{"label": "display", "lat": 52.53753561268995, "lng": 13.417467407408422}], "distance": 382, "postalCode": "10435", "cc": "DE", "neighborhood": "Kollwitzkiez", "city": "Berlin", "state": "Berlin", "country": "Deutschland", "formattedAddress": ["Husemannstr. 10", "10435 Berlin", "Deutschland"]}, "categories": [{"id": "56aa371be4b08b9a8d573529", "name": "Israeli Restaurant", "pluralName": "Israeli Restaurants", "shortName": "Israeli", "icon": {"prefix": "https://ss3.4sqi.net/img/categories_v2/food/falafel_", "suffix": ".png"}, "primary": true}], "photos": {"count": 0, "groups": []}}, "referralId": "e-0-4bc9fcaf68f976b087515e83-25"}, {"reasons": {"count": 0, "items": [{"summary": "This spot is popular", "type": "general", "reasonName": "globalInteractionReason"}]}, "venue": {"id": "5a6b181cc62b49492c92e6a7", "name": "Lemongrass Scent", "location": {"lat": 52.53366370111102, "lng": 13.40963048118199, "labeledLatLngs": [{"label": "display", "lat": 52.53366370111102, "lng": 13.40963048118199}], "distance": 316, "cc": "DE", "city": "Berlin", "state": "Berlin", "country": "Deutschland", "formattedAddress": ["Berlin", "Deutschland"]}, "categories": [{"id": "4bf58dd8d48988d14a941735", "name": "Vietnamese Restaurant", "pluralName": "Vietnamese Restaurants", "shortName": "Vietnamese", "icon": {"prefix": "https://ss3.4sqi.net/img/categories_v2/food/vietnamese_", "suffix": ".png"}, "primary": true}], "photos": {"count": 0, "groups": []}}, "referralId": "e-0-5a6b181cc62b49492c92e6a7-26"}, {"reasons": {"count": 0, "items": [{"summary": "This spot is popular", "type": "general", "reasonName": "globalInteractionReason"}]}, "venue": {"id": "4c7bf19b2d3ba1430e8195d0", "name": "Saint George's", "location": {"address": "W\u00f6rther Str. 27", "crossStreet": "Rykestr.", "lat": 52.53597689739696, "lng": 13.421060493864418, "labeledLatLngs": [{"label": "display", "lat": 52.53597689739696, "lng": 13.421060493864418}], "distance": 503, "postalCode": "10405", "cc": "DE", "city": "Berlin", "state": "Berlin", "country": "Deutschland", "formattedAddress": ["W\u00f6rther Str. 27 (Rykestr.)", "10405 Berlin", "Deutschland"]}, "categories": [{"id": "4bf58dd8d48988d114951735", "name": "Bookstore", "pluralName": "Bookstores", "shortName": "Bookstore", "icon": {"prefix": "https://ss3.4sqi.net/img/categories_v2/shops/bookstore_", "suffix": ".png"}, "primary": true}], "photos": {"count": 0, "groups": []}}, "referralId": "e-0-4c7bf19b2d3ba1430e8195d0-27"}, {"reasons": {"count": 0, "items": [{"summary": "This spot is popular", "type": "general", "reasonName": "globalInteractionReason"}]}, "venue": {"id": "563377e8498e265460203888", "name": "Allan's Breakfast Club & Wine Bar", "location": {"address": "Rykestr. 13", "crossStreet": "W\u00f6rtherstr.", "lat": 52.53650891039924, "lng": 13.420523200128146, "labeledLatLngs": [{"label": "display", "lat": 52.53650891039924, "lng": 13.420523200128146}], "distance": 487, "postalCode": "10405", "cc": "DE", "city": "Berlin", "state": "Berlin", "country": "Deutschland", "formattedAddress": ["Rykestr. 13 (W\u00f6rtherstr.)", "10405 Berlin", "Deutschland"]}, "categories": [{"id": "4bf58dd8d48988d143941735", "name": "Breakfast Spot", "pluralName": "Breakfast Spots", "shortName": "Breakfast", "icon": {"prefix": "https://ss3.4sqi.net/img/categories_v2/food/breakfast_", "suffix": ".png"}, "primary": true}], "photos": {"count": 0, "groups": []}}, "referralId": "e-0-563377e8498e265460203888-28"}, {"reasons": {"count": 0, "items": [{"summary": "This spot is popular", "type": "general", "reasonName": "globalInteractionReason"}]}, "venue": {"id": "4adcda88f964a520884921e3", "name": "Pappa E Ciccia", "location": {"address": "Schwedter Str. 18", "crossStreet": "Choriner Str.", "lat": 52.534297301794446, "lng": 13.40822782697001, "labeledLatLngs": [{"label": "display", "lat": 52.534297301794446, "lng": 13.40822782697001}], "distance": 385, "postalCode": "10119", "cc": "DE", "city": "Berlin", "state": "Berlin", "country": "Deutschland", "formattedAddress": ["Schwedter Str. 18 (Choriner Str.)", "10119 Berlin", "Deutschland"]}, "categories": [{"id": "4bf58dd8d48988d110941735", "name": "Italian Restaurant", "pluralName": "Italian Restaurants", "shortName": "Italian", "icon": {"prefix": "https://ss3.4sqi.net/img/categories_v2/food/italian_", "suffix": ".png"}, "primary": true}], "photos": {"count": 0, "groups": []}}, "referralId": "e-0-4adcda88f964a520884921e3-29"}, {"reasons": {"count": 0, "items": [{"summary": "This spot is popular", "type": "general", "reasonName": "globalInteractionReason"}]}, "venue": {"id": "4ba898d4f964a520c4e139e3", "name": "Impala Coffee", "location": {"address": "Sch\u00f6nhauser Allee 173", "crossStreet": "Schwedter Str.", "lat": 52.532549, "lng": 13.412092, "labeledLatLngs": [{"label": "display", "lat": 52.532549, "lng": 13.412092}], "distance": 287, "postalCode": "10119", "cc": "DE", "city": "Berlin", "state": "Berlin", "country": "Deutschland", "formattedAddress": ["Sch\u00f6nhauser Allee 173 (Schwedter Str.)", "10119 Berlin", "Deutschland"]}, "categories": [{"id": "4bf58dd8d48988d1e0931735", "name": "Coffee Shop", "pluralName": "Coffee Shops", "shortName": "Coffee Shop", "icon": {"prefix": "https://ss3.4sqi.net/img/categories_v2/food/coffeeshop_", "suffix": ".png"}, "primary": true}], "photos": {"count": 0, "groups": []}}, "referralId": "e-0-4ba898d4f964a520c4e139e3-30"}, {"reasons": {"count": 0, "items": [{"summary": "This spot is popular", "type": "general", "reasonName": "globalInteractionReason"}]}, "venue": {"id": "5467958b498e87b190f2ccba", "name": "Standard Pizza", "location": {"address": "Templiner Str. 7", "lat": 52.532830097962645, "lng": 13.408712372261208, "labeledLatLngs": [{"label": "display", "lat": 52.532830097962645, "lng": 13.408712372261208}], "distance": 416, "postalCode": "10119", "cc": "DE", "city": "Berlin", "state": "Berlin", "country": "Deutschland", "formattedAddress": ["Templiner Str. 7", "10119 Mitte", "Deutschland"]}, "categories": [{"id": "4bf58dd8d48988d1ca941735", "name": "Pizza Place", "pluralName": "Pizza Places", "shortName": "Pizza", "icon": {"prefix": "https://ss3.4sqi.net/img/categories_v2/food/pizza_", "suffix": ".png"}, "primary": true}], "photos": {"count": 0, "groups": []}}, "referralId": "e-0-5467958b498e87b190f2ccba-31"}, {"reasons": {"count": 0, "items": [{"summary": "This spot is popular", "type": "general", "reasonName": "globalInteractionReason"}]}, "venue": {"id": "553e1fb6498e07ead1e9be53", "name": "rou", "location": {"address": "Schwedter Str. 25 10119 Berlin", "lat": 52.535233, "lng": 13.407213, "labeledLatLngs": [{"label": "display", "lat": 52.535233, "lng": 13.407213}], "distance": 449, "cc": "DE", "city": "Berlin", "state": "Berlin", "country": "Deutschland", "formattedAddress": ["Schwedter Str. 25 10119 Berlin", "Berlin", "Deutschland"]}, "categories": [{"id": "4bf58dd8d48988d1d3941735", "name": "Vegetarian / Vegan Restaurant", "pluralName": "Vegetarian / Vegan Restaurants", "shortName": "Vegetarian / Vegan", "icon": {"prefix": "https://ss3.4sqi.net/img/categories_v2/food/vegetarian_", "suffix": ".png"}, "primary": true}], "photos": {"count": 0, "groups": []}}, "referralId": "e-0-553e1fb6498e07ead1e9be53-32"}, {"reasons": {"count": 0, "items": [{"summary": "This spot is popular", "type": "general", "reasonName": "globalInteractionReason"}]}, "venue": {"id": "52c2a77311d221d9d4217f1a", "name": "Betty'n Caty", "location": {"address": "Knaackstr. 26", "lat": 52.534872, "lng": 13.418119, "labeledLatLngs": [{"label": "display", "lat": 52.534872, "lng": 13.418119}], "distance": 290, "postalCode": "10405", "cc": "DE", "neighborhood": "Kollwitzkiez", "city": "Berlin", "state": "Berlin", "country": "Deutschland", "formattedAddress": ["Knaackstr. 26", "10405 Berlin", "Deutschland"]}, "categories": [{"id": "4bf58dd8d48988d143941735", "name": "Breakfast Spot", "pluralName": "Breakfast Spots", "shortName": "Breakfast", "icon": {"prefix": "https://ss3.4sqi.net/img/categories_v2/food/breakfast_", "suffix": ".png"}, "primary": true}], "photos": {"count": 0, "groups": []}}, "referralId": "e-0-52c2a77311d221d9d4217f1a-33"}, {"reasons": {"count": 0, "items": [{"summary": "This spot is popular", "type": "general", "reasonName": "globalInteractionReason"}]}, "venue": {"id": "4b978891f964a520b10735e3", "name": "Sch\u00e4dels", "location": {"address": "Oderberger Str. 56", "lat": 52.53832015069355, "lng": 13.410322670543026, "labeledLatLngs": [{"label": "display", "lat": 52.53832015069355, "lng": 13.410322670543026}], "distance": 448, "postalCode": "10435", "cc": "DE", "city": "Berlin", "state": "Berlin", "country": "Deutschland", "formattedAddress": ["Oderberger Str. 56", "10435 Berlin", "Deutschland"]}, "categories": [{"id": "4bf58dd8d48988d10d941735", "name": "German Restaurant", "pluralName": "German Restaurants", "shortName": "German", "icon": {"prefix": "https://ss3.4sqi.net/img/categories_v2/food/german_", "suffix": ".png"}, "primary": true}], "photos": {"count": 0, "groups": []}}, "referralId": "e-0-4b978891f964a520b10735e3-34"}, {"reasons": {"count": 0, "items": [{"summary": "This spot is popular", "type": "general", "reasonName": "globalInteractionReason"}]}, "venue": {"id": "4c24f4f9b7b8a593a65f3de8", "name": "Leibhaftig", "location": {"address": "Metzer Str. 30", "lat": 52.5313922931776, "lng": 13.416965755864199, "labeledLatLngs": [{"label": "display", "lat": 52.5313922931776, "lng": 13.416965755864199}], "distance": 445, "postalCode": "10405", "cc": "DE", "city": "Berlin", "state": "Berlin", "country": "Deutschland", "formattedAddress": ["Metzer Str. 30", "10405 Berlin", "Deutschland"]}, "categories": [{"id": "4bf58dd8d48988d10d941735", "name": "German Restaurant", "pluralName": "German Restaurants", "shortName": "German", "icon": {"prefix": "https://ss3.4sqi.net/img/categories_v2/food/german_", "suffix": ".png"}, "primary": true}], "photos": {"count": 0, "groups": []}}, "referralId": "e-0-4c24f4f9b7b8a593a65f3de8-35"}, {"reasons": {"count": 0, "items": [{"summary": "This spot is popular", "type": "general", "reasonName": "globalInteractionReason"}]}, "venue": {"id": "4adcda76f964a520bf4521e3", "name": "Pfefferberg", "location": {"address": "Sch\u00f6nhauser Aller 176", "crossStreet": "Fehrbelliner Str.", "lat": 52.531816901783124, "lng": 13.411699771044182, "labeledLatLngs": [{"label": "display", "lat": 52.531816901783124, "lng": 13.411699771044182}], "distance": 372, "postalCode": "10119", "cc": "DE", "city": "Berlin", "state": "Berlin", "country": "Deutschland", "formattedAddress": ["Sch\u00f6nhauser Aller 176 (Fehrbelliner Str.)", "10119 Berlin", "Deutschland"]}, "categories": [{"id": "4bf58dd8d48988d1f1931735", "name": "General Entertainment", "pluralName": "General Entertainment", "shortName": "Entertainment", "icon": {"prefix": "https://ss3.4sqi.net/img/categories_v2/arts_entertainment/default_", "suffix": ".png"}, "primary": true}], "photos": {"count": 0, "groups": []}}, "referralId": "e-0-4adcda76f964a520bf4521e3-36"}, {"reasons": {"count": 0, "items": [{"summary": "This spot is popular", "type": "general", "reasonName": "globalInteractionReason"}]}, "venue": {"id": "4adcda79f964a520a34621e3", "name": "Lass uns Freunde bleiben", "location": {"address": "Choriner Str. 12", "crossStreet": "Zionskirchstr.", "lat": 52.53311438663343, "lng": 13.407182693481444, "labeledLatLngs": [{"label": "display", "lat": 52.53311438663343, "lng": 13.407182693481444}], "distance": 492, "postalCode": "10119", "cc": "DE", "city": "Berlin", "state": "Berlin", "country": "Deutschland", "formattedAddress": ["Choriner Str. 12 (Zionskirchstr.)", "10119 Berlin", "Deutschland"]}, "categories": [{"id": "4bf58dd8d48988d116941735", "name": "Bar", "pluralName": "Bars", "shortName": "Bar", "icon": {"prefix": "https://ss3.4sqi.net/img/categories_v2/nightlife/pub_", "suffix": ".png"}, "primary": true}], "photos": {"count": 0, "groups": []}}, "referralId": "e-0-4adcda79f964a520a34621e3-37"}, {"reasons": {"count": 0, "items": [{"summary": "This spot is popular", "type": "general", "reasonName": "globalInteractionReason"}]}, "venue": {"id": "53501688498e0f886f0c9eea", "name": "V\u00e2n Anh", "location": {"address": "Oderberger Str. 7", "crossStreet": "Kastanienallee", "lat": 52.538586, "lng": 13.409936, "labeledLatLngs": [{"label": "display", "lat": 52.538586, "lng": 13.409936}], "distance": 487, "postalCode": "10435", "cc": "DE", "city": "Berlin", "state": "Berlin", "country": "Deutschland", "formattedAddress": ["Oderberger Str. 7 (Kastanienallee)", "10435 Berlin", "Deutschland"]}, "categories": [{"id": "4bf58dd8d48988d14a941735", "name": "Vietnamese Restaurant", "pluralName": "Vietnamese Restaurants", "shortName": "Vietnamese", "icon": {"prefix": "https://ss3.4sqi.net/img/categories_v2/food/vietnamese_", "suffix": ".png"}, "primary": true}], "photos": {"count": 0, "groups": []}}, "referralId": "e-0-53501688498e0f886f0c9eea-38"}, {"reasons": {"count": 0, "items": [{"summary": "This spot is popular", "type": "general", "reasonName": "globalInteractionReason"}]}, "venue": {"id": "5756fc8b498e1522aee2715f", "name": "Modern Graphics", "location": {"address": "Kastanienallee 79", "lat": 52.53679586076086, "lng": 13.407884605206187, "labeledLatLngs": [{"label": "display", "lat": 52.53679586076086, "lng": 13.407884605206187}], "distance": 454, "postalCode": "10435", "cc": "DE", "city": "Berlin", "state": "Berlin", "country": "Deutschland", "formattedAddress": ["Kastanienallee 79", "10435 Berlin", "Deutschland"]}, "categories": [{"id": "52f2ab2ebcbc57f1066b8b18", "name": "Comic Shop", "pluralName": "Comic Shops", "shortName": "Comic Shop", "icon": {"prefix": "https://ss3.4sqi.net/img/categories_v2/shops/comic_", "suffix": ".png"}, "primary": true}], "photos": {"count": 0, "groups": []}}, "referralId": "e-0-5756fc8b498e1522aee2715f-39"}, {"reasons": {"count": 0, "items": [{"summary": "This spot is popular", "type": "general", "reasonName": "globalInteractionReason"}]}, "venue": {"id": "5bd4b4742be425002c4c7d35", "name": "Kokio", "location": {"address": "Hagenauer Str. 9", "lat": 52.539875, "lng": 13.41632, "labeledLatLngs": [{"label": "display", "lat": 52.539875, "lng": 13.41632}], "distance": 578, "postalCode": "10435", "cc": "DE", "city": "Berlin", "state": "Berlin", "country": "Deutschland", "formattedAddress": ["Hagenauer Str. 9", "10435 Berlin", "Deutschland"]}, "categories": [{"id": "4bf58dd8d48988d113941735", "name": "Korean Restaurant", "pluralName": "Korean Restaurants", "shortName": "Korean", "icon": {"prefix": "https://ss3.4sqi.net/img/categories_v2/food/korean_", "suffix": ".png"}, "primary": true}], "photos": {"count": 0, "groups": []}}, "referralId": "e-0-5bd4b4742be425002c4c7d35-40"}, {"reasons": {"count": 0, "items": [{"summary": "This spot is popular", "type": "general", "reasonName": "globalInteractionReason"}]}, "venue": {"id": "4b0e7a04f964a520d65723e3", "name": "Caf\u00e9 Morgenrot", "location": {"address": "Kastanienallee 85", "lat": 52.53759283287074, "lng": 13.408662352041224, "labeledLatLngs": [{"label": "display", "lat": 52.53759283287074, "lng": 13.408662352041224}], "distance": 460, "postalCode": "10435", "cc": "DE", "city": "Berlin", "state": "Berlin", "country": "Deutschland", "formattedAddress": ["Kastanienallee 85", "10435 Berlin", "Deutschland"]}, "categories": [{"id": "4bf58dd8d48988d1d3941735", "name": "Vegetarian / Vegan Restaurant", "pluralName": "Vegetarian / Vegan Restaurants", "shortName": "Vegetarian / Vegan", "icon": {"prefix": "https://ss3.4sqi.net/img/categories_v2/food/vegetarian_", "suffix": ".png"}, "primary": true}], "photos": {"count": 0, "groups": []}}, "referralId": "e-0-4b0e7a04f964a520d65723e3-41"}, {"reasons": {"count": 0, "items": [{"summary": "This spot is popular", "type": "general", "reasonName": "globalInteractionReason"}]}, "venue": {"id": "4afafa28f964a520071a22e3", "name": "No Fire No Glory", "location": {"address": "Rykestr. 45", "lat": 52.53656704857194, "lng": 13.420561683880376, "labeledLatLngs": [{"label": "display", "lat": 52.53656704857194, "lng": 13.420561683880376}], "distance": 491, "postalCode": "10405", "cc": "DE", "city": "Berlin", "state": "Berlin", "country": "Deutschland", "formattedAddress": ["Rykestr. 45", "10405 Berlin", "Deutschland"]}, "categories": [{"id": "4bf58dd8d48988d1e0931735", "name": "Coffee Shop", "pluralName": "Coffee Shops", "shortName": "Coffee Shop", "icon": {"prefix": "https://ss3.4sqi.net/img/categories_v2/food/coffeeshop_", "suffix": ".png"}, "primary": true}], "photos": {"count": 0, "groups": []}, "venuePage": {"id": "34475687"}}, "referralId": "e-0-4afafa28f964a520071a22e3-42"}, {"reasons": {"count": 0, "items": [{"summary": "This spot is popular", "type": "general", "reasonName": "globalInteractionReason"}]}, "venue": {"id": "4e93f979d5fb27b8eadfbbe5", "name": "Meta Mate Bar", "location": {"address": "Stra\u00dfburger Str. 16", "lat": 52.53070975731997, "lng": 13.414693091749951, "labeledLatLngs": [{"label": "display", "lat": 52.53070975731997, "lng": 13.414693091749951}], "distance": 470, "postalCode": "10405", "cc": "DE", "city": "Berlin", "state": "Berlin", "country": "Deutschland", "formattedAddress": ["Stra\u00dfburger Str. 16", "10405 Berlin", "Deutschland"]}, "categories": [{"id": "4bf58dd8d48988d1dc931735", "name": "Tea Room", "pluralName": "Tea Rooms", "shortName": "Tea Room", "icon": {"prefix": "https://ss3.4sqi.net/img/categories_v2/food/tearoom_", "suffix": ".png"}, "primary": true}], "photos": {"count": 0, "groups": []}, "venuePage": {"id": "33178485"}}, "referralId": "e-0-4e93f979d5fb27b8eadfbbe5-43"}, {"reasons": {"count": 0, "items": [{"summary": "This spot is popular", "type": "general", "reasonName": "globalInteractionReason"}]}, "venue": {"id": "5905fc33d1a4026a24155ce6", "name": "Message In A Bottle", "location": {"address": "Knaackstr. 76", "crossStreet": "Sredzkistr.", "lat": 52.538529, "lng": 13.415299, "labeledLatLngs": [{"label": "display", "lat": 52.538529, "lng": 13.415299}], "distance": 415, "postalCode": "10435", "cc": "DE", "city": "Berlin", "state": "Berlin", "country": "Deutschland", "formattedAddress": ["Knaackstr. 76 (Sredzkistr.)", "10435 Berlin", "Deutschland"]}, "categories": [{"id": "56aa371ce4b08b9a8d57356c", "name": "Beer Bar", "pluralName": "Beer Bars", "shortName": "Beer Bar", "icon": {"prefix": "https://ss3.4sqi.net/img/categories_v2/nightlife/pub_", "suffix": ".png"}, "primary": true}], "photos": {"count": 0, "groups": []}}, "referralId": "e-0-5905fc33d1a4026a24155ce6-44"}, {"reasons": {"count": 0, "items": [{"summary": "This spot is popular", "type": "general", "reasonName": "globalInteractionReason"}]}, "venue": {"id": "54a023da498ebe84f4d937b8", "name": "C\u00e1t T\u01b0\u1eddng", "location": {"address": "Kastanienallee 89", "lat": 52.5381849061917, "lng": 13.409276763077653, "labeledLatLngs": [{"label": "display", "lat": 52.5381849061917, "lng": 13.409276763077653}], "distance": 477, "postalCode": "10435", "cc": "DE", "city": "Berlin", "state": "Berlin", "country": "Deutschland", "formattedAddress": ["Kastanienallee 89", "10435 Berlin", "Deutschland"]}, "categories": [{"id": "4bf58dd8d48988d1d3941735", "name": "Vegetarian / Vegan Restaurant", "pluralName": "Vegetarian / Vegan Restaurants", "shortName": "Vegetarian / Vegan", "icon": {"prefix": "https://ss3.4sqi.net/img/categories_v2/food/vegetarian_", "suffix": ".png"}, "primary": true}], "photos": {"count": 0, "groups": []}}, "referralId": "e-0-54a023da498ebe84f4d937b8-45"}, {"reasons": {"count": 0, "items": [{"summary": "This spot is popular", "type": "general", "reasonName": "globalInteractionReason"}]}, "venue": {"id": "4b07b97af964a520a6ff22e3", "name": "\u00d6komarkt am Kollwitzplatz", "location": {"address": "W\u00f6rther Str.", "crossStreet": "Kollwitzplatz", "lat": 52.536677646114754, "lng": 13.417643308639526, "labeledLatLngs": [{"label": "display", "lat": 52.536677646114754, "lng": 13.417643308639526}], "distance": 324, "postalCode": "10435", "cc": "DE", "city": "Berlin", "state": "Berlin", "country": "Deutschland", "formattedAddress": ["W\u00f6rther Str. (Kollwitzplatz)", "10435 Berlin", "Deutschland"]}, "categories": [{"id": "50be8ee891d4fa8dcc7199a7", "name": "Market", "pluralName": "Markets", "shortName": "Market", "icon": {"prefix": "https://ss3.4sqi.net/img/categories_v2/shops/market_", "suffix": ".png"}, "primary": true}], "photos": {"count": 0, "groups": []}}, "referralId": "e-0-4b07b97af964a520a6ff22e3-46"}, {"reasons": {"count": 0, "items": [{"summary": "This spot is popular", "type": "general", "reasonName": "globalInteractionReason"}]}, "venue": {"id": "5ddac764e2b8c00007ecf472", "name": "OTTO", "location": {"address": "Oderberger Str. 56", "lat": 52.53798, "lng": 13.410142, "labeledLatLngs": [{"label": "display", "lat": 52.53798, "lng": 13.410142}], "distance": 423, "postalCode": "10435", "cc": "DE", "city": "Berlin", "state": "Berlin", "country": "Deutschland", "formattedAddress": ["Oderberger Str. 56", "10435 Berlin", "Deutschland"]}, "categories": [{"id": "52e81612bcbc57f1066b79f1", "name": "Bistro", "pluralName": "Bistros", "shortName": "Bistro", "icon": {"prefix": "https://ss3.4sqi.net/img/categories_v2/food/default_", "suffix": ".png"}, "primary": true}], "photos": {"count": 0, "groups": []}}, "referralId": "e-0-5ddac764e2b8c00007ecf472-47"}, {"reasons": {"count": 0, "items": [{"summary": "This spot is popular", "type": "general", "reasonName": "globalInteractionReason"}]}, "venue": {"id": "50335ae3e4b068ac48ade2a0", "name": "Berlin on Bike", "location": {"address": "Knaackstr. 97", "lat": 52.53980914191299, "lng": 13.413384233903482, "labeledLatLngs": [{"label": "display", "lat": 52.53980914191299, "lng": 13.413384233903482}], "distance": 546, "postalCode": "10435", "cc": "DE", "city": "Berlin", "state": "Berlin", "country": "Deutschland", "formattedAddress": ["Knaackstr. 97", "10435 Berlin", "Deutschland"]}, "categories": [{"id": "4e4c9077bd41f78e849722f9", "name": "Bike Rental / Bike Share", "pluralName": "Bike Rentals / Bike Shares", "shortName": "Bike", "icon": {"prefix": "https://ss3.4sqi.net/img/categories_v2/shops/bikeshop_", "suffix": ".png"}, "primary": true}], "photos": {"count": 0, "groups": []}, "venuePage": {"id": "125048064"}}, "referralId": "e-0-50335ae3e4b068ac48ade2a0-48"}, {"reasons": {"count": 0, "items": [{"summary": "This spot is popular", "type": "general", "reasonName": "globalInteractionReason"}]}, "venue": {"id": "51cb21b1498ebfb681538a08", "name": "Sp\u00e4tkauf W\u00f6rther Str. 33", "location": {"address": "W\u00f6rther Str. 33", "lat": 52.536441186925565, "lng": 13.418747741475405, "labeledLatLngs": [{"label": "display", "lat": 52.536441186925565, "lng": 13.418747741475405}], "distance": 374, "cc": "DE", "city": "Berlin", "state": "Berlin", "country": "Deutschland", "formattedAddress": ["W\u00f6rther Str. 33", "Berlin", "Deutschland"]}, "categories": [{"id": "4d954b0ea243a5684a65b473", "name": "Convenience Store", "pluralName": "Convenience Stores", "shortName": "Convenience Store", "icon": {"prefix": "https://ss3.4sqi.net/img/categories_v2/shops/conveniencestore_", "suffix": ".png"}, "primary": true}], "photos": {"count": 0, "groups": []}}, "referralId": "e-0-51cb21b1498ebfb681538a08-49"}, {"reasons": {"count": 0, "items": [{"summary": "This spot is popular", "type": "general", "reasonName": "globalInteractionReason"}]}, "venue": {"id": "545417ea498e603ae5ce6497", "name": "Tuchers Bratwursth\u00e4usle", "location": {"address": "Sredzkistr. 30", "lat": 52.538254, "lng": 13.416766, "labeledLatLngs": [{"label": "display", "lat": 52.538254, "lng": 13.416766}], "distance": 422, "postalCode": "10435", "cc": "DE", "neighborhood": "Kollwitzkiez", "city": "Berlin", "state": "Berlin", "country": "Deutschland", "formattedAddress": ["Sredzkistr. 30", "10435 Berlin", "Deutschland"]}, "categories": [{"id": "4bf58dd8d48988d10d941735", "name": "German Restaurant", "pluralName": "German Restaurants", "shortName": "German", "icon": {"prefix": "https://ss3.4sqi.net/img/categories_v2/food/german_", "suffix": ".png"}, "primary": true}], "photos": {"count": 0, "groups": []}}, "referralId": "e-0-545417ea498e603ae5ce6497-50"}, {"reasons": {"count": 0, "items": [{"summary": "This spot is popular", "type": "general", "reasonName": "globalInteractionReason"}]}, "venue": {"id": "5bd47dc267e5f2002cd7e73a", "name": "L'\u00e9picerie", "location": {"address": "W\u00f6rther Str. 19", "crossStreet": "Rykestr.", "lat": 52.535896, "lng": 13.420355, "labeledLatLngs": [{"label": "display", "lat": 52.535896, "lng": 13.420355}], "distance": 455, "postalCode": "10405", "cc": "DE", "neighborhood": "Kollwitzkiez", "city": "Berlin", "state": "Berlin", "country": "Deutschland", "formattedAddress": ["W\u00f6rther Str. 19 (Rykestr.)", "10405 Berlin", "Deutschland"]}, "categories": [{"id": "4bf58dd8d48988d1f5941735", "name": "Gourmet Shop", "pluralName": "Gourmet Shops", "shortName": "Gourmet", "icon": {"prefix": "https://ss3.4sqi.net/img/categories_v2/shops/food_gourmet_", "suffix": ".png"}, "primary": true}], "photos": {"count": 0, "groups": []}}, "referralId": "e-0-5bd47dc267e5f2002cd7e73a-51"}, {"reasons": {"count": 0, "items": [{"summary": "This spot is popular", "type": "general", "reasonName": "globalInteractionReason"}]}, "venue": {"id": "4faea556e4b0ec82893bbb05", "name": "Nothaft", "location": {"address": "Sch\u00f6nhauser Allee 43a", "crossStreet": "Danziger Str.", "lat": 52.540269136969584, "lng": 13.412257663002183, "labeledLatLngs": [{"label": "display", "lat": 52.540269136969584, "lng": 13.412257663002183}], "distance": 606, "postalCode": "10435", "cc": "DE", "city": "Berlin", "state": "Berlin", "country": "Deutschland", "formattedAddress": ["Sch\u00f6nhauser Allee 43a (Danziger Str.)", "10435 Berlin", "Deutschland"]}, "categories": [{"id": "4bf58dd8d48988d16d941735", "name": "Caf\u00e9", "pluralName": "Caf\u00e9s", "shortName": "Caf\u00e9", "icon": {"prefix": "https://ss3.4sqi.net/img/categories_v2/food/cafe_", "suffix": ".png"}, "primary": true}], "photos": {"count": 0, "groups": []}, "venuePage": {"id": "103365601"}}, "referralId": "e-0-4faea556e4b0ec82893bbb05-52"}, {"reasons": {"count": 0, "items": [{"summary": "This spot is popular", "type": "general", "reasonName": "globalInteractionReason"}]}, "venue": {"id": "4ade320cf964a520cf7321e3", "name": "W - Der Imbiss", "location": {"address": "Kastanienallee 49", "crossStreet": "Zionskirchstr.", "lat": 52.534230383614386, "lng": 13.405117392539978, "labeledLatLngs": [{"label": "display", "lat": 52.534230383614386, "lng": 13.405117392539978}], "distance": 594, "postalCode": "10119", "cc": "DE", "neighborhood": "Mitte", "city": "Berlin", "state": "Berlin", "country": "Deutschland", "formattedAddress": ["Kastanienallee 49 (Zionskirchstr.)", "10119 Berlin", "Deutschland"]}, "categories": [{"id": "4bf58dd8d48988d1d3941735", "name": "Vegetarian / Vegan Restaurant", "pluralName": "Vegetarian / Vegan Restaurants", "shortName": "Vegetarian / Vegan", "icon": {"prefix": "https://ss3.4sqi.net/img/categories_v2/food/vegetarian_", "suffix": ".png"}, "primary": true}], "photos": {"count": 0, "groups": []}, "venuePage": {"id": "469207190"}}, "referralId": "e-0-4ade320cf964a520cf7321e3-53"}, {"reasons": {"count": 0, "items": [{"summary": "This spot is popular", "type": "general", "reasonName": "globalInteractionReason"}]}, "venue": {"id": "54bb8ade498e9a614793113c", "name": "Street Food auf Achse", "location": {"address": "Sch\u00f6nhauser Allee 36", "lat": 52.53856325355695, "lng": 13.41321953363144, "labeledLatLngs": [{"label": "display", "lat": 52.53856325355695, "lng": 13.41321953363144}], "distance": 409, "postalCode": "10435", "cc": "DE", "city": "Berlin", "state": "Berlin", "country": "Deutschland", "formattedAddress": ["Sch\u00f6nhauser Allee 36", "10435 Berlin", "Deutschland"]}, "categories": [{"id": "53e0feef498e5aac066fd8a9", "name": "Street Food Gathering", "pluralName": "Street Food Gatherings", "shortName": "Street Food Gathering", "icon": {"prefix": "https://ss3.4sqi.net/img/categories_v2/food/streetfood_", "suffix": ".png"}, "primary": true}], "photos": {"count": 0, "groups": []}}, "referralId": "e-0-54bb8ade498e9a614793113c-54"}, {"reasons": {"count": 0, "items": [{"summary": "This spot is popular", "type": "general", "reasonName": "globalInteractionReason"}]}, "venue": {"id": "538ffc06498e2cb938159ccd", "name": "Backstube SowohlAlsAuch", "location": {"address": "Sredzkistr. 53", "crossStreet": "Kollwitzstr.", "lat": 52.538119835602814, "lng": 13.420464992523192, "labeledLatLngs": [{"label": "display", "lat": 52.538119835602814, "lng": 13.420464992523192}], "distance": 574, "postalCode": "10405", "cc": "DE", "city": "Berlin", "state": "Berlin", "country": "Deutschland", "formattedAddress": ["Sredzkistr. 53 (Kollwitzstr.)", "10405 Berlin", "Deutschland"]}, "categories": [{"id": "4bf58dd8d48988d16a941735", "name": "Bakery", "pluralName": "Bakeries", "shortName": "Bakery", "icon": {"prefix": "https://ss3.4sqi.net/img/categories_v2/food/bakery_", "suffix": ".png"}, "primary": true}], "photos": {"count": 0, "groups": []}}, "referralId": "e-0-538ffc06498e2cb938159ccd-55"}, {"reasons": {"count": 0, "items": [{"summary": "This spot is popular", "type": "general", "reasonName": "globalInteractionReason"}]}, "venue": {"id": "570786c4498e2c6e767286eb", "name": "HEIDE's", "location": {"address": "Rykestrasse 52", "lat": 52.53503918111514, "lng": 13.41934515030824, "labeledLatLngs": [{"label": "display", "lat": 52.53503918111514, "lng": 13.41934515030824}], "distance": 373, "postalCode": "10405", "cc": "DE", "city": "Berlin", "state": "Berlin", "country": "Deutschland", "formattedAddress": ["Rykestrasse 52", "10405 Berlin", "Deutschland"]}, "categories": [{"id": "52e81612bcbc57f1066b79f1", "name": "Bistro", "pluralName": "Bistros", "shortName": "Bistro", "icon": {"prefix": "https://ss3.4sqi.net/img/categories_v2/food/default_", "suffix": ".png"}, "primary": true}], "photos": {"count": 0, "groups": []}, "venuePage": {"id": "341564063"}}, "referralId": "e-0-570786c4498e2c6e767286eb-56"}, {"reasons": {"count": 0, "items": [{"summary": "This spot is popular", "type": "general", "reasonName": "globalInteractionReason"}]}, "venue": {"id": "584be65818fd2b05b68c459c", "name": "Love Story of Berlin", "location": {"lat": 52.538456, "lng": 13.40952, "labeledLatLngs": [{"label": "display", "lat": 52.538456, "lng": 13.40952}], "distance": 491, "cc": "DE", "country": "Deutschland", "formattedAddress": ["Deutschland"]}, "categories": [{"id": "4bf58dd8d48988d114951735", "name": "Bookstore", "pluralName": "Bookstores", "shortName": "Bookstore", "icon": {"prefix": "https://ss3.4sqi.net/img/categories_v2/shops/bookstore_", "suffix": ".png"}, "primary": true}], "photos": {"count": 0, "groups": []}}, "referralId": "e-0-584be65818fd2b05b68c459c-57"}, {"reasons": {"count": 0, "items": [{"summary": "This spot is popular", "type": "general", "reasonName": "globalInteractionReason"}]}, "venue": {"id": "4b9ce6c6f964a520648136e3", "name": "Napoljonska", "location": {"address": "Kastanienallee 43", "crossStreet": "Zionskirchstr.", "lat": 52.53485363274298, "lng": 13.405777215957642, "labeledLatLngs": [{"label": "display", "lat": 52.53485363274298, "lng": 13.405777215957642}], "distance": 545, "postalCode": "10119", "cc": "DE", "city": "Berlin", "state": "Berlin", "country": "Deutschland", "formattedAddress": ["Kastanienallee 43 (Zionskirchstr.)", "10119 Berlin", "Deutschland"]}, "categories": [{"id": "4bf58dd8d48988d143941735", "name": "Breakfast Spot", "pluralName": "Breakfast Spots", "shortName": "Breakfast", "icon": {"prefix": "https://ss3.4sqi.net/img/categories_v2/food/breakfast_", "suffix": ".png"}, "primary": true}], "photos": {"count": 0, "groups": []}}, "referralId": "e-0-4b9ce6c6f964a520648136e3-58"}, {"reasons": {"count": 0, "items": [{"summary": "This spot is popular", "type": "general", "reasonName": "globalInteractionReason"}]}, "venue": {"id": "4b54ad4af964a5208bc627e3", "name": "I Due Forni", "location": {"address": "Sch\u00f6nhauser Allee 12", "crossStreet": "Saarbr\u00fccker Str.", "lat": 52.53077788005292, "lng": 13.412472009658813, "labeledLatLngs": [{"label": "display", "lat": 52.53077788005292, "lng": 13.412472009658813}], "distance": 468, "postalCode": "10119", "cc": "DE", "city": "Berlin", "state": "Berlin", "country": "Deutschland", "formattedAddress": ["Sch\u00f6nhauser Allee 12 (Saarbr\u00fccker Str.)", "10119 Berlin", "Deutschland"]}, "categories": [{"id": "4bf58dd8d48988d110941735", "name": "Italian Restaurant", "pluralName": "Italian Restaurants", "shortName": "Italian", "icon": {"prefix": "https://ss3.4sqi.net/img/categories_v2/food/italian_", "suffix": ".png"}, "primary": true}], "photos": {"count": 0, "groups": []}}, "referralId": "e-0-4b54ad4af964a5208bc627e3-59"}, {"reasons": {"count": 0, "items": [{"summary": "This spot is popular", "type": "general", "reasonName": "globalInteractionReason"}]}, "venue": {"id": "51447066e4b0a40e3a7d9fa8", "name": "B\u00f6tzow Brauerei", "location": {"address": "Prenzlauer Allee 242", "lat": 52.53024204392071, "lng": 13.417292523321192, "labeledLatLngs": [{"label": "display", "lat": 52.53024204392071, "lng": 13.417292523321192}], "distance": 569, "postalCode": "10405", "cc": "DE", "city": "Berlin", "state": "Berlin", "country": "Deutschland", "formattedAddress": ["Prenzlauer Allee 242", "10405 Berlin", "Deutschland"]}, "categories": [{"id": "4deefb944765f83613cdba6e", "name": "Historic Site", "pluralName": "Historic Sites", "shortName": "Historic Site", "icon": {"prefix": "https://ss3.4sqi.net/img/categories_v2/arts_entertainment/historicsite_", "suffix": ".png"}, "primary": true}], "photos": {"count": 0, "groups": []}}, "referralId": "e-0-51447066e4b0a40e3a7d9fa8-60"}, {"reasons": {"count": 0, "items": [{"summary": "This spot is popular", "type": "general", "reasonName": "globalInteractionReason"}]}, "venue": {"id": "4c377b4adfb0e21ebfddaca8", "name": "Fischfabrik", "location": {"address": "Danziger Str. 24", "crossStreet": "Schliemannstr.", "lat": 52.539986940532955, "lng": 13.41709895968961, "labeledLatLngs": [{"label": "display", "lat": 52.539986940532955, "lng": 13.41709895968961}], "distance": 607, "postalCode": "10435", "cc": "DE", "city": "Berlin", "state": "Berlin", "country": "Deutschland", "formattedAddress": ["Danziger Str. 24 (Schliemannstr.)", "10435 Berlin", "Deutschland"]}, "categories": [{"id": "4bf58dd8d48988d1ce941735", "name": "Seafood Restaurant", "pluralName": "Seafood Restaurants", "shortName": "Seafood", "icon": {"prefix": "https://ss3.4sqi.net/img/categories_v2/food/seafood_", "suffix": ".png"}, "primary": true}], "photos": {"count": 0, "groups": []}}, "referralId": "e-0-4c377b4adfb0e21ebfddaca8-61"}, {"reasons": {"count": 0, "items": [{"summary": "This spot is popular", "type": "general", "reasonName": "globalInteractionReason"}]}, "venue": {"id": "57caf709498e5242e923ec95", "name": "Flaschbierschop", "location": {"address": "Fehrbelliner Stra\u00dfe 3", "crossStreet": "Sch\u00f6nhauser Allee 180", "lat": 52.5307122265945, "lng": 13.410815126023211, "labeledLatLngs": [{"label": "display", "lat": 52.5307122265945, "lng": 13.410815126023211}], "distance": 509, "postalCode": "10119", "cc": "DE", "city": "Berlin", "state": "Berlin", "country": "Deutschland", "formattedAddress": ["Fehrbelliner Stra\u00dfe 3 (Sch\u00f6nhauser Allee 180)", "10119 Berlin", "Deutschland"]}, "categories": [{"id": "5370f356bcbc57f1066c94c2", "name": "Beer Store", "pluralName": "Beer Stores", "shortName": "Beer Store", "icon": {"prefix": "https://ss3.4sqi.net/img/categories_v2/nightlife/beergarden_", "suffix": ".png"}, "primary": true}], "photos": {"count": 0, "groups": []}, "venuePage": {"id": "577220083"}}, "referralId": "e-0-57caf709498e5242e923ec95-62"}, {"reasons": {"count": 0, "items": [{"summary": "This spot is popular", "type": "general", "reasonName": "globalInteractionReason"}]}, "venue": {"id": "5bb0fca99fca56002cfecc11", "name": "R\u00fcyam Gem\u00fcse Kebap", "location": {"lat": 52.540562992251395, "lng": 13.412208178078075, "labeledLatLngs": [{"label": "display", "lat": 52.540562992251395, "lng": 13.412208178078075}], "distance": 639, "cc": "DE", "neighborhood": "Kollwitzkiez", "city": "Berlin", "state": "Berlin", "country": "Deutschland", "formattedAddress": ["Berlin", "Deutschland"]}, "categories": [{"id": "5283c7b4e4b094cb91ec88d8", "name": "Doner Restaurant", "pluralName": "Doner Restaurants", "shortName": "Doner", "icon": {"prefix": "https://ss3.4sqi.net/img/categories_v2/food/turkish_", "suffix": ".png"}, "primary": true}], "photos": {"count": 0, "groups": []}}, "referralId": "e-0-5bb0fca99fca56002cfecc11-63"}, {"reasons": {"count": 0, "items": [{"summary": "This spot is popular", "type": "general", "reasonName": "globalInteractionReason"}]}, "venue": {"id": "596e5d8f9fca56559d3a1cd4", "name": "Tribeca Ice Cream", "location": {"address": "Rykestr. 40", "lat": 52.53739405956309, "lng": 13.421227304113174, "labeledLatLngs": [{"label": "display", "lat": 52.53739405956309, "lng": 13.421227304113174}], "distance": 572, "postalCode": "10405", "cc": "DE", "city": "Berlin", "state": "Berlin", "country": "Deutschland", "formattedAddress": ["Rykestr. 40", "10405 Berlin", "Deutschland"]}, "categories": [{"id": "4bf58dd8d48988d1c9941735", "name": "Ice Cream Shop", "pluralName": "Ice Cream Shops", "shortName": "Ice Cream", "icon": {"prefix": "https://ss3.4sqi.net/img/categories_v2/food/icecream_", "suffix": ".png"}, "primary": true}], "photos": {"count": 0, "groups": []}}, "referralId": "e-0-596e5d8f9fca56559d3a1cd4-64"}, {"reasons": {"count": 0, "items": [{"summary": "This spot is popular", "type": "general", "reasonName": "globalInteractionReason"}]}, "venue": {"id": "52cbf133498e78d875c9f01f", "name": "K'UPS Gem\u00fcsekebap", "location": {"address": "Kastanienallee 102", "lat": 52.53999731196545, "lng": 13.411222019202992, "labeledLatLngs": [{"label": "display", "lat": 52.53999731196545, "lng": 13.411222019202992}], "distance": 593, "postalCode": "10435", "cc": "DE", "city": "Berlin", "state": "Berlin", "country": "Deutschland", "formattedAddress": ["Kastanienallee 102", "10435 Berlin", "Deutschland"]}, "categories": [{"id": "5283c7b4e4b094cb91ec88d8", "name": "Doner Restaurant", "pluralName": "Doner Restaurants", "shortName": "Doner", "icon": {"prefix": "https://ss3.4sqi.net/img/categories_v2/food/turkish_", "suffix": ".png"}, "primary": true}], "photos": {"count": 0, "groups": []}}, "referralId": "e-0-52cbf133498e78d875c9f01f-65"}, {"reasons": {"count": 0, "items": [{"summary": "This spot is popular", "type": "general", "reasonName": "globalInteractionReason"}]}, "venue": {"id": "4bb89ddb314e9521dd90489d", "name": "Babel", "location": {"address": "Kastanienallee 33", "crossStreet": "Schwedter Str.", "lat": 52.5366667072201, "lng": 13.407710761010254, "labeledLatLngs": [{"label": "display", "lat": 52.5366667072201, "lng": 13.407710761010254}], "distance": 458, "postalCode": "10435", "cc": "DE", "city": "Berlin", "state": "Berlin", "country": "Deutschland", "formattedAddress": ["Kastanienallee 33 (Schwedter Str.)", "10435 Berlin", "Deutschland"]}, "categories": [{"id": "4bf58dd8d48988d115941735", "name": "Middle Eastern Restaurant", "pluralName": "Middle Eastern Restaurants", "shortName": "Middle Eastern", "icon": {"prefix": "https://ss3.4sqi.net/img/categories_v2/food/middleeastern_", "suffix": ".png"}, "primary": true}], "photos": {"count": 0, "groups": []}}, "referralId": "e-0-4bb89ddb314e9521dd90489d-66"}, {"reasons": {"count": 0, "items": [{"summary": "This spot is popular", "type": "general", "reasonName": "globalInteractionReason"}]}, "venue": {"id": "5cfd3336364d97002ce27ded", "name": "Roji - Godai No Sekai", "location": {"address": "Oderberger Stra\u00dfe 11", "lat": 52.538976, "lng": 13.409018, "labeledLatLngs": [{"label": "display", "lat": 52.538976, "lng": 13.409018}], "distance": 557, "postalCode": "10435", "cc": "DE", "city": "Berlin", "state": "Berlin", "country": "Deutschland", "formattedAddress": ["Oderberger Stra\u00dfe 11", "10435 Berlin", "Deutschland"]}, "categories": [{"id": "4bf58dd8d48988d111941735", "name": "Japanese Restaurant", "pluralName": "Japanese Restaurants", "shortName": "Japanese", "icon": {"prefix": "https://ss3.4sqi.net/img/categories_v2/food/japanese_", "suffix": ".png"}, "primary": true}], "photos": {"count": 0, "groups": []}}, "referralId": "e-0-5cfd3336364d97002ce27ded-67"}, {"reasons": {"count": 0, "items": [{"summary": "This spot is popular", "type": "general", "reasonName": "globalInteractionReason"}]}, "venue": {"id": "4b611125f964a5207c082ae3", "name": "Pratergarten", "location": {"address": "Kastanienallee 7-9", "lat": 52.54017536317262, "lng": 13.409757614135742, "labeledLatLngs": [{"label": "display", "lat": 52.54017536317262, "lng": 13.409757614135742}], "distance": 648, "postalCode": "10435", "cc": "DE", "city": "Berlin", "state": "Berlin", "country": "Deutschland", "formattedAddress": ["Kastanienallee 7-9", "10435 Berlin", "Deutschland"]}, "categories": [{"id": "4bf58dd8d48988d117941735", "name": "Beer Garden", "pluralName": "Beer Gardens", "shortName": "Beer Garden", "icon": {"prefix": "https://ss3.4sqi.net/img/categories_v2/nightlife/beergarden_", "suffix": ".png"}, "primary": true}], "photos": {"count": 0, "groups": []}, "venuePage": {"id": "128490633"}}, "referralId": "e-0-4b611125f964a5207c082ae3-68"}, {"reasons": {"count": 0, "items": [{"summary": "This spot is popular", "type": "general", "reasonName": "globalInteractionReason"}]}, "venue": {"id": "4c4c9ac1f96ac9b687b76098", "name": "Pizza Pane", "location": {"address": "Kastanienallee 28", "lat": 52.53716754796844, "lng": 13.408160132081074, "labeledLatLngs": [{"label": "display", "lat": 52.53716754796844, "lng": 13.408160132081074}], "distance": 458, "postalCode": "10435", "cc": "DE", "city": "Berlin", "state": "Berlin", "country": "Deutschland", "formattedAddress": ["Kastanienallee 28", "10435 Berlin", "Deutschland"]}, "categories": [{"id": "4bf58dd8d48988d1ca941735", "name": "Pizza Place", "pluralName": "Pizza Places", "shortName": "Pizza", "icon": {"prefix": "https://ss3.4sqi.net/img/categories_v2/food/pizza_", "suffix": ".png"}, "primary": true}], "photos": {"count": 0, "groups": []}}, "referralId": "e-0-4c4c9ac1f96ac9b687b76098-69"}, {"reasons": {"count": 0, "items": [{"summary": "This spot is popular", "type": "general", "reasonName": "globalInteractionReason"}]}, "venue": {"id": "4f8ea7c6e4b00231899b6b7d", "name": "Ha-an Sushi", "location": {"address": "Kastanienallee 18", "lat": 52.53824864908185, "lng": 13.40936535077294, "labeledLatLngs": [{"label": "display", "lat": 52.53824864908185, "lng": 13.40936535077294}], "distance": 479, "postalCode": "10435", "cc": "DE", "city": "Berlin", "state": "Berlin", "country": "Deutschland", "formattedAddress": ["Kastanienallee 18", "10435 Berlin", "Deutschland"]}, "categories": [{"id": "4bf58dd8d48988d1d2941735", "name": "Sushi Restaurant", "pluralName": "Sushi Restaurants", "shortName": "Sushi", "icon": {"prefix": "https://ss3.4sqi.net/img/categories_v2/food/sushi_", "suffix": ".png"}, "primary": true}], "photos": {"count": 0, "groups": []}}, "referralId": "e-0-4f8ea7c6e4b00231899b6b7d-70"}, {"reasons": {"count": 0, "items": [{"summary": "This spot is popular", "type": "general", "reasonName": "globalInteractionReason"}]}, "venue": {"id": "51c981ce498efbb0eda8b301", "name": "Kyo Grill", "location": {"address": "Kastanienallee 23", "lat": 52.53771334496052, "lng": 13.408834604408824, "labeledLatLngs": [{"label": "display", "lat": 52.53771334496052, "lng": 13.408834604408824}], "distance": 460, "cc": "DE", "city": "Berlin", "state": "Berlin", "country": "Deutschland", "formattedAddress": ["Kastanienallee 23", "Berlin", "Deutschland"]}, "categories": [{"id": "4bf58dd8d48988d1df931735", "name": "BBQ Joint", "pluralName": "BBQ Joints", "shortName": "BBQ", "icon": {"prefix": "https://ss3.4sqi.net/img/categories_v2/food/bbqalt_", "suffix": ".png"}, "primary": true}], "photos": {"count": 0, "groups": []}}, "referralId": "e-0-51c981ce498efbb0eda8b301-71"}, {"reasons": {"count": 0, "items": [{"summary": "This spot is popular", "type": "general", "reasonName": "globalInteractionReason"}]}, "venue": {"id": "4b33af2ef964a520ce1c25e3", "name": "Zionskirche", "location": {"address": "Zionskirchstr.", "crossStreet": "Veteranenstr.", "lat": 52.53434212530908, "lng": 13.40388775416483, "labeledLatLngs": [{"label": "display", "lat": 52.53434212530908, "lng": 13.40388775416483}], "distance": 676, "postalCode": "10119", "cc": "DE", "city": "Berlin", "state": "Berlin", "country": "Deutschland", "formattedAddress": ["Zionskirchstr. (Veteranenstr.)", "10119 Berlin", "Deutschland"]}, "categories": [{"id": "4bf58dd8d48988d132941735", "name": "Church", "pluralName": "Churches", "shortName": "Church", "icon": {"prefix": "https://ss3.4sqi.net/img/categories_v2/building/religious_church_", "suffix": ".png"}, "primary": true}], "photos": {"count": 0, "groups": []}}, "referralId": "e-0-4b33af2ef964a520ce1c25e3-72"}, {"reasons": {"count": 0, "items": [{"summary": "This spot is popular", "type": "general", "reasonName": "globalInteractionReason"}]}, "venue": {"id": "532a110a498e8321f7eec61b", "name": "Bryk Bar", "location": {"address": "Rykestr. 18", "lat": 52.53724999929866, "lng": 13.421173070014882, "labeledLatLngs": [{"label": "display", "lat": 52.53724999929866, "lng": 13.421173070014882}], "distance": 561, "postalCode": "10405", "cc": "DE", "city": "Berlin", "state": "Berlin", "country": "Deutschland", "formattedAddress": ["Rykestr. 18", "10405 Berlin", "Deutschland"]}, "categories": [{"id": "4bf58dd8d48988d11e941735", "name": "Cocktail Bar", "pluralName": "Cocktail Bars", "shortName": "Cocktail", "icon": {"prefix": "https://ss3.4sqi.net/img/categories_v2/nightlife/cocktails_", "suffix": ".png"}, "primary": true}], "photos": {"count": 0, "groups": []}}, "referralId": "e-0-532a110a498e8321f7eec61b-73"}, {"reasons": {"count": 0, "items": [{"summary": "This spot is popular", "type": "general", "reasonName": "globalInteractionReason"}]}, "venue": {"id": "4ea1ae50f7909c68ddc84032", "name": "Weinerei Perlin", "location": {"address": "Griebenowstra\u00dfe 5", "crossStreet": "Wolliner Stra\u00dfe", "lat": 52.5358633594944, "lng": 13.405094080396704, "labeledLatLngs": [{"label": "display", "lat": 52.5358633594944, "lng": 13.405094080396704}], "distance": 600, "postalCode": "10435", "cc": "DE", "city": "Berlin", "state": "Berlin", "country": "Deutschland", "formattedAddress": ["Griebenowstra\u00dfe 5 (Wolliner Stra\u00dfe)", "10435 Berlin", "Deutschland"]}, "categories": [{"id": "4bf58dd8d48988d123941735", "name": "Wine Bar", "pluralName": "Wine Bars", "shortName": "Wine Bar", "icon": {"prefix": "https://ss3.4sqi.net/img/categories_v2/food/winery_", "suffix": ".png"}, "primary": true}], "photos": {"count": 0, "groups": []}}, "referralId": "e-0-4ea1ae50f7909c68ddc84032-74"}, {"reasons": {"count": 0, "items": [{"summary": "This spot is popular", "type": "general", "reasonName": "globalInteractionReason"}]}, "venue": {"id": "5a6dd12028374e56b2733adb", "name": "Zeit f\u00fcr Brot", "location": {"address": "Sch\u00f6nhauser Allee 144", "crossStreet": "Eberswalder Str.", "lat": 52.54115904393887, "lng": 13.411777183842078, "labeledLatLngs": [{"label": "display", "lat": 52.54115904393887, "lng": 13.411777183842078}], "distance": 709, "postalCode": "10435", "cc": "DE", "neighborhood": "Sch\u00f6nhauser Allee-Nord", "city": "Berlin", "state": "Berlin", "country": "Deutschland", "formattedAddress": ["Sch\u00f6nhauser Allee 144 (Eberswalder Str.)", "10435 Berlin", "Deutschland"]}, "categories": [{"id": "4bf58dd8d48988d16a941735", "name": "Bakery", "pluralName": "Bakeries", "shortName": "Bakery", "icon": {"prefix": "https://ss3.4sqi.net/img/categories_v2/food/bakery_", "suffix": ".png"}, "primary": true}], "photos": {"count": 0, "groups": []}}, "referralId": "e-0-5a6dd12028374e56b2733adb-75"}, {"reasons": {"count": 0, "items": [{"summary": "This spot is popular", "type": "general", "reasonName": "globalInteractionReason"}]}, "venue": {"id": "4af18fb8f964a5205fe121e3", "name": "Maria Bonita", "location": {"address": "Danziger Str. 33", "lat": 52.540366, "lng": 13.418131, "labeledLatLngs": [{"label": "display", "lat": 52.540366, "lng": 13.418131}], "distance": 673, "postalCode": "10435", "cc": "DE", "city": "Berlin", "state": "Berlin", "country": "Deutschland", "formattedAddress": ["Danziger Str. 33", "10435 Berlin", "Deutschland"]}, "categories": [{"id": "4bf58dd8d48988d1c1941735", "name": "Mexican Restaurant", "pluralName": "Mexican Restaurants", "shortName": "Mexican", "icon": {"prefix": "https://ss3.4sqi.net/img/categories_v2/food/mexican_", "suffix": ".png"}, "primary": true}], "photos": {"count": 0, "groups": []}}, "referralId": "e-0-4af18fb8f964a5205fe121e3-76"}, {"reasons": {"count": 0, "items": [{"summary": "This spot is popular", "type": "general", "reasonName": "globalInteractionReason"}]}, "venue": {"id": "522245af11d29e4ef4df2291", "name": "Muse", "location": {"address": "Immanuelkirchstr. 31", "lat": 52.532938701483936, "lng": 13.423114057701246, "labeledLatLngs": [{"label": "display", "lat": 52.532938701483936, "lng": 13.423114057701246}], "distance": 665, "postalCode": "10405", "cc": "DE", "city": "Berlin", "state": "Berlin", "country": "Deutschland", "formattedAddress": ["Immanuelkirchstr. 31", "10405 Berlin", "Deutschland"]}, "categories": [{"id": "4bf58dd8d48988d14e941735", "name": "American Restaurant", "pluralName": "American Restaurants", "shortName": "American", "icon": {"prefix": "https://ss3.4sqi.net/img/categories_v2/food/default_", "suffix": ".png"}, "primary": true}], "photos": {"count": 0, "groups": []}, "venuePage": {"id": "113377497"}}, "referralId": "e-0-522245af11d29e4ef4df2291-77"}, {"reasons": {"count": 0, "items": [{"summary": "This spot is popular", "type": "general", "reasonName": "globalInteractionReason"}]}, "venue": {"id": "542edf37498e412bc384b638", "name": "Akemi", "location": {"address": "Rykestr. 39", "lat": 52.537619865261455, "lng": 13.421439910844029, "labeledLatLngs": [{"label": "display", "lat": 52.537619865261455, "lng": 13.421439910844029}], "distance": 597, "postalCode": "10405", "cc": "DE", "city": "Berlin", "state": "Berlin", "country": "Deutschland", "formattedAddress": ["Rykestr. 39", "10405 Berlin", "Deutschland"]}, "categories": [{"id": "4bf58dd8d48988d142941735", "name": "Asian Restaurant", "pluralName": "Asian Restaurants", "shortName": "Asian", "icon": {"prefix": "https://ss3.4sqi.net/img/categories_v2/food/asian_", "suffix": ".png"}, "primary": true}], "photos": {"count": 0, "groups": []}}, "referralId": "e-0-542edf37498e412bc384b638-78"}, {"reasons": {"count": 0, "items": [{"summary": "This spot is popular", "type": "general", "reasonName": "globalInteractionReason"}]}, "venue": {"id": "5dc73056c976fd00088aa430", "name": "Burgermeister", "location": {"address": "Sch\u00f6nhauser Allee 45", "crossStreet": "Danziger Str.", "lat": 52.540833, "lng": 13.41253, "labeledLatLngs": [{"label": "display", "lat": 52.540833, "lng": 13.41253}], "distance": 665, "postalCode": "10435", "cc": "DE", "city": "Berlin", "state": "Berlin", "country": "Deutschland", "formattedAddress": ["Sch\u00f6nhauser Allee 45 (Danziger Str.)", "10435 Berlin", "Deutschland"]}, "categories": [{"id": "4bf58dd8d48988d16c941735", "name": "Burger Joint", "pluralName": "Burger Joints", "shortName": "Burgers", "icon": {"prefix": "https://ss3.4sqi.net/img/categories_v2/food/burger_", "suffix": ".png"}, "primary": true}], "photos": {"count": 0, "groups": []}}, "referralId": "e-0-5dc73056c976fd00088aa430-79"}, {"reasons": {"count": 0, "items": [{"summary": "This spot is popular", "type": "general", "reasonName": "globalInteractionReason"}]}, "venue": {"id": "56f39a12498e8886f31f57d2", "name": "Caf\u00e9 Neue Liebe", "location": {"address": "Rykestr. 42", "lat": 52.53707821644291, "lng": 13.42097486201507, "labeledLatLngs": [{"label": "display", "lat": 52.53707821644291, "lng": 13.42097486201507}], "distance": 540, "postalCode": "10405", "cc": "DE", "city": "Berlin", "state": "Berlin", "country": "Deutschland", "formattedAddress": ["Rykestr. 42", "10405 Berlin", "Deutschland"]}, "categories": [{"id": "4bf58dd8d48988d16d941735", "name": "Caf\u00e9", "pluralName": "Caf\u00e9s", "shortName": "Caf\u00e9", "icon": {"prefix": "https://ss3.4sqi.net/img/categories_v2/food/cafe_", "suffix": ".png"}, "primary": true}], "photos": {"count": 0, "groups": []}, "venuePage": {"id": "214437962"}}, "referralId": "e-0-56f39a12498e8886f31f57d2-80"}, {"reasons": {"count": 0, "items": [{"summary": "This spot is popular", "type": "general", "reasonName": "globalInteractionReason"}]}, "venue": {"id": "4dc6ac3245dd2645528eea3c", "name": "Zionskirchplatz", "location": {"address": "Zionskirchstr.", "crossStreet": "Griebenowstr.", "lat": 52.53425657721459, "lng": 13.404267067374413, "labeledLatLngs": [{"label": "display", "lat": 52.53425657721459, "lng": 13.404267067374413}], "distance": 651, "postalCode": "10119", "cc": "DE", "city": "Berlin", "state": "Berlin", "country": "Deutschland", "formattedAddress": ["Zionskirchstr. (Griebenowstr.)", "10119 Berlin", "Deutschland"]}, "categories": [{"id": "4bf58dd8d48988d164941735", "name": "Plaza", "pluralName": "Plazas", "shortName": "Plaza", "icon": {"prefix": "https://ss3.4sqi.net/img/categories_v2/parks_outdoors/plaza_", "suffix": ".png"}, "primary": true}], "photos": {"count": 0, "groups": []}}, "referralId": "e-0-4dc6ac3245dd2645528eea3c-81"}, {"reasons": {"count": 0, "items": [{"summary": "This spot is popular", "type": "general", "reasonName": "globalInteractionReason"}]}, "venue": {"id": "4b222e91f964a5203e4424e3", "name": "Fleischerei Gottschlich", "location": {"address": "Prenzlauer Allee 219", "lat": 52.53456251801887, "lng": 13.421546567746725, "labeledLatLngs": [{"label": "display", "lat": 52.53456251801887, "lng": 13.421546567746725}], "distance": 524, "postalCode": "10405", "cc": "DE", "city": "Berlin", "state": "Berlin", "country": "Deutschland", "formattedAddress": ["Prenzlauer Allee 219", "10405 Berlin", "Deutschland"]}, "categories": [{"id": "4bf58dd8d48988d11d951735", "name": "Butcher", "pluralName": "Butchers", "shortName": "Butcher", "icon": {"prefix": "https://ss3.4sqi.net/img/categories_v2/shops/food_butcher_", "suffix": ".png"}, "primary": true}], "photos": {"count": 0, "groups": []}}, "referralId": "e-0-4b222e91f964a5203e4424e3-82"}, {"reasons": {"count": 0, "items": [{"summary": "This spot is popular", "type": "general", "reasonName": "globalInteractionReason"}]}, "venue": {"id": "4b01c059f964a520244522e3", "name": "Zweistrom", "location": {"address": "Kollwitzstr. 104", "lat": 52.5393128298324, "lng": 13.421396575082154, "labeledLatLngs": [{"label": "display", "lat": 52.5393128298324, "lng": 13.421396575082154}], "distance": 709, "postalCode": "10435", "cc": "DE", "city": "Berlin", "state": "Berlin", "country": "Deutschland", "formattedAddress": ["Kollwitzstr. 104", "10435 Berlin", "Deutschland"]}, "categories": [{"id": "4bf58dd8d48988d10b941735", "name": "Falafel Restaurant", "pluralName": "Falafel Restaurants", "shortName": "Falafel", "icon": {"prefix": "https://ss3.4sqi.net/img/categories_v2/food/falafel_", "suffix": ".png"}, "primary": true}], "photos": {"count": 0, "groups": []}}, "referralId": "e-0-4b01c059f964a520244522e3-83"}, {"reasons": {"count": 0, "items": [{"summary": "This spot is popular", "type": "general", "reasonName": "globalInteractionReason"}]}, "venue": {"id": "5c952132fc9e94002bfb9f02", "name": "Chotto", "location": {"address": "Kollwitzstr. 84", "crossStreet": "Sredzkistr.", "lat": 52.537678, "lng": 13.419915, "labeledLatLngs": [{"label": "display", "lat": 52.537678, "lng": 13.419915}], "distance": 514, "postalCode": "10435", "cc": "DE", "city": "Berlin", "state": "Berlin", "country": "Deutschland", "formattedAddress": ["Kollwitzstr. 84 (Sredzkistr.)", "10435 Berlin", "Deutschland"]}, "categories": [{"id": "4bf58dd8d48988d111941735", "name": "Japanese Restaurant", "pluralName": "Japanese Restaurants", "shortName": "Japanese", "icon": {"prefix": "https://ss3.4sqi.net/img/categories_v2/food/japanese_", "suffix": ".png"}, "primary": true}], "photos": {"count": 0, "groups": []}, "venuePage": {"id": "553580488"}}, "referralId": "e-0-5c952132fc9e94002bfb9f02-84"}, {"reasons": {"count": 0, "items": [{"summary": "This spot is popular", "type": "general", "reasonName": "globalInteractionReason"}]}, "venue": {"id": "4bdcbe03c79cc92852ef87e9", "name": "Perle Bar", "location": {"address": "Sredzkistr. 64", "crossStreet": "Prenzlauer Allee", "lat": 52.53743894857355, "lng": 13.422303633316385, "labeledLatLngs": [{"label": "display", "lat": 52.53743894857355, "lng": 13.422303633316385}], "distance": 639, "postalCode": "10405", "cc": "DE", "city": "Berlin", "state": "Berlin", "country": "Deutschland", "formattedAddress": ["Sredzkistr. 64 (Prenzlauer Allee)", "10405 Berlin", "Deutschland"]}, "categories": [{"id": "4bf58dd8d48988d11e941735", "name": "Cocktail Bar", "pluralName": "Cocktail Bars", "shortName": "Cocktail", "icon": {"prefix": "https://ss3.4sqi.net/img/categories_v2/nightlife/cocktails_", "suffix": ".png"}, "primary": true}], "photos": {"count": 0, "groups": []}, "venuePage": {"id": "39278268"}}, "referralId": "e-0-4bdcbe03c79cc92852ef87e9-85"}, {"reasons": {"count": 0, "items": [{"summary": "This spot is popular", "type": "general", "reasonName": "globalInteractionReason"}]}, "venue": {"id": "4b4f1adbf964a52069fa26e3", "name": "Habba Habba", "location": {"address": "Kastanienallee 15", "lat": 52.538968, "lng": 13.409878, "labeledLatLngs": [{"label": "display", "lat": 52.538968, "lng": 13.409878}], "distance": 525, "postalCode": "10437", "cc": "DE", "city": "Berlin", "state": "Berlin", "country": "Deutschland", "formattedAddress": ["Kastanienallee 15", "10437 Berlin", "Deutschland"]}, "categories": [{"id": "4bf58dd8d48988d115941735", "name": "Middle Eastern Restaurant", "pluralName": "Middle Eastern Restaurants", "shortName": "Middle Eastern", "icon": {"prefix": "https://ss3.4sqi.net/img/categories_v2/food/middleeastern_", "suffix": ".png"}, "primary": true}], "photos": {"count": 0, "groups": []}}, "referralId": "e-0-4b4f1adbf964a52069fa26e3-86"}, {"reasons": {"count": 0, "items": [{"summary": "This spot is popular", "type": "general", "reasonName": "globalInteractionReason"}]}, "venue": {"id": "4af40ca3f964a520e7ef21e3", "name": "Giannis Pasta-Bar", "location": {"address": "Sch\u00f6nhauser Allee 186A", "lat": 52.529343, "lng": 13.409697, "labeledLatLngs": [{"label": "display", "lat": 52.529343, "lng": 13.409697}], "distance": 679, "postalCode": "10119", "cc": "DE", "city": "Berlin", "state": "Berlin", "country": "Deutschland", "formattedAddress": ["Sch\u00f6nhauser Allee 186A", "10119 Berlin", "Deutschland"]}, "categories": [{"id": "4bf58dd8d48988d110941735", "name": "Italian Restaurant", "pluralName": "Italian Restaurants", "shortName": "Italian", "icon": {"prefix": "https://ss3.4sqi.net/img/categories_v2/food/italian_", "suffix": ".png"}, "primary": true}], "photos": {"count": 0, "groups": []}, "venuePage": {"id": "562358047"}}, "referralId": "e-0-4af40ca3f964a520e7ef21e3-87"}, {"reasons": {"count": 0, "items": [{"summary": "This spot is popular", "type": "general", "reasonName": "globalInteractionReason"}]}, "venue": {"id": "59353278c5b11c6c16fec87d", "name": "Haferkater", "location": {"address": "Eberswalder Str. 26", "lat": 52.541151282054216, "lng": 13.411323991030672, "labeledLatLngs": [{"label": "display", "lat": 52.541151282054216, "lng": 13.411323991030672}], "distance": 715, "postalCode": "10437", "cc": "DE", "city": "Berlin", "state": "Berlin", "country": "Deutschland", "formattedAddress": ["Eberswalder Str. 26", "10437 Berlin", "Deutschland"]}, "categories": [{"id": "4bf58dd8d48988d143941735", "name": "Breakfast Spot", "pluralName": "Breakfast Spots", "shortName": "Breakfast", "icon": {"prefix": "https://ss3.4sqi.net/img/categories_v2/food/breakfast_", "suffix": ".png"}, "primary": true}], "photos": {"count": 0, "groups": []}}, "referralId": "e-0-59353278c5b11c6c16fec87d-88"}, {"reasons": {"count": 0, "items": [{"summary": "This spot is popular", "type": "general", "reasonName": "globalInteractionReason"}]}, "venue": {"id": "55771844498eb08a2079f2a7", "name": "Lorch & S\u00f6hne", "location": {"address": "Danziger Str. 25", "lat": 52.54037670566916, "lng": 13.417087259925681, "labeledLatLngs": [{"label": "display", "lat": 52.54037670566916, "lng": 13.417087259925681}], "distance": 647, "postalCode": "10435", "cc": "DE", "neighborhood": "Helmholtzkiez", "city": "Berlin", "state": "Berlin", "country": "Deutschland", "formattedAddress": ["Danziger Str. 25", "10435 Berlin", "Deutschland"]}, "categories": [{"id": "4bf58dd8d48988d16d941735", "name": "Caf\u00e9", "pluralName": "Caf\u00e9s", "shortName": "Caf\u00e9", "icon": {"prefix": "https://ss3.4sqi.net/img/categories_v2/food/cafe_", "suffix": ".png"}, "primary": true}], "photos": {"count": 0, "groups": []}}, "referralId": "e-0-55771844498eb08a2079f2a7-89"}, {"reasons": {"count": 0, "items": [{"summary": "This spot is popular", "type": "general", "reasonName": "globalInteractionReason"}]}, "venue": {"id": "4d84cc015e70224b01141409", "name": "Kochhaus", "location": {"address": "Sch\u00f6nhauser Allee 46", "lat": 52.54143285682619, "lng": 13.41248700530223, "labeledLatLngs": [{"label": "display", "lat": 52.54143285682619, "lng": 13.41248700530223}], "distance": 732, "postalCode": "10437", "cc": "DE", "neighborhood": "Prenzlauer Berg, Berlin", "city": "Berlin", "state": "Berlin", "country": "Deutschland", "formattedAddress": ["Sch\u00f6nhauser Allee 46", "10437 Berlin", "Deutschland"]}, "categories": [{"id": "4bf58dd8d48988d1f5941735", "name": "Gourmet Shop", "pluralName": "Gourmet Shops", "shortName": "Gourmet", "icon": {"prefix": "https://ss3.4sqi.net/img/categories_v2/shops/food_gourmet_", "suffix": ".png"}, "primary": true}], "photos": {"count": 0, "groups": []}}, "referralId": "e-0-4d84cc015e70224b01141409-90"}, {"reasons": {"count": 0, "items": [{"summary": "This spot is popular", "type": "general", "reasonName": "globalInteractionReason"}]}, "venue": {"id": "4adcda90f964a5204a4b21e3", "name": "Weinberg", "location": {"address": "Winsstr. 64a", "crossStreet": "Immanuelkirchstr.", "lat": 52.53269995948009, "lng": 13.424021601676941, "labeledLatLngs": [{"label": "display", "lat": 52.53269995948009, "lng": 13.424021601676941}], "distance": 732, "postalCode": "10405", "cc": "DE", "city": "Berlin", "state": "Berlin", "country": "Deutschland", "formattedAddress": ["Winsstr. 64a (Immanuelkirchstr.)", "10405 Berlin", "Deutschland"]}, "categories": [{"id": "4bf58dd8d48988d123941735", "name": "Wine Bar", "pluralName": "Wine Bars", "shortName": "Wine Bar", "icon": {"prefix": "https://ss3.4sqi.net/img/categories_v2/food/winery_", "suffix": ".png"}, "primary": true}], "photos": {"count": 0, "groups": []}}, "referralId": "e-0-4adcda90f964a5204a4b21e3-91"}, {"reasons": {"count": 0, "items": [{"summary": "This spot is popular", "type": "general", "reasonName": "globalInteractionReason"}]}, "venue": {"id": "5a1156bb037be1767fb5cc2e", "name": "Ilsebill", "location": {"address": "Kastanienallee 100", "lat": 52.53951466837795, "lng": 13.410983383655548, "labeledLatLngs": [{"label": "display", "lat": 52.53951466837795, "lng": 13.410983383655548}], "distance": 547, "postalCode": "10435", "cc": "DE", "city": "Berlin", "state": "Berlin", "country": "Deutschland", "formattedAddress": ["Kastanienallee 100", "10435 Berlin", "Deutschland"]}, "categories": [{"id": "4bf58dd8d48988d1c4941735", "name": "Restaurant", "pluralName": "Restaurants", "shortName": "Restaurant", "icon": {"prefix": "https://ss3.4sqi.net/img/categories_v2/food/default_", "suffix": ".png"}, "primary": true}], "photos": {"count": 0, "groups": []}}, "referralId": "e-0-5a1156bb037be1767fb5cc2e-92"}, {"reasons": {"count": 0, "items": [{"summary": "This spot is popular", "type": "general", "reasonName": "globalInteractionReason"}]}, "venue": {"id": "590106b7f870fd51dc856281", "name": "La Criolla Empanadas", "location": {"address": "Marienburger Str. 9", "lat": 52.534793388813846, "lng": 13.424606792515412, "labeledLatLngs": [{"label": "display", "lat": 52.534793388813846, "lng": 13.424606792515412}], "distance": 729, "postalCode": "10405", "cc": "DE", "neighborhood": "Kollwitzkiez", "city": "Berlin", "state": "Berlin", "country": "Deutschland", "formattedAddress": ["Marienburger Str. 9", "10405 Berlin", "Deutschland"]}, "categories": [{"id": "52939a8c3cf9994f4e043a35", "name": "Empanada Restaurant", "pluralName": "Empanada Restaurants", "shortName": "Empanada", "icon": {"prefix": "https://ss3.4sqi.net/img/categories_v2/food/latinamerican_", "suffix": ".png"}, "primary": true}], "photos": {"count": 0, "groups": []}}, "referralId": "e-0-590106b7f870fd51dc856281-93"}, {"reasons": {"count": 0, "items": [{"summary": "This spot is popular", "type": "general", "reasonName": "globalInteractionReason"}]}, "venue": {"id": "4adcda79f964a520c24621e3", "name": "Kauf Dich Gl\u00fccklich", "location": {"address": "Oderberger Str. 44", "lat": 52.53942444662857, "lng": 13.407460064934028, "labeledLatLngs": [{"label": "display", "lat": 52.53942444662857, "lng": 13.407460064934028}], "distance": 662, "postalCode": "10435", "cc": "DE", "city": "Berlin", "state": "Berlin", "country": "Deutschland", "formattedAddress": ["Oderberger Str. 44", "10435 Berlin", "Deutschland"]}, "categories": [{"id": "4bf58dd8d48988d16d941735", "name": "Caf\u00e9", "pluralName": "Caf\u00e9s", "shortName": "Caf\u00e9", "icon": {"prefix": "https://ss3.4sqi.net/img/categories_v2/food/cafe_", "suffix": ".png"}, "primary": true}], "photos": {"count": 0, "groups": []}}, "referralId": "e-0-4adcda79f964a520c24621e3-94"}, {"reasons": {"count": 0, "items": [{"summary": "This spot is popular", "type": "general", "reasonName": "globalInteractionReason"}]}, "venue": {"id": "517d309ce4b0a6c18f41d8d5", "name": "La Soupe Populaire", "location": {"address": "Prenzlauer Allee 242", "lat": 52.53059533901026, "lng": 13.416776925428781, "labeledLatLngs": [{"label": "display", "lat": 52.53059533901026, "lng": 13.416776925428781}], "distance": 519, "postalCode": "10405", "cc": "DE", "city": "Berlin", "state": "Berlin", "country": "Deutschland", "formattedAddress": ["Prenzlauer Allee 242", "10405 Berlin", "Deutschland"]}, "categories": [{"id": "52e81612bcbc57f1066b79f9", "name": "Modern European Restaurant", "pluralName": "Modern European Restaurants", "shortName": "Modern European", "icon": {"prefix": "https://ss3.4sqi.net/img/categories_v2/food/default_", "suffix": ".png"}, "primary": true}], "photos": {"count": 0, "groups": []}}, "referralId": "e-0-517d309ce4b0a6c18f41d8d5-95"}, {"reasons": {"count": 0, "items": [{"summary": "This spot is popular", "type": "general", "reasonName": "globalInteractionReason"}]}, "venue": {"id": "540d989c498e42bb5cea67a3", "name": "Belyzium Artisan Chocolaterie", "location": {"address": "Lottumstr. 15", "lat": 52.53098836036659, "lng": 13.406007021826408, "labeledLatLngs": [{"label": "display", "lat": 52.53098836036659, "lng": 13.406007021826408}], "distance": 686, "postalCode": "10119", "cc": "DE", "city": "Berlin", "state": "Berlin", "country": "Deutschland", "formattedAddress": ["Lottumstr. 15", "10119 Berlin", "Deutschland"]}, "categories": [{"id": "52f2ab2ebcbc57f1066b8b31", "name": "Chocolate Shop", "pluralName": "Chocolate Shops", "shortName": "Chocolate Shop", "icon": {"prefix": "https://ss3.4sqi.net/img/categories_v2/shops/candystore_", "suffix": ".png"}, "primary": true}], "photos": {"count": 0, "groups": []}}, "referralId": "e-0-540d989c498e42bb5cea67a3-96"}, {"reasons": {"count": 0, "items": [{"summary": "This spot is popular", "type": "general", "reasonName": "globalInteractionReason"}]}, "venue": {"id": "55aeafcf498edfb11b9fd8fc", "name": "Early Birds", "location": {"address": "Winsstr. 68", "lat": 52.53204626343468, "lng": 13.42362354934389, "labeledLatLngs": [{"label": "display", "lat": 52.53204626343468, "lng": 13.42362354934389}], "distance": 735, "postalCode": "10405", "cc": "DE", "city": "Berlin", "state": "Berlin", "country": "Deutschland", "formattedAddress": ["Winsstr. 68", "10405 Berlin", "Deutschland"]}, "categories": [{"id": "4bf58dd8d48988d1c9941735", "name": "Ice Cream Shop", "pluralName": "Ice Cream Shops", "shortName": "Ice Cream", "icon": {"prefix": "https://ss3.4sqi.net/img/categories_v2/food/icecream_", "suffix": ".png"}, "primary": true}], "photos": {"count": 0, "groups": []}}, "referralId": "e-0-55aeafcf498edfb11b9fd8fc-97"}, {"reasons": {"count": 0, "items": [{"summary": "This spot is popular", "type": "general", "reasonName": "globalInteractionReason"}]}, "venue": {"id": "4fbfe24be4b0519068103eb6", "name": "La K\u00e4serie", "location": {"address": "Lychener Str. 6", "lat": 52.541523533430656, "lng": 13.415084461337107, "labeledLatLngs": [{"label": "display", "lat": 52.541523533430656, "lng": 13.415084461337107}], "distance": 741, "postalCode": "10437", "cc": "DE", "city": "Berlin", "state": "Berlin", "country": "Deutschland", "formattedAddress": ["Lychener Str. 6", "10437 Berlin", "Deutschland"]}, "categories": [{"id": "4bf58dd8d48988d11e951735", "name": "Cheese Shop", "pluralName": "Cheese Shops", "shortName": "Cheese Shop", "icon": {"prefix": "https://ss3.4sqi.net/img/categories_v2/shops/food_cheese_", "suffix": ".png"}, "primary": true}], "photos": {"count": 0, "groups": []}}, "referralId": "e-0-4fbfe24be4b0519068103eb6-98"}, {"reasons": {"count": 0, "items": [{"summary": "This spot is popular", "type": "general", "reasonName": "globalInteractionReason"}]}, "venue": {"id": "4ba923def964a520980e3ae3", "name": "Sorsi e Morsi", "location": {"address": "Marienburger Str. 10", "lat": 52.5346405502197, "lng": 13.424978739344986, "labeledLatLngs": [{"label": "display", "lat": 52.5346405502197, "lng": 13.424978739344986}], "distance": 755, "postalCode": "10405", "cc": "DE", "city": "Berlin", "state": "Berlin", "country": "Deutschland", "formattedAddress": ["Marienburger Str. 10", "10405 Berlin", "Deutschland"]}, "categories": [{"id": "4bf58dd8d48988d123941735", "name": "Wine Bar", "pluralName": "Wine Bars", "shortName": "Wine Bar", "icon": {"prefix": "https://ss3.4sqi.net/img/categories_v2/food/winery_", "suffix": ".png"}, "primary": true}], "photos": {"count": 0, "groups": []}}, "referralId": "e-0-4ba923def964a520980e3ae3-99"}]