[{"reasons": {"count": 0, "items": [{"summary": "This spot is popular", "type": "general", "reasonName": "globalInteractionReason"}]}, "venue": {"id": "54cbf204498e0e154a4293f4", "name": "Mensch Meier", "location": {"address": "Storkower Str. 121", "lat": 52.53529166859128, "lng": 13.452162767054602, "labeledLatLngs": [{"label": "display", "lat": 52.53529166859128, "lng": 13.452162767054602}], "distance": 87, "postalCode": "10407", "cc": "DE", "city": "Berlin", "state": "Berlin", "country": "Deutschland", "formattedAddress": ["Storkower Str. 121", "10407 Berlin", "Deutschland"]}, "categories": [{"id": "4bf58dd8d48988d11f941735", "name": "Nightclub", "pluralName": "Nightclubs", "shortName": "Nightclub", "icon": {"prefix": "https://ss3.4sqi.net/img/categories_v2/nightlife/nightclub_", "suffix": ".png"}, "primary": true}], "photos": {"count": 0, "groups": []}}, "referralId": "e-0-54cbf204498e0e154a4293f4-0"}, {"reasons": {"count": 0, "items": [{"summary": "This spot is popular", "type": "general", "reasonName": "globalInteractionReason"}]}, "venue": {"id": "4dc539c6887717c8801cd5d7", "name": "Sportanlage Paul-Heyse-Stra\u00dfe", "location": {"address": "Paul-Heyse-Str.", "crossStreet": "Conrad-Blenkle-Str.", "lat": 52.532513955470336, "lng": 13.44820976257324, "labeledLatLngs": [{"label": "display", "lat": 52.532513955470336, "lng": 13.44820976257324}], "distance": 356, "cc": "DE", "city": "Berlin", "state": "Berlin", "country": "Deutschland", "formattedAddress": ["Paul-Heyse-Str. (Conrad-Blenkle-Str.)", "Berlin", "Deutschland"]}, "categories": [{"id": "4cce455aebf7b749d5e191f5", "name": "Soccer Field", "pluralName": "Soccer Fields", "shortName": "Soccer Field", "icon": {"prefix": "https://ss3.4sqi.net/img/categories_v2/arts_entertainment/stadium_soccer_", "suffix": ".png"}, "primary": true}], "photos": {"count": 0, "groups": []}}, "referralId": "e-0-4dc539c6887717c8801cd5d7-1"}, {"reasons": {"count": 0, "items": [{"summary": "This spot is popular", "type": "general", "reasonName": "globalInteractionReason"}]}, "venue": {"id": "5414bdb2498e9e1a5e2bf555", "name": "Anomalie", "location": {"address": "Storkower Str. 123", "lat": 52.535529081233776, "lng": 13.453080654144287, "labeledLatLngs": [{"label": "display", "lat": 52.535529081233776, "lng": 13.453080654144287}], "distance": 124, "postalCode": "10407", "cc": "DE", "city": "Berlin", "state": "Berlin", "country": "Deutschland", "formattedAddress": ["Storkower Str. 123", "10407 Berlin", "Deutschland"]}, "categories": [{"id": "4bf58dd8d48988d11f941735", "name": "Nightclub", "pluralName": "Nightclubs", "shortName": "Nightclub", "icon": {"prefix": "https://ss3.4sqi.net/img/categories_v2/nightlife/nightclub_", "suffix": ".png"}, "primary": true}], "photos": {"count": 0, "groups": []}}, "referralId": "e-0-5414bdb2498e9e1a5e2bf555-2"}, {"reasons": {"count": 0, "items": [{"summary": "This spot is popular", "type": "general", "reasonName": "globalInteractionReason"}]}, "venue": {"id": "595d4584625a6632c6d1f66f", "name": "Lasertag Berlin", "location": {"address": "Storkower Stra\u00dfe 140", "lat": 52.53243547862091, "lng": 13.453697461307456, "labeledLatLngs": [{"label": "display", "lat": 52.53243547862091, "lng": 13.453697461307456}], "distance": 248, "postalCode": "10407", "cc": "DE", "city": "Berlin", "state": "Berlin", "country": "Deutschland", "formattedAddress": ["Storkower Stra\u00dfe 140", "10407 Berlin", "Deutschland"]}, "categories": [{"id": "52e81612bcbc57f1066b79e6", "name": "Laser Tag", "pluralName": "Laser Tag Places", "shortName": "Laser Tag", "icon": {"prefix": "https://ss3.4sqi.net/img/categories_v2/arts_entertainment/default_", "suffix": ".png"}, "primary": true}], "photos": {"count": 0, "groups": []}, "venuePage": {"id": "581973264"}}, "referralId": "e-0-595d4584625a6632c6d1f66f-3"}, {"reasons": {"count": 0, "items": [{"summary": "This spot is popular", "type": "general", "reasonName": "globalInteractionReason"}]}, "venue": {"id": "57f27f68498ed4d90ef7ccec", "name": "Vienna House Easy Berlin", "location": {"address": "Storkower Str. 162", "crossStreet": "Landsberger Allee", "lat": 52.529146167659654, "lng": 13.456921577453612, "labeledLatLngs": [{"label": "display", "lat": 52.529146167659654, "lng": 13.456921577453612}], "distance": 673, "postalCode": "10407", "cc": "DE", "city": "Berlin", "state": "Berlin", "country": "Deutschland", "formattedAddress": ["Storkower Str. 162 (Landsberger Allee)", "10407 Berlin", "Deutschland"]}, "categories": [{"id": "4bf58dd8d48988d1fa931735", "name": "Hotel", "pluralName": "Hotels", "shortName": "Hotel", "icon": {"prefix": "https://ss3.4sqi.net/img/categories_v2/travel/hotel_", "suffix": ".png"}, "primary": true}], "photos": {"count": 0, "groups": []}}, "referralId": "e-0-57f27f68498ed4d90ef7ccec-4"}, {"reasons": {"count": 0, "items": [{"summary": "This spot is popular", "type": "general", "reasonName": "globalInteractionReason"}]}, "venue": {"id": "4c7d2005d461a143601e7cf5", "name": "Volkspark Prenzlauer Berg", "location": {"address": "Hohensch\u00f6nhauser Str.", "crossStreet": "Maigl\u00f6ckchenstr.", "lat": 52.53584232918101, "lng": 13.463616371154785, "labeledLatLngs": [{"label": "display", "lat": 52.53584232918101, "lng": 13.463616371154785}], "distance": 778, "postalCode": "10407", "cc": "DE", "city": "Berlin", "state": "Berlin", "country": "Deutschland", "formattedAddress": ["Hohensch\u00f6nhauser Str. (Maigl\u00f6ckchenstr.)", "10407 Berlin", "Deutschland"]}, "categories": [{"id": "4bf58dd8d48988d163941735", "name": "Park", "pluralName": "Parks", "shortName": "Park", "icon": {"prefix": "https://ss3.4sqi.net/img/categories_v2/parks_outdoors/park_", "suffix": ".png"}, "primary": true}], "photos": {"count": 0, "groups": []}}, "referralId": "e-0-4c7d2005d461a143601e7cf5-5"}, {"reasons": {"count": 0, "items": [{"summary": "This spot is popular", "type": "general", "reasonName": "globalInteractionReason"}]}, "venue": {"id": "556f5731498e82a41861505a", "name": "Skykitchen", "location": {"address": "Landsberger Allee 106", "lat": 52.528454303302766, "lng": 13.457415103912352, "labeledLatLngs": [{"label": "display", "lat": 52.528454303302766, "lng": 13.457415103912352}], "distance": 756, "postalCode": "10369", "cc": "DE", "city": "Berlin", "state": "Berlin", "country": "Deutschland", "formattedAddress": ["Landsberger Allee 106", "10369 Berlin", "Deutschland"]}, "categories": [{"id": "4bf58dd8d48988d1c4941735", "name": "Restaurant", "pluralName": "Restaurants", "shortName": "Restaurant", "icon": {"prefix": "https://ss3.4sqi.net/img/categories_v2/food/default_", "suffix": ".png"}, "primary": true}], "photos": {"count": 0, "groups": []}}, "referralId": "e-0-556f5731498e82a41861505a-6"}, {"reasons": {"count": 0, "items": [{"summary": "This spot is popular", "type": "general", "reasonName": "globalInteractionReason"}]}, "venue": {"id": "4adcda92f964a520054c21e3", "name": "Schwimm- und Sprunghalle im Europasportpark (SSE)", "location": {"address": "Paul-Heyse-Str. 26", "lat": 52.52926365297737, "lng": 13.45297336578369, "labeledLatLngs": [{"label": "display", "lat": 52.52926365297737, "lng": 13.45297336578369}], "distance": 585, "postalCode": "10407", "cc": "DE", "city": "Berlin", "state": "Berlin", "country": "Deutschland", "formattedAddress": ["Paul-Heyse-Str. 26", "10407 Berlin", "Deutschland"]}, "categories": [{"id": "4bf58dd8d48988d15e941735", "name": "Pool", "pluralName": "Pools", "shortName": "Pool", "icon": {"prefix": "https://ss3.4sqi.net/img/categories_v2/parks_outdoors/pool_", "suffix": ".png"}, "primary": true}], "photos": {"count": 0, "groups": []}}, "referralId": "e-0-4adcda92f964a520054c21e3-7"}, {"reasons": {"count": 0, "items": [{"summary": "This spot is popular", "type": "general", "reasonName": "globalInteractionReason"}]}, "venue": {"id": "4bb2f3a535f0c9b657e5bb83", "name": "Laufstrecke im Volkspark Friedrichshain", "location": {"address": "Danziger Str.", "lat": 52.528780655772515, "lng": 13.442437648773193, "labeledLatLngs": [{"label": "display", "lat": 52.528780655772515, "lng": 13.442437648773193}], "distance": 924, "postalCode": "10407", "cc": "DE", "city": "Berlin", "state": "Berlin", "country": "Deutschland", "formattedAddress": ["Danziger Str.", "10407 Berlin", "Deutschland"]}, "categories": [{"id": "4bf58dd8d48988d106941735", "name": "Track", "pluralName": "Tracks", "shortName": "Track", "icon": {"prefix": "https://ss3.4sqi.net/img/categories_v2/arts_entertainment/stadium_track_", "suffix": ".png"}, "primary": true}], "photos": {"count": 0, "groups": []}}, "referralId": "e-0-4bb2f3a535f0c9b657e5bb83-8"}, {"reasons": {"count": 0, "items": [{"summary": "This spot is popular", "type": "general", "reasonName": "globalInteractionReason"}]}, "venue": {"id": "4bc8bb23ab62d13a6ae617d4", "name": "Loft14", "location": {"address": "Landsberger Allee 106", "lat": 52.5284281950004, "lng": 13.457393646240234, "labeledLatLngs": [{"label": "display", "lat": 52.5284281950004, "lng": 13.457393646240234}], "distance": 758, "postalCode": "10369", "cc": "DE", "city": "Berlin", "state": "Berlin", "country": "Deutschland", "formattedAddress": ["Landsberger Allee 106", "10369 Berlin", "Deutschland"]}, "categories": [{"id": "4bf58dd8d48988d1d5941735", "name": "Hotel Bar", "pluralName": "Hotel Bars", "shortName": "Hotel Bar", "icon": {"prefix": "https://ss3.4sqi.net/img/categories_v2/travel/hotel_bar_", "suffix": ".png"}, "primary": true}], "photos": {"count": 0, "groups": []}}, "referralId": "e-0-4bc8bb23ab62d13a6ae617d4-9"}, {"reasons": {"count": 0, "items": [{"summary": "This spot is popular", "type": "general", "reasonName": "globalInteractionReason"}]}, "venue": {"id": "4cca8eb49b934688d53c4f41", "name": "Anton-Saefkow-Park", "location": {"address": "Anton-Saefkow-Str.", "crossStreet": "Kniprodestr.", "lat": 52.5364557666042, "lng": 13.444626331329346, "labeledLatLngs": [{"label": "display", "lat": 52.5364557666042, "lng": 13.444626331329346}], "distance": 564, "postalCode": "10407", "cc": "DE", "city": "Berlin", "state": "Berlin", "country": "Deutschland", "formattedAddress": ["Anton-Saefkow-Str. (Kniprodestr.)", "10407 Berlin", "Deutschland"]}, "categories": [{"id": "4bf58dd8d48988d163941735", "name": "Park", "pluralName": "Parks", "shortName": "Park", "icon": {"prefix": "https://ss3.4sqi.net/img/categories_v2/parks_outdoors/park_", "suffix": ".png"}, "primary": true}], "photos": {"count": 0, "groups": []}}, "referralId": "e-0-4cca8eb49b934688d53c4f41-10"}, {"reasons": {"count": 0, "items": [{"summary": "This spot is popular", "type": "general", "reasonName": "globalInteractionReason"}]}, "venue": {"id": "4b910d7ef964a52022a133e3", "name": "Vienna House Andel's Berlin", "location": {"address": "Landsberger Allee 106", "crossStreet": "Storkower Str.", "lat": 52.52833333731991, "lng": 13.457213802118476, "labeledLatLngs": [{"label": "display", "lat": 52.52833333731991, "lng": 13.457213802118476}], "distance": 762, "postalCode": "10369", "cc": "DE", "city": "Berlin", "state": "Berlin", "country": "Deutschland", "formattedAddress": ["Landsberger Allee 106 (Storkower Str.)", "10369 Berlin", "Deutschland"]}, "categories": [{"id": "4bf58dd8d48988d1fa931735", "name": "Hotel", "pluralName": "Hotels", "shortName": "Hotel", "icon": {"prefix": "https://ss3.4sqi.net/img/categories_v2/travel/hotel_", "suffix": ".png"}, "primary": true}], "photos": {"count": 0, "groups": []}}, "referralId": "e-0-4b910d7ef964a52022a133e3-11"}, {"reasons": {"count": 0, "items": [{"summary": "This spot is popular", "type": "general", "reasonName": "globalInteractionReason"}]}, "venue": {"id": "4d3aeb27fa736ea87bce1a8a", "name": "Intermarket Stolitschniy", "location": {"address": "Landsberger Allee 116", "lat": 52.5287650919002, "lng": 13.459664167273024, "labeledLatLngs": [{"label": "display", "lat": 52.5287650919002, "lng": 13.459664167273024}], "distance": 809, "postalCode": "10369", "cc": "DE", "city": "Berlin", "state": "Berlin", "country": "Deutschland", "formattedAddress": ["Landsberger Allee 116", "10369 Berlin", "Deutschland"]}, "categories": [{"id": "4bf58dd8d48988d1f6941735", "name": "Department Store", "pluralName": "Department Stores", "shortName": "Department Store", "icon": {"prefix": "https://ss3.4sqi.net/img/categories_v2/shops/departmentstore_", "suffix": ".png"}, "primary": true}], "photos": {"count": 0, "groups": []}}, "referralId": "e-0-4d3aeb27fa736ea87bce1a8a-12"}, {"reasons": {"count": 0, "items": [{"summary": "This spot is popular", "type": "general", "reasonName": "globalInteractionReason"}]}, "venue": {"id": "4be45207d4f7c9b6e4fa2320", "name": "Lidl", "location": {"address": "Kniprodestra\u00dfe 26", "lat": 52.53433480293345, "lng": 13.445665687322617, "labeledLatLngs": [{"label": "display", "lat": 52.53433480293345, "lng": 13.445665687322617}], "distance": 451, "postalCode": "10407", "cc": "DE", "city": "Berlin", "state": "Berlin", "country": "Deutschland", "formattedAddress": ["Kniprodestra\u00dfe 26", "10407 Berlin", "Deutschland"]}, "categories": [{"id": "52f2ab2ebcbc57f1066b8b46", "name": "Supermarket", "pluralName": "Supermarkets", "shortName": "Supermarket", "icon": {"prefix": "https://ss3.4sqi.net/img/categories_v2/shops/food_grocery_", "suffix": ".png"}, "primary": true}], "photos": {"count": 0, "groups": []}, "venuePage": {"id": "577018847"}}, "referralId": "e-0-4be45207d4f7c9b6e4fa2320-13"}, {"reasons": {"count": 0, "items": [{"summary": "This spot is popular", "type": "general", "reasonName": "globalInteractionReason"}]}, "venue": {"id": "595bcbf2464d651c9a255f2d", "name": "Pizza Koons - Fhain", "location": {"address": "Ebertystr. 4", "lat": 52.526661, "lng": 13.451162, "labeledLatLngs": [{"label": "display", "lat": 52.526661, "lng": 13.451162}], "distance": 877, "postalCode": "10249", "cc": "DE", "city": "Berlin", "state": "Berlin", "country": "Deutschland", "formattedAddress": ["Ebertystr. 4", "10249 Berlin", "Deutschland"]}, "categories": [{"id": "4bf58dd8d48988d1ca941735", "name": "Pizza Place", "pluralName": "Pizza Places", "shortName": "Pizza", "icon": {"prefix": "https://ss3.4sqi.net/img/categories_v2/food/pizza_", "suffix": ".png"}, "primary": true}], "photos": {"count": 0, "groups": []}}, "referralId": "e-0-595bcbf2464d651c9a255f2d-14"}, {"reasons": {"count": 0, "items": [{"summary": "This spot is popular", "type": "general", "reasonName": "globalInteractionReason"}]}, "venue": {"id": "5a32b9a595da0c19c7337d97", "name": "dm-drogerie Markt", "location": {"address": "Landsberger Allee 117", "lat": 52.529037, "lng": 13.456649, "labeledLatLngs": [{"label": "display", "lat": 52.529037, "lng": 13.456649}], "distance": 675, "postalCode": "10407", "cc": "DE", "city": "Berlin", "state": "Berlin", "country": "Deutschland", "formattedAddress": ["Landsberger Allee 117", "10407 Berlin", "Deutschland"]}, "categories": [{"id": "5745c2e4498e11e7bccabdbd", "name": "Drugstore", "pluralName": "Drugstores", "shortName": "Drugstore", "icon": {"prefix": "https://ss3.4sqi.net/img/categories_v2/shops/pharmacy_", "suffix": ".png"}, "primary": true}], "photos": {"count": 0, "groups": []}}, "referralId": "e-0-5a32b9a595da0c19c7337d97-15"}, {"reasons": {"count": 0, "items": [{"summary": "This spot is popular", "type": "general", "reasonName": "globalInteractionReason"}]}, "venue": {"id": "4cb8744ea33bb1f7ae2481fd", "name": "bei Jens und Viola", "location": {"address": "Ebertystr. 49", "lat": 52.525645302732954, "lng": 13.451554899599062, "labeledLatLngs": [{"label": "display", "lat": 52.525645302732954, "lng": 13.451554899599062}], "distance": 988, "postalCode": "10249", "cc": "DE", "city": "Berlin", "state": "Berlin", "country": "Deutschland", "formattedAddress": ["Ebertystr. 49", "10249 Berlin", "Deutschland"]}, "categories": [{"id": "4bf58dd8d48988d1d0941735", "name": "Dessert Shop", "pluralName": "Dessert Shops", "shortName": "Desserts", "icon": {"prefix": "https://ss3.4sqi.net/img/categories_v2/food/dessert_", "suffix": ".png"}, "primary": true}], "photos": {"count": 0, "groups": []}}, "referralId": "e-0-4cb8744ea33bb1f7ae2481fd-16"}, {"reasons": {"count": 0, "items": [{"summary": "This spot is popular", "type": "general", "reasonName": "globalInteractionReason"}]}, "venue": {"id": "4c81d360dc018cfa17f9c96c", "name": "Restaurant Delight", "location": {"address": "Landsberger Allee 106", "lat": 52.528401487195964, "lng": 13.457553970199033, "labeledLatLngs": [{"label": "display", "lat": 52.528401487195964, "lng": 13.457553970199033}], "distance": 766, "postalCode": "10369", "cc": "DE", "city": "Berlin", "state": "Berlin", "country": "Deutschland", "formattedAddress": ["Landsberger Allee 106", "10369 Berlin", "Deutschland"]}, "categories": [{"id": "4bf58dd8d48988d143941735", "name": "Breakfast Spot", "pluralName": "Breakfast Spots", "shortName": "Breakfast", "icon": {"prefix": "https://ss3.4sqi.net/img/categories_v2/food/breakfast_", "suffix": ".png"}, "primary": true}], "photos": {"count": 0, "groups": []}}, "referralId": "e-0-4c81d360dc018cfa17f9c96c-17"}, {"reasons": {"count": 0, "items": [{"summary": "This spot is popular", "type": "general", "reasonName": "globalInteractionReason"}]}, "venue": {"id": "4cf7ea6b55e137041c8bd5b6", "name": "La Loconda", "location": {"address": "Landsberger Allee  101", "lat": 52.527663, "lng": 13.452134, "labeledLatLngs": [{"label": "display", "lat": 52.527663, "lng": 13.452134}], "distance": 762, "postalCode": "10407", "cc": "DE", "city": "Berlin", "state": "Berlin", "country": "Deutschland", "formattedAddress": ["Landsberger Allee  101", "10407 Berlin", "Deutschland"]}, "categories": [{"id": "4bf58dd8d48988d110941735", "name": "Italian Restaurant", "pluralName": "Italian Restaurants", "shortName": "Italian", "icon": {"prefix": "https://ss3.4sqi.net/img/categories_v2/food/italian_", "suffix": ".png"}, "primary": true}], "photos": {"count": 0, "groups": []}}, "referralId": "e-0-4cf7ea6b55e137041c8bd5b6-18"}, {"reasons": {"count": 0, "items": [{"summary": "This spot is popular", "type": "general", "reasonName": "globalInteractionReason"}]}, "venue": {"id": "4bc99b89511f95217cf1adc7", "name": "Kaufland", "location": {"address": "Storkower Str. 139", "lat": 52.533476548793374, "lng": 13.456580609767624, "labeledLatLngs": [{"label": "display", "lat": 52.533476548793374, "lng": 13.456580609767624}], "distance": 309, "postalCode": "10407", "cc": "DE", "city": "Berlin", "state": "Berlin", "country": "Deutschland", "formattedAddress": ["Storkower Str. 139", "10407 Berlin", "Deutschland"]}, "categories": [{"id": "52f2ab2ebcbc57f1066b8b42", "name": "Big Box Store", "pluralName": "Big Box Stores", "shortName": "Big Box Store", "icon": {"prefix": "https://ss3.4sqi.net/img/categories_v2/shops/default_", "suffix": ".png"}, "primary": true}], "photos": {"count": 0, "groups": []}, "venuePage": {"id": "449815411"}}, "referralId": "e-0-4bc99b89511f95217cf1adc7-19"}, {"reasons": {"count": 0, "items": [{"summary": "This spot is popular", "type": "general", "reasonName": "globalInteractionReason"}]}, "venue": {"id": "4adcda8bf964a520e24921e3", "name": "Velodrom", "location": {"address": "Paul-Heyse-Str. 26", "lat": 52.530934521253315, "lng": 13.45100998878479, "labeledLatLngs": [{"label": "display", "lat": 52.530934521253315, "lng": 13.45100998878479}], "distance": 407, "postalCode": "10407", "cc": "DE", "neighborhood": "Storkower Stra\u00dfe", "city": "Berlin", "state": "Berlin", "country": "Deutschland", "formattedAddress": ["Paul-Heyse-Str. 26", "10407 Berlin", "Deutschland"]}, "categories": [{"id": "4bf58dd8d48988d184941735", "name": "Stadium", "pluralName": "Stadiums", "shortName": "Stadium", "icon": {"prefix": "https://ss3.4sqi.net/img/categories_v2/arts_entertainment/stadium_", "suffix": ".png"}, "primary": true}], "photos": {"count": 0, "groups": []}}, "referralId": "e-0-4adcda8bf964a520e24921e3-20"}, {"reasons": {"count": 0, "items": [{"summary": "This spot is popular", "type": "general", "reasonName": "globalInteractionReason"}]}, "venue": {"id": "51a8a87a498ee9ab23ccad82", "name": "KGB:Bioladen", "location": {"address": "Ebertystr. 51", "lat": 52.52605980834528, "lng": 13.451438168084284, "labeledLatLngs": [{"label": "display", "lat": 52.52605980834528, "lng": 13.451438168084284}], "distance": 942, "postalCode": "10249", "cc": "DE", "city": "Berlin", "state": "Berlin", "country": "Deutschland", "formattedAddress": ["Ebertystr. 51", "10249 Berlin", "Deutschland"]}, "categories": [{"id": "52f2ab2ebcbc57f1066b8b45", "name": "Organic Grocery", "pluralName": "Organic Groceries", "shortName": "Organic Grocery", "icon": {"prefix": "https://ss3.4sqi.net/img/categories_v2/shops/food_grocery_", "suffix": ".png"}, "primary": true}], "photos": {"count": 0, "groups": []}}, "referralId": "e-0-51a8a87a498ee9ab23ccad82-21"}, {"reasons": {"count": 0, "items": [{"summary": "This spot is popular", "type": "general", "reasonName": "globalInteractionReason"}]}, "venue": {"id": "5aa649d81543c7469cb1db86", "name": "REWE Kevin Lemme", "location": {"address": "Landsberger Allee 117", "lat": 52.5289900684909, "lng": 13.456116941180198, "labeledLatLngs": [{"label": "display", "lat": 52.5289900684909, "lng": 13.456116941180198}], "distance": 665, "postalCode": "10407", "cc": "DE", "city": "Berlin", "state": "Berlin", "country": "Deutschland", "formattedAddress": ["Landsberger Allee 117", "10407 Berlin", "Deutschland"]}, "categories": [{"id": "52f2ab2ebcbc57f1066b8b46", "name": "Supermarket", "pluralName": "Supermarkets", "shortName": "Supermarket", "icon": {"prefix": "https://ss3.4sqi.net/img/categories_v2/shops/food_grocery_", "suffix": ".png"}, "primary": true}], "photos": {"count": 0, "groups": []}, "venuePage": {"id": "579575621"}}, "referralId": "e-0-5aa649d81543c7469cb1db86-22"}, {"reasons": {"count": 0, "items": [{"summary": "This spot is popular", "type": "general", "reasonName": "globalInteractionReason"}]}, "venue": {"id": "50d55b9ee4b02e407441151e", "name": "Einsteinpark", "location": {"address": "Einsteinstr.", "lat": 52.54035957296854, "lng": 13.445580339903245, "labeledLatLngs": [{"label": "display", "lat": 52.54035957296854, "lng": 13.445580339903245}], "distance": 795, "postalCode": "10409", "cc": "DE", "city": "Berlin", "state": "Berlin", "country": "Deutschland", "formattedAddress": ["Einsteinstr.", "10409 Berlin", "Deutschland"]}, "categories": [{"id": "4bf58dd8d48988d163941735", "name": "Park", "pluralName": "Parks", "shortName": "Park", "icon": {"prefix": "https://ss3.4sqi.net/img/categories_v2/parks_outdoors/park_", "suffix": ".png"}, "primary": true}], "photos": {"count": 0, "groups": []}}, "referralId": "e-0-50d55b9ee4b02e407441151e-23"}, {"reasons": {"count": 0, "items": [{"summary": "This spot is popular", "type": "general", "reasonName": "globalInteractionReason"}]}, "venue": {"id": "4c74b08dd8948cfa2cd065da", "name": "Centralstation Druck & Kopie", "location": {"address": "Danziger Str. 173", "lat": 52.532464566368034, "lng": 13.440874210764528, "labeledLatLngs": [{"label": "display", "lat": 52.532464566368034, "lng": 13.440874210764528}], "distance": 808, "postalCode": "10407", "cc": "DE", "city": "Berlin", "state": "Berlin", "country": "Deutschland", "formattedAddress": ["Danziger Str. 173", "10407 Berlin", "Deutschland"]}, "categories": [{"id": "52f2ab2ebcbc57f1066b8b28", "name": "Print Shop", "pluralName": "Print Shops", "shortName": "Print Shop", "icon": {"prefix": "https://ss3.4sqi.net/img/categories_v2/shops/default_", "suffix": ".png"}, "primary": true}], "photos": {"count": 0, "groups": []}, "venuePage": {"id": "150507823"}}, "referralId": "e-0-4c74b08dd8948cfa2cd065da-24"}, {"reasons": {"count": 0, "items": [{"summary": "This spot is popular", "type": "general", "reasonName": "globalInteractionReason"}]}, "venue": {"id": "597c9fbd3b830715fc9bece3", "name": "Happy Food", "location": {"address": "Danziger Str. 245", "crossStreet": "Landsberger Allee", "lat": 52.52660603545047, "lng": 13.447684247360502, "labeledLatLngs": [{"label": "display", "lat": 52.52660603545047, "lng": 13.447684247360502}], "distance": 934, "postalCode": "10407", "cc": "DE", "neighborhood": "Storkower Stra\u00dfe", "city": "Berlin", "state": "Berlin", "country": "Deutschland", "formattedAddress": ["Danziger Str. 245 (Landsberger Allee)", "10407 Berlin", "Deutschland"]}, "categories": [{"id": "5283c7b4e4b094cb91ec88d8", "name": "Doner Restaurant", "pluralName": "Doner Restaurants", "shortName": "Doner", "icon": {"prefix": "https://ss3.4sqi.net/img/categories_v2/food/turkish_", "suffix": ".png"}, "primary": true}], "photos": {"count": 0, "groups": []}}, "referralId": "e-0-597c9fbd3b830715fc9bece3-25"}, {"reasons": {"count": 0, "items": [{"summary": "This spot is popular", "type": "general", "reasonName": "globalInteractionReason"}]}, "venue": {"id": "4cde77baf8a4a143c44cd7bc", "name": "BowlHouse", "location": {"address": "Storkower Str. 105-107", "lat": 52.53625216466172, "lng": 13.451098781364355, "labeledLatLngs": [{"label": "display", "lat": 52.53625216466172, "lng": 13.451098781364355}], "distance": 211, "postalCode": "10407", "cc": "DE", "city": "Berlin", "state": "Berlin", "country": "Deutschland", "formattedAddress": ["Storkower Str. 105-107", "10407 Berlin", "Deutschland"]}, "categories": [{"id": "4bf58dd8d48988d1e4931735", "name": "Bowling Alley", "pluralName": "Bowling Alleys", "shortName": "Bowling Alley", "icon": {"prefix": "https://ss3.4sqi.net/img/categories_v2/arts_entertainment/bowling_", "suffix": ".png"}, "primary": true}], "photos": {"count": 0, "groups": []}}, "referralId": "e-0-4cde77baf8a4a143c44cd7bc-26"}, {"reasons": {"count": 0, "items": [{"summary": "This spot is popular", "type": "general", "reasonName": "globalInteractionReason"}]}, "venue": {"id": "4c66cc998e9120a135e7d864", "name": "Generator Bar", "location": {"address": "Storkower Str. 160", "lat": 52.52970543264372, "lng": 13.455385401061967, "labeledLatLngs": [{"label": "display", "lat": 52.52970543264372, "lng": 13.455385401061967}], "distance": 573, "postalCode": "10407", "cc": "DE", "city": "Berlin", "state": "Berlin", "country": "Deutschland", "formattedAddress": ["Storkower Str. 160", "10407 Berlin", "Deutschland"]}, "categories": [{"id": "4bf58dd8d48988d1d5941735", "name": "Hotel Bar", "pluralName": "Hotel Bars", "shortName": "Hotel Bar", "icon": {"prefix": "https://ss3.4sqi.net/img/categories_v2/travel/hotel_bar_", "suffix": ".png"}, "primary": true}], "photos": {"count": 0, "groups": []}}, "referralId": "e-0-4c66cc998e9120a135e7d864-27"}, {"reasons": {"count": 0, "items": [{"summary": "This spot is popular", "type": "general", "reasonName": "globalInteractionReason"}]}, "venue": {"id": "4b5ddc94f964a5207a7029e3", "name": "Generator Berlin Prenzlauer Berg", "location": {"address": "Storkower Str. 160", "crossStreet": "Landsberger Str.", "lat": 52.529870655445386, "lng": 13.455419540405273, "labeledLatLngs": [{"label": "display", "lat": 52.529870655445386, "lng": 13.455419540405273}], "distance": 557, "postalCode": "10407", "cc": "DE", "city": "Berlin", "state": "Berlin", "country": "Deutschland", "formattedAddress": ["Storkower Str. 160 (Landsberger Str.)", "10407 Berlin", "Deutschland"]}, "categories": [{"id": "4bf58dd8d48988d1ee931735", "name": "Hostel", "pluralName": "Hostels", "shortName": "Hostel", "icon": {"prefix": "https://ss3.4sqi.net/img/categories_v2/travel/hostel_", "suffix": ".png"}, "primary": true}], "photos": {"count": 0, "groups": []}}, "referralId": "e-0-4b5ddc94f964a5207a7029e3-28"}, {"reasons": {"count": 0, "items": [{"summary": "This spot is popular", "type": "general", "reasonName": "globalInteractionReason"}]}, "venue": {"id": "56301518498e446867a1889e", "name": "A.T.U Berlin - Prenzlauer Berg", "location": {"address": "Storkower Stra\u00dfe 135", "lat": 52.533603, "lng": 13.454247, "labeledLatLngs": [{"label": "display", "lat": 52.533603, "lng": 13.454247}], "distance": 164, "postalCode": "10407", "cc": "DE", "city": "Berlin", "state": "Berlin", "country": "Deutschland", "formattedAddress": ["Storkower Stra\u00dfe 135", "10407 Berlin", "Deutschland"]}, "categories": [{"id": "4bf58dd8d48988d124951735", "name": "Automotive Shop", "pluralName": "Automotive Shops", "shortName": "Automotive", "icon": {"prefix": "https://ss3.4sqi.net/img/categories_v2/shops/automotive_", "suffix": ".png"}, "primary": true}], "photos": {"count": 0, "groups": []}}, "referralId": "e-0-56301518498e446867a1889e-29"}, {"reasons": {"count": 0, "items": [{"summary": "This spot is popular", "type": "general", "reasonName": "globalInteractionReason"}]}, "venue": {"id": "4c7d20cd7a856dcb5412e4a7", "name": "Blaue Adria - Kroatisches Restaurant", "location": {"address": "Cotheniusstr. 8", "crossStreet": "Conrad-Blenkle-Str. 62", "lat": 52.52867622324605, "lng": 13.449175357818604, "labeledLatLngs": [{"label": "display", "lat": 52.52867622324605, "lng": 13.449175357818604}], "distance": 683, "postalCode": "10407", "cc": "DE", "city": "Berlin", "state": "Berlin", "country": "Deutschland", "formattedAddress": ["Cotheniusstr. 8 (Conrad-Blenkle-Str. 62)", "10407 Berlin", "Deutschland"]}, "categories": [{"id": "4bf58dd8d48988d109941735", "name": "Eastern European Restaurant", "pluralName": "Eastern European Restaurants", "shortName": "Eastern European", "icon": {"prefix": "https://ss3.4sqi.net/img/categories_v2/food/default_", "suffix": ".png"}, "primary": true}], "photos": {"count": 0, "groups": []}}, "referralId": "e-0-4c7d20cd7a856dcb5412e4a7-30"}, {"reasons": {"count": 0, "items": [{"summary": "This spot is popular", "type": "general", "reasonName": "globalInteractionReason"}]}, "venue": {"id": "4da32ca77ccc816e9c40777b", "name": "Imbiss Vor Kaufland", "location": {"lat": 52.533746146972696, "lng": 13.456688742200983, "labeledLatLngs": [{"label": "display", "lat": 52.533746146972696, "lng": 13.456688742200983}], "distance": 307, "cc": "DE", "city": "Berlin", "state": "Berlin", "country": "Deutschland", "formattedAddress": ["Berlin", "Deutschland"]}, "categories": [{"id": "4bf58dd8d48988d16e941735", "name": "Fast Food Restaurant", "pluralName": "Fast Food Restaurants", "shortName": "Fast Food", "icon": {"prefix": "https://ss3.4sqi.net/img/categories_v2/food/fastfood_", "suffix": ".png"}, "primary": true}], "photos": {"count": 0, "groups": []}}, "referralId": "e-0-4da32ca77ccc816e9c40777b-31"}, {"reasons": {"count": 0, "items": [{"summary": "This spot is popular", "type": "general", "reasonName": "globalInteractionReason"}]}, "venue": {"id": "506abd55e4b007c428296e67", "name": "Europa-Sportpark", "location": {"address": "Paul-Heyse-Str.", "crossStreet": "Conrad-Blenkle-Str.", "lat": 52.531763693169154, "lng": 13.446992177467697, "labeledLatLngs": [{"label": "display", "lat": 52.531763693169154, "lng": 13.446992177467697}], "distance": 473, "postalCode": "10407", "cc": "DE", "city": "Berlin", "state": "Berlin", "country": "Deutschland", "formattedAddress": ["Paul-Heyse-Str. (Conrad-Blenkle-Str.)", "10407 Berlin", "Deutschland"]}, "categories": [{"id": "4f4528bc4b90abdf24c9de85", "name": "Athletics & Sports", "pluralName": "Athletics & Sports", "shortName": "Athletics & Sports", "icon": {"prefix": "https://ss3.4sqi.net/img/categories_v2/shops/sports_outdoors_", "suffix": ".png"}, "primary": true}], "photos": {"count": 0, "groups": []}}, "referralId": "e-0-506abd55e4b007c428296e67-32"}, {"reasons": {"count": 0, "items": [{"summary": "This spot is popular", "type": "general", "reasonName": "globalInteractionReason"}]}, "venue": {"id": "52e81451498ecb21552aa526", "name": "SG Prenzlauer Berg 1990", "location": {"address": "Hans-Eisler Stra\u00dfe, 91", "lat": 52.539881787964084, "lng": 13.451956654280751, "labeledLatLngs": [{"label": "display", "lat": 52.539881787964084, "lng": 13.451956654280751}], "distance": 598, "cc": "DE", "city": "Berlin", "state": "Berlin", "country": "Deutschland", "formattedAddress": ["Hans-Eisler Stra\u00dfe, 91", "Berlin", "Deutschland"]}, "categories": [{"id": "4cce455aebf7b749d5e191f5", "name": "Soccer Field", "pluralName": "Soccer Fields", "shortName": "Soccer Field", "icon": {"prefix": "https://ss3.4sqi.net/img/categories_v2/arts_entertainment/stadium_soccer_", "suffix": ".png"}, "primary": true}], "photos": {"count": 0, "groups": []}}, "referralId": "e-0-52e81451498ecb21552aa526-33"}, {"reasons": {"count": 0, "items": [{"summary": "This spot is popular", "type": "general", "reasonName": "globalInteractionReason"}]}, "venue": {"id": "4e364faa483bf3839a37eded", "name": "H Kniprodestra\u00dfe / Danziger Str.", "location": {"address": "Danziger Str.", "crossStreet": "Kniprodestr.", "lat": 52.53200583718709, "lng": 13.441105551394713, "labeledLatLngs": [{"label": "display", "lat": 52.53200583718709, "lng": 13.441105551394713}], "distance": 809, "postalCode": "10407", "cc": "DE", "city": "Berlin", "state": "Berlin", "country": "Deutschland", "formattedAddress": ["Danziger Str. (Kniprodestr.)", "10407 Berlin", "Deutschland"]}, "categories": [{"id": "52f2ab2ebcbc57f1066b8b51", "name": "Tram Station", "pluralName": "Tram Stations", "shortName": "Tram", "icon": {"prefix": "https://ss3.4sqi.net/img/categories_v2/travel/trainstation_", "suffix": ".png"}, "primary": true}], "photos": {"count": 0, "groups": []}}, "referralId": "e-0-4e364faa483bf3839a37eded-34"}, {"reasons": {"count": 0, "items": [{"summary": "This spot is popular", "type": "general", "reasonName": "globalInteractionReason"}]}, "venue": {"id": "4c7d22dab33a224bdb10d781", "name": "Rodelbahn | Volkspark Prenzlauer Berg", "location": {"address": "Hohensch\u00f6nhauser Str.", "lat": 52.53392365042858, "lng": 13.463401794433594, "labeledLatLngs": [{"label": "display", "lat": 52.53392365042858, "lng": 13.463401794433594}], "distance": 752, "cc": "DE", "city": "Berlin", "state": "Berlin", "country": "Deutschland", "formattedAddress": ["Hohensch\u00f6nhauser Str.", "Berlin", "Deutschland"]}, "categories": [{"id": "4bf58dd8d48988d1e9941735", "name": "Ski Area", "pluralName": "Ski Areas", "shortName": "Ski Area", "icon": {"prefix": "https://ss3.4sqi.net/img/categories_v2/parks_outdoors/ski_snowboard_", "suffix": ".png"}, "primary": true}], "photos": {"count": 0, "groups": []}}, "referralId": "e-0-4c7d22dab33a224bdb10d781-35"}, {"reasons": {"count": 0, "items": [{"summary": "This spot is popular", "type": "general", "reasonName": "globalInteractionReason"}]}, "venue": {"id": "57487b32498ebb426eb45139", "name": "Hohes Plateau", "location": {"lat": 52.533777, "lng": 13.463411, "labeledLatLngs": [{"label": "display", "lat": 52.533777, "lng": 13.463411}], "distance": 754, "cc": "DE", "city": "Berlin", "state": "Berlin", "country": "Deutschland", "formattedAddress": ["Berlin", "Deutschland"]}, "categories": [{"id": "4eb1d4d54b900d56c88a45fc", "name": "Mountain", "pluralName": "Mountains", "shortName": "Mountain", "icon": {"prefix": "https://ss3.4sqi.net/img/categories_v2/parks_outdoors/mountain_", "suffix": ".png"}, "primary": true}], "photos": {"count": 0, "groups": []}}, "referralId": "e-0-57487b32498ebb426eb45139-36"}, {"reasons": {"count": 0, "items": [{"summary": "This spot is popular", "type": "general", "reasonName": "globalInteractionReason"}]}, "venue": {"id": "4d5bd6db9c31b60c4e1caeee", "name": "H Oderbruchstra\u00dfe", "location": {"address": "Oderbruchstr.", "crossStreet": "Landsberger Allee", "lat": 52.53040831938204, "lng": 13.46142710949545, "labeledLatLngs": [{"label": "display", "lat": 52.53040831938204, "lng": 13.46142710949545}], "distance": 766, "postalCode": "10369", "cc": "DE", "city": "Berlin", "state": "Berlin", "country": "Deutschland", "formattedAddress": ["Oderbruchstr. (Landsberger Allee)", "10369 Berlin", "Deutschland"]}, "categories": [{"id": "52f2ab2ebcbc57f1066b8b51", "name": "Tram Station", "pluralName": "Tram Stations", "shortName": "Tram", "icon": {"prefix": "https://ss3.4sqi.net/img/categories_v2/travel/trainstation_", "suffix": ".png"}, "primary": true}], "photos": {"count": 0, "groups": []}}, "referralId": "e-0-4d5bd6db9c31b60c4e1caeee-37"}, {"reasons": {"count": 0, "items": [{"summary": "This spot is popular", "type": "general", "reasonName": "globalInteractionReason"}]}, "venue": {"id": "4ff30ba8e4b0af32b6529a76", "name": "Andel's Spa & Wellness", "location": {"address": "Landsberger Allee 106", "lat": 52.52825849065687, "lng": 13.457393646240234, "labeledLatLngs": [{"label": "display", "lat": 52.52825849065687, "lng": 13.457393646240234}], "distance": 775, "postalCode": "10369", "cc": "DE", "city": "Berlin", "state": "Berlin", "country": "Deutschland", "formattedAddress": ["Landsberger Allee 106", "10369 Berlin", "Deutschland"]}, "categories": [{"id": "4bf58dd8d48988d175941735", "name": "Gym / Fitness Center", "pluralName": "Gyms or Fitness Centers", "shortName": "Gym / Fitness", "icon": {"prefix": "https://ss3.4sqi.net/img/categories_v2/building/gym_", "suffix": ".png"}, "primary": true}], "photos": {"count": 0, "groups": []}}, "referralId": "e-0-4ff30ba8e4b0af32b6529a76-38"}, {"reasons": {"count": 0, "items": [{"summary": "This spot is popular", "type": "general", "reasonName": "globalInteractionReason"}]}, "venue": {"id": "54d1f78a498e90467ffeafe1", "name": "Linde B\u00e4ckerei - Konditorei", "location": {"address": "Oderbruchstr. 12", "lat": 52.530125912629195, "lng": 13.461312720942596, "labeledLatLngs": [{"label": "display", "lat": 52.530125912629195, "lng": 13.461312720942596}], "distance": 779, "postalCode": "10407", "cc": "DE", "city": "Berlin", "state": "Berlin", "country": "Deutschland", "formattedAddress": ["Oderbruchstr. 12", "10407 Berlin", "Deutschland"]}, "categories": [{"id": "4bf58dd8d48988d16a941735", "name": "Bakery", "pluralName": "Bakeries", "shortName": "Bakery", "icon": {"prefix": "https://ss3.4sqi.net/img/categories_v2/food/bakery_", "suffix": ".png"}, "primary": true}], "photos": {"count": 0, "groups": []}}, "referralId": "e-0-54d1f78a498e90467ffeafe1-39"}, {"reasons": {"count": 0, "items": [{"summary": "This spot is popular", "type": "general", "reasonName": "globalInteractionReason"}]}, "venue": {"id": "4adcda7ff964a520fd4721e3", "name": "Sport- und Erholungszentrum (SEZ)", "location": {"address": "Landsberger Allee 77", "crossStreet": "Danziger Str.", "lat": 52.52688777769106, "lng": 13.445870876312256, "labeledLatLngs": [{"label": "display", "lat": 52.52688777769106, "lng": 13.445870876312256}], "distance": 954, "postalCode": "10249", "cc": "DE", "city": "Berlin", "state": "Berlin", "country": "Deutschland", "formattedAddress": ["Landsberger Allee 77 (Danziger Str.)", "10249 Berlin", "Deutschland"]}, "categories": [{"id": "52e81612bcbc57f1066b7a26", "name": "Recreation Center", "pluralName": "Recreation Centers", "shortName": "Recreation Center", "icon": {"prefix": "https://ss3.4sqi.net/img/categories_v2/shops/sports_outdoors_", "suffix": ".png"}, "primary": true}], "photos": {"count": 0, "groups": []}}, "referralId": "e-0-4adcda7ff964a520fd4721e3-40"}, {"reasons": {"count": 0, "items": [{"summary": "This spot is popular", "type": "general", "reasonName": "globalInteractionReason"}]}, "venue": {"id": "5bc59055acb37f002c479249", "name": "FitX Fitnessstudio", "location": {"address": "Oderbruchstra\u00dfe 14", "lat": 52.530185727119765, "lng": 13.461644286324372, "labeledLatLngs": [{"label": "display", "lat": 52.530185727119765, "lng": 13.461644286324372}], "distance": 793, "postalCode": "10369", "cc": "DE", "city": "Berlin", "state": "Berlin", "country": "Deutschland", "formattedAddress": ["Oderbruchstra\u00dfe 14", "10369 Berlin", "Deutschland"]}, "categories": [{"id": "4bf58dd8d48988d175941735", "name": "Gym / Fitness Center", "pluralName": "Gyms or Fitness Centers", "shortName": "Gym / Fitness", "icon": {"prefix": "https://ss3.4sqi.net/img/categories_v2/building/gym_", "suffix": ".png"}, "primary": true}], "photos": {"count": 0, "groups": []}}, "referralId": "e-0-5bc59055acb37f002c479249-41"}, {"reasons": {"count": 0, "items": [{"summary": "This spot is popular", "type": "general", "reasonName": "globalInteractionReason"}]}, "venue": {"id": "4f23d101e4b02a95fdb871de", "name": "Sport Freak", "location": {"address": "Landsberger Allee 131C", "crossStreet": "Oderbruchstra\u00dfe", "lat": 52.53003, "lng": 13.462066, "labeledLatLngs": [{"label": "display", "lat": 52.53003, "lng": 13.462066}], "distance": 826, "postalCode": "10369", "cc": "DE", "city": "Berlin", "state": "Berlin", "country": "Deutschland", "formattedAddress": ["Landsberger Allee 131C (Oderbruchstra\u00dfe)", "10369 Berlin", "Deutschland"]}, "categories": [{"id": "4bf58dd8d48988d1f2941735", "name": "Sporting Goods Shop", "pluralName": "Sporting Goods Shops", "shortName": "Sporting Goods", "icon": {"prefix": "https://ss3.4sqi.net/img/categories_v2/shops/sports_outdoors_", "suffix": ".png"}, "primary": true}], "photos": {"count": 0, "groups": []}}, "referralId": "e-0-4f23d101e4b02a95fdb871de-42"}, {"reasons": {"count": 0, "items": [{"summary": "This spot is popular", "type": "general", "reasonName": "globalInteractionReason"}]}, "venue": {"id": "4e21b35a62e1964dbb69936a", "name": "a.lounge", "location": {"address": "Landsberger Allee 106", "crossStreet": "5th Floor / Executive Floors", "lat": 52.52761791562097, "lng": 13.45707690930072, "labeledLatLngs": [{"label": "display", "lat": 52.52761791562097, "lng": 13.45707690930072}], "distance": 831, "postalCode": "10369", "cc": "DE", "city": "Berlin", "state": "Berlin", "country": "Deutschland", "formattedAddress": ["Landsberger Allee 106 (5th Floor / Executive Floors)", "10369 Berlin", "Deutschland"]}, "categories": [{"id": "4bf58dd8d48988d121941735", "name": "Lounge", "pluralName": "Lounges", "shortName": "Lounge", "icon": {"prefix": "https://ss3.4sqi.net/img/categories_v2/nightlife/default_", "suffix": ".png"}, "primary": true}], "photos": {"count": 0, "groups": []}}, "referralId": "e-0-4e21b35a62e1964dbb69936a-43"}, {"reasons": {"count": 0, "items": [{"summary": "This spot is popular", "type": "general", "reasonName": "globalInteractionReason"}]}, "venue": {"id": "4f1eb684e4b03f8d8538c6e9", "name": "H Landsberger Allee / Karl-Lade-Stra\u00dfe", "location": {"address": "Karl-Lade-Str.", "crossStreet": "Landsberger Allee", "lat": 52.529203107363315, "lng": 13.462969439571992, "labeledLatLngs": [{"label": "display", "lat": 52.529203107363315, "lng": 13.462969439571992}], "distance": 931, "postalCode": "10369", "cc": "DE", "city": "Berlin", "state": "Berlin", "country": "Deutschland", "formattedAddress": ["Karl-Lade-Str. (Landsberger Allee)", "10369 Berlin", "Deutschland"]}, "categories": [{"id": "52f2ab2ebcbc57f1066b8b51", "name": "Tram Station", "pluralName": "Tram Stations", "shortName": "Tram", "icon": {"prefix": "https://ss3.4sqi.net/img/categories_v2/travel/trainstation_", "suffix": ".png"}, "primary": true}], "photos": {"count": 0, "groups": []}}, "referralId": "e-0-4f1eb684e4b03f8d8538c6e9-44"}, {"reasons": {"count": 0, "items": [{"summary": "This spot is popular", "type": "general", "reasonName": "globalInteractionReason"}]}, "venue": {"id": "4fac1cb4e4b03481b4e44309", "name": "Volleyballfeld im Volkspark Friedrichshain", "location": {"address": "Danziger Str.", "crossStreet": "Volkspark Friedrichshain", "lat": 52.52875363769034, "lng": 13.441707800677195, "labeledLatLngs": [{"label": "display", "lat": 52.52875363769034, "lng": 13.441707800677195}], "distance": 963, "postalCode": "10407", "cc": "DE", "city": "Berlin", "state": "Berlin", "country": "Deutschland", "formattedAddress": ["Danziger Str. (Volkspark Friedrichshain)", "10407 Berlin", "Deutschland"]}, "categories": [{"id": "4eb1bf013b7b6f98df247e07", "name": "Volleyball Court", "pluralName": "Volleyball Courts", "shortName": "Volleyball Court", "icon": {"prefix": "https://ss3.4sqi.net/img/categories_v2/parks_outdoors/volleyballcourt_", "suffix": ".png"}, "primary": true}], "photos": {"count": 0, "groups": []}}, "referralId": "e-0-4fac1cb4e4b03481b4e44309-45"}, {"reasons": {"count": 0, "items": [{"summary": "This spot is popular", "type": "general", "reasonName": "globalInteractionReason"}]}, "venue": {"id": "5a7f046b69e77b4a8ac15473", "name": "Kalter Hund Manufaktur", "location": {"lat": 52.525809, "lng": 13.451934, "labeledLatLngs": [{"label": "display", "lat": 52.525809, "lng": 13.451934}], "distance": 968, "cc": "DE", "city": "Berlin", "state": "Berlin", "country": "Deutschland", "formattedAddress": ["Berlin", "Deutschland"]}, "categories": [{"id": "4bf58dd8d48988d16d941735", "name": "Caf\u00e9", "pluralName": "Caf\u00e9s", "shortName": "Caf\u00e9", "icon": {"prefix": "https://ss3.4sqi.net/img/categories_v2/food/cafe_", "suffix": ".png"}, "primary": true}], "photos": {"count": 0, "groups": []}}, "referralId": "e-0-5a7f046b69e77b4a8ac15473-46"}, {"reasons": {"count": 0, "items": [{"summary": "This spot is popular", "type": "general", "reasonName": "globalInteractionReason"}]}, "venue": {"id": "4e209508d22d0a3f59ef1267", "name": "Schwanen-Apotheke", "location": {"address": "Hans-Otto-Str. 42", "lat": 52.5326975, "lng": 13.4381, "labeledLatLngs": [{"label": "display", "lat": 52.5326975, "lng": 13.4381}], "distance": 984, "postalCode": "10407", "cc": "DE", "city": "Berlin", "state": "Berlin", "country": "Deutschland", "formattedAddress": ["Hans-Otto-Str. 42", "10407 Berlin", "Deutschland"]}, "categories": [{"id": "4bf58dd8d48988d10f951735", "name": "Pharmacy", "pluralName": "Pharmacies", "shortName": "Pharmacy", "icon": {"prefix": "https://ss3.4sqi.net/img/categories_v2/shops/pharmacy_", "suffix": ".png"}, "primary": true}], "photos": {"count": 0, "groups": []}}, "referralId": "e-0-4e209508d22d0a3f59ef1267-47"}, {"reasons": {"count": 0, "items": [{"summary": "This spot is popular", "type": "general", "reasonName": "globalInteractionReason"}]}, "venue": {"id": "4d84cc209324236ae7d1c00e", "name": "H Arnswalder Platz", "location": {"address": "Danziger Str.", "crossStreet": "Arnswalder Platz", "lat": 52.533952027608244, "lng": 13.437764978330987, "labeledLatLngs": [{"label": "display", "lat": 52.533952027608244, "lng": 13.437764978330987}], "distance": 988, "postalCode": "10407", "cc": "DE", "city": "Berlin", "state": "Berlin", "country": "Deutschland", "formattedAddress": ["Danziger Str. (Arnswalder Platz)", "10407 Berlin", "Deutschland"]}, "categories": [{"id": "52f2ab2ebcbc57f1066b8b51", "name": "Tram Station", "pluralName": "Tram Stations", "shortName": "Tram", "icon": {"prefix": "https://ss3.4sqi.net/img/categories_v2/travel/trainstation_", "suffix": ".png"}, "primary": true}], "photos": {"count": 0, "groups": []}}, "referralId": "e-0-4d84cc209324236ae7d1c00e-48"}]