[{"reasons": {"count": 0, "items": [{"summary": "This spot is popular", "type": "general", "reasonName": "globalInteractionReason"}]}, "venue": {"id": "540c6f34498e9d0f44de7620", "name": "Jubel", "location": {"address": "Hufelandstr. 10", "lat": 52.5325273943382, "lng": 13.430677683140182, "labeledLatLngs": [{"label": "display", "lat": 52.5325273943382, "lng": 13.430677683140182}], "distance": 215, "cc": "DE", "city": "Berlin", "state": "Berlin", "country": "Deutschland", "formattedAddress": ["Hufelandstr. 10", "Berlin", "Deutschland"]}, "categories": [{"id": "5744ccdfe4b0c0459246b4e2", "name": "Pastry Shop", "pluralName": "Pastry Shops", "shortName": "Pastry", "icon": {"prefix": "https://ss3.4sqi.net/img/categories_v2/food/dessert_", "suffix": ".png"}, "primary": true}], "photos": {"count": 0, "groups": []}}, "referralId": "e-0-540c6f34498e9d0f44de7620-0"}, {"reasons": {"count": 0, "items": [{"summary": "This spot is popular", "type": "general", "reasonName": "globalInteractionReason"}]}, "venue": {"id": "5310bcf311d2b14c744cd049", "name": "Gilgamesch", "location": {"address": "Greifswalder Str. 194", "lat": 52.5347556968551, "lng": 13.431398049907218, "labeledLatLngs": [{"label": "display", "lat": 52.5347556968551, "lng": 13.431398049907218}], "distance": 189, "postalCode": "10405", "cc": "DE", "city": "Berlin", "state": "Berlin", "country": "Deutschland", "formattedAddress": ["Greifswalder Str. 194", "10405 Berlin", "Deutschland"]}, "categories": [{"id": "4bf58dd8d48988d115941735", "name": "Middle Eastern Restaurant", "pluralName": "Middle Eastern Restaurants", "shortName": "Middle Eastern", "icon": {"prefix": "https://ss3.4sqi.net/img/categories_v2/food/middleeastern_", "suffix": ".png"}, "primary": true}], "photos": {"count": 0, "groups": []}}, "referralId": "e-0-5310bcf311d2b14c744cd049-1"}, {"reasons": {"count": 0, "items": [{"summary": "This spot is popular", "type": "general", "reasonName": "globalInteractionReason"}]}, "venue": {"id": "4ba923def964a520980e3ae3", "name": "Sorsi e Morsi", "location": {"address": "Marienburger Str. 10", "lat": 52.5346405502197, "lng": 13.424978739344986, "labeledLatLngs": [{"label": "display", "lat": 52.5346405502197, "lng": 13.424978739344986}], "distance": 266, "postalCode": "10405", "cc": "DE", "city": "Berlin", "state": "Berlin", "country": "Deutschland", "formattedAddress": ["Marienburger Str. 10", "10405 Berlin", "Deutschland"]}, "categories": [{"id": "4bf58dd8d48988d123941735", "name": "Wine Bar", "pluralName": "Wine Bars", "shortName": "Wine Bar", "icon": {"prefix": "https://ss3.4sqi.net/img/categories_v2/food/winery_", "suffix": ".png"}, "primary": true}], "photos": {"count": 0, "groups": []}}, "referralId": "e-0-4ba923def964a520980e3ae3-2"}, {"reasons": {"count": 0, "items": [{"summary": "This spot is popular", "type": "general", "reasonName": "globalInteractionReason"}]}, "venue": {"id": "51d1bb1a498ea981c8d93f3d", "name": "feinkostpizza", "location": {"address": "Winsstr. 21", "crossStreet": "Marienburger Str.", "lat": 52.53430868773753, "lng": 13.425920851703061, "labeledLatLngs": [{"label": "display", "lat": 52.53430868773753, "lng": 13.425920851703061}], "distance": 197, "postalCode": "10405", "cc": "DE", "neighborhood": "Winskiez, Berlin", "city": "Berlin", "state": "Berlin", "country": "Deutschland", "formattedAddress": ["Winsstr. 21 (Marienburger Str.)", "10405 Berlin", "Deutschland"]}, "categories": [{"id": "4bf58dd8d48988d1ca941735", "name": "Pizza Place", "pluralName": "Pizza Places", "shortName": "Pizza", "icon": {"prefix": "https://ss3.4sqi.net/img/categories_v2/food/pizza_", "suffix": ".png"}, "primary": true}], "photos": {"count": 0, "groups": []}, "venuePage": {"id": "433258010"}}, "referralId": "e-0-51d1bb1a498ea981c8d93f3d-3"}, {"reasons": {"count": 0, "items": [{"summary": "This spot is popular", "type": "general", "reasonName": "globalInteractionReason"}]}, "venue": {"id": "4b9b8152f964a520a60b36e3", "name": "boesner", "location": {"address": "Marienburger Str. 16", "lat": 52.5328644, "lng": 13.4259908, "labeledLatLngs": [{"label": "display", "lat": 52.5328644, "lng": 13.4259908}], "distance": 235, "postalCode": "10405", "cc": "DE", "city": "Berlin", "state": "Berlin", "country": "Deutschland", "formattedAddress": ["Marienburger Str. 16", "10405 Berlin", "Deutschland"]}, "categories": [{"id": "4bf58dd8d48988d127951735", "name": "Arts & Crafts Store", "pluralName": "Arts & Crafts Stores", "shortName": "Arts & Crafts", "icon": {"prefix": "https://ss3.4sqi.net/img/categories_v2/shops/artstore_", "suffix": ".png"}, "primary": true}], "photos": {"count": 0, "groups": []}}, "referralId": "e-0-4b9b8152f964a520a60b36e3-4"}, {"reasons": {"count": 0, "items": [{"summary": "This spot is popular", "type": "general", "reasonName": "globalInteractionReason"}]}, "venue": {"id": "5c30f6c415173e0038c9095c", "name": "Enzo Sushi Bar", "location": {"address": "Marienburger Str. 38", "lat": 52.534618, "lng": 13.425019, "labeledLatLngs": [{"label": "display", "lat": 52.534618, "lng": 13.425019}], "distance": 263, "postalCode": "10405", "cc": "DE", "city": "Berlin", "state": "Berlin", "country": "Deutschland", "formattedAddress": ["Marienburger Str. 38", "10405 Berlin", "Deutschland"]}, "categories": [{"id": "4bf58dd8d48988d1d2941735", "name": "Sushi Restaurant", "pluralName": "Sushi Restaurants", "shortName": "Sushi", "icon": {"prefix": "https://ss3.4sqi.net/img/categories_v2/food/sushi_", "suffix": ".png"}, "primary": true}], "photos": {"count": 0, "groups": []}}, "referralId": "e-0-5c30f6c415173e0038c9095c-5"}, {"reasons": {"count": 0, "items": [{"summary": "This spot is popular", "type": "general", "reasonName": "globalInteractionReason"}]}, "venue": {"id": "590106b7f870fd51dc856281", "name": "La Criolla Empanadas", "location": {"address": "Marienburger Str. 9", "lat": 52.534793388813846, "lng": 13.424606792515412, "labeledLatLngs": [{"label": "display", "lat": 52.534793388813846, "lng": 13.424606792515412}], "distance": 295, "postalCode": "10405", "cc": "DE", "neighborhood": "Kollwitzkiez", "city": "Berlin", "state": "Berlin", "country": "Deutschland", "formattedAddress": ["Marienburger Str. 9", "10405 Berlin", "Deutschland"]}, "categories": [{"id": "52939a8c3cf9994f4e043a35", "name": "Empanada Restaurant", "pluralName": "Empanada Restaurants", "shortName": "Empanada", "icon": {"prefix": "https://ss3.4sqi.net/img/categories_v2/food/latinamerican_", "suffix": ".png"}, "primary": true}], "photos": {"count": 0, "groups": []}}, "referralId": "e-0-590106b7f870fd51dc856281-6"}, {"reasons": {"count": 0, "items": [{"summary": "This spot is popular", "type": "general", "reasonName": "globalInteractionReason"}]}, "venue": {"id": "52c1f8b811d2ad7942c6ed68", "name": "Banh Xeo Saigon", "location": {"address": "Greifswalder Str. 41", "crossStreet": "Pasteurstr.", "lat": 52.53417066026806, "lng": 13.430935861086638, "labeledLatLngs": [{"label": "display", "lat": 52.53417066026806, "lng": 13.430935861086638}], "distance": 143, "postalCode": "10405", "cc": "DE", "neighborhood": "Greifswalder Stra\u00dfe-S\u00fcd", "city": "Berlin", "state": "Berlin", "country": "Deutschland", "formattedAddress": ["Greifswalder Str. 41 (Pasteurstr.)", "10405 Berlin", "Deutschland"]}, "categories": [{"id": "4bf58dd8d48988d14a941735", "name": "Vietnamese Restaurant", "pluralName": "Vietnamese Restaurants", "shortName": "Vietnamese", "icon": {"prefix": "https://ss3.4sqi.net/img/categories_v2/food/vietnamese_", "suffix": ".png"}, "primary": true}], "photos": {"count": 0, "groups": []}}, "referralId": "e-0-52c1f8b811d2ad7942c6ed68-7"}, {"reasons": {"count": 0, "items": [{"summary": "This spot is popular", "type": "general", "reasonName": "globalInteractionReason"}]}, "venue": {"id": "59dd1c0849281428e57d09a2", "name": "Duc Anh", "location": {"address": "Marienburger Str. 28", "lat": 52.53336652408397, "lng": 13.428694547588124, "labeledLatLngs": [{"label": "display", "lat": 52.53336652408397, "lng": 13.428694547588124}], "distance": 81, "postalCode": "10405", "cc": "DE", "neighborhood": "Greifswalder Stra\u00dfe-S\u00fcd", "city": "Berlin", "state": "Berlin", "country": "Deutschland", "formattedAddress": ["Marienburger Str. 28", "10405 Berlin", "Deutschland"]}, "categories": [{"id": "4bf58dd8d48988d14a941735", "name": "Vietnamese Restaurant", "pluralName": "Vietnamese Restaurants", "shortName": "Vietnamese", "icon": {"prefix": "https://ss3.4sqi.net/img/categories_v2/food/vietnamese_", "suffix": ".png"}, "primary": true}], "photos": {"count": 0, "groups": []}}, "referralId": "e-0-59dd1c0849281428e57d09a2-8"}, {"reasons": {"count": 0, "items": [{"summary": "This spot is popular", "type": "general", "reasonName": "globalInteractionReason"}]}, "venue": {"id": "5c48164b35811b002c018892", "name": "Omelegg", "location": {"address": "Winsstr. 53", "lat": 52.534741872751745, "lng": 13.425807952880858, "labeledLatLngs": [{"label": "display", "lat": 52.534741872751745, "lng": 13.425807952880858}], "distance": 215, "postalCode": "10405", "cc": "DE", "city": "Berlin", "state": "Berlin", "country": "Deutschland", "formattedAddress": ["Winsstr. 53", "10405 Berlin", "Deutschland"]}, "categories": [{"id": "4bf58dd8d48988d143941735", "name": "Breakfast Spot", "pluralName": "Breakfast Spots", "shortName": "Breakfast", "icon": {"prefix": "https://ss3.4sqi.net/img/categories_v2/food/breakfast_", "suffix": ".png"}, "primary": true}], "photos": {"count": 0, "groups": []}, "venuePage": {"id": "539041991"}}, "referralId": "e-0-5c48164b35811b002c018892-9"}, {"reasons": {"count": 0, "items": [{"summary": "This spot is popular", "type": "general", "reasonName": "globalInteractionReason"}]}, "venue": {"id": "4adcda90f964a5204a4b21e3", "name": "Weinberg", "location": {"address": "Winsstr. 64a", "crossStreet": "Immanuelkirchstr.", "lat": 52.53269995948009, "lng": 13.424021601676941, "labeledLatLngs": [{"label": "display", "lat": 52.53269995948009, "lng": 13.424021601676941}], "distance": 359, "postalCode": "10405", "cc": "DE", "city": "Berlin", "state": "Berlin", "country": "Deutschland", "formattedAddress": ["Winsstr. 64a (Immanuelkirchstr.)", "10405 Berlin", "Deutschland"]}, "categories": [{"id": "4bf58dd8d48988d123941735", "name": "Wine Bar", "pluralName": "Wine Bars", "shortName": "Wine Bar", "icon": {"prefix": "https://ss3.4sqi.net/img/categories_v2/food/winery_", "suffix": ".png"}, "primary": true}], "photos": {"count": 0, "groups": []}}, "referralId": "e-0-4adcda90f964a5204a4b21e3-10"}, {"reasons": {"count": 0, "items": [{"summary": "This spot is popular", "type": "general", "reasonName": "globalInteractionReason"}]}, "venue": {"id": "4dea0f291850bae7b8c74618", "name": "Rosa Canina", "location": {"address": "Hufelandstr. 7", "lat": 52.53255311427469, "lng": 13.430705666542053, "labeledLatLngs": [{"label": "display", "lat": 52.53255311427469, "lng": 13.430705666542053}], "distance": 214, "postalCode": "10407", "cc": "DE", "city": "Berlin", "state": "Berlin", "country": "Deutschland", "formattedAddress": ["Hufelandstr. 7", "10407 Berlin", "Deutschland"]}, "categories": [{"id": "4bf58dd8d48988d1c9941735", "name": "Ice Cream Shop", "pluralName": "Ice Cream Shops", "shortName": "Ice Cream", "icon": {"prefix": "https://ss3.4sqi.net/img/categories_v2/food/icecream_", "suffix": ".png"}, "primary": true}], "photos": {"count": 0, "groups": []}}, "referralId": "e-0-4dea0f291850bae7b8c74618-11"}, {"reasons": {"count": 0, "items": [{"summary": "This spot is popular", "type": "general", "reasonName": "globalInteractionReason"}]}, "venue": {"id": "4c92989f2bf7b60cb0f7630a", "name": "Gasthaus Alt Wien", "location": {"address": "Hufelandstr. 22", "lat": 52.531547401763, "lng": 13.432681681156769, "labeledLatLngs": [{"label": "display", "lat": 52.531547401763, "lng": 13.432681681156769}], "distance": 385, "postalCode": "10407", "cc": "DE", "city": "Berlin", "state": "Berlin", "country": "Deutschland", "formattedAddress": ["Hufelandstr. 22", "10407 Berlin", "Deutschland"]}, "categories": [{"id": "52e81612bcbc57f1066b7a01", "name": "Austrian Restaurant", "pluralName": "Austrian Restaurants", "shortName": "Austrian", "icon": {"prefix": "https://ss3.4sqi.net/img/categories_v2/food/austrian_", "suffix": ".png"}, "primary": true}], "photos": {"count": 0, "groups": []}, "venuePage": {"id": "56255986"}}, "referralId": "e-0-4c92989f2bf7b60cb0f7630a-12"}, {"reasons": {"count": 0, "items": [{"summary": "This spot is popular", "type": "general", "reasonName": "globalInteractionReason"}]}, "venue": {"id": "55aeafcf498edfb11b9fd8fc", "name": "Early Birds", "location": {"address": "Winsstr. 68", "lat": 52.53204626343468, "lng": 13.42362354934389, "labeledLatLngs": [{"label": "display", "lat": 52.53204626343468, "lng": 13.42362354934389}], "distance": 418, "postalCode": "10405", "cc": "DE", "city": "Berlin", "state": "Berlin", "country": "Deutschland", "formattedAddress": ["Winsstr. 68", "10405 Berlin", "Deutschland"]}, "categories": [{"id": "4bf58dd8d48988d1c9941735", "name": "Ice Cream Shop", "pluralName": "Ice Cream Shops", "shortName": "Ice Cream", "icon": {"prefix": "https://ss3.4sqi.net/img/categories_v2/food/icecream_", "suffix": ".png"}, "primary": true}], "photos": {"count": 0, "groups": []}}, "referralId": "e-0-55aeafcf498edfb11b9fd8fc-13"}, {"reasons": {"count": 0, "items": [{"summary": "This spot is popular", "type": "general", "reasonName": "globalInteractionReason"}]}, "venue": {"id": "4b518158f964a520974e27e3", "name": "Caf\u00e9 Fruchtbar", "location": {"address": "Hufelandstr. 21", "lat": 52.53175934726176, "lng": 13.432423635226234, "labeledLatLngs": [{"label": "display", "lat": 52.53175934726176, "lng": 13.432423635226234}], "distance": 356, "postalCode": "10407", "cc": "DE", "city": "Berlin", "state": "Berlin", "country": "Deutschland", "formattedAddress": ["Hufelandstr. 21", "10407 Berlin", "Deutschland"]}, "categories": [{"id": "4bf58dd8d48988d112941735", "name": "Juice Bar", "pluralName": "Juice Bars", "shortName": "Juice Bar", "icon": {"prefix": "https://ss3.4sqi.net/img/categories_v2/food/juicebar_", "suffix": ".png"}, "primary": true}], "photos": {"count": 0, "groups": []}}, "referralId": "e-0-4b518158f964a520974e27e3-14"}, {"reasons": {"count": 0, "items": [{"summary": "This spot is popular", "type": "general", "reasonName": "globalInteractionReason"}]}, "venue": {"id": "4c0944686071a593179ddd32", "name": "Taleh Thai", "location": {"address": "K\u00e4the-Niederkirchner-Str. 14", "lat": 52.530625768342205, "lng": 13.431700968683776, "labeledLatLngs": [{"label": "display", "lat": 52.530625768342205, "lng": 13.431700968683776}], "distance": 432, "postalCode": "10407", "cc": "DE", "city": "Berlin", "state": "Berlin", "country": "Deutschland", "formattedAddress": ["K\u00e4the-Niederkirchner-Str. 14", "10407 Berlin", "Deutschland"]}, "categories": [{"id": "4bf58dd8d48988d149941735", "name": "Thai Restaurant", "pluralName": "Thai Restaurants", "shortName": "Thai", "icon": {"prefix": "https://ss3.4sqi.net/img/categories_v2/food/thai_", "suffix": ".png"}, "primary": true}], "photos": {"count": 0, "groups": []}, "venuePage": {"id": "73428749"}}, "referralId": "e-0-4c0944686071a593179ddd32-15"}, {"reasons": {"count": 0, "items": [{"summary": "This spot is popular", "type": "general", "reasonName": "globalInteractionReason"}]}, "venue": {"id": "522245af11d29e4ef4df2291", "name": "Muse", "location": {"address": "Immanuelkirchstr. 31", "lat": 52.532938701483936, "lng": 13.423114057701246, "labeledLatLngs": [{"label": "display", "lat": 52.532938701483936, "lng": 13.423114057701246}], "distance": 406, "postalCode": "10405", "cc": "DE", "city": "Berlin", "state": "Berlin", "country": "Deutschland", "formattedAddress": ["Immanuelkirchstr. 31", "10405 Berlin", "Deutschland"]}, "categories": [{"id": "4bf58dd8d48988d14e941735", "name": "American Restaurant", "pluralName": "American Restaurants", "shortName": "American", "icon": {"prefix": "https://ss3.4sqi.net/img/categories_v2/food/default_", "suffix": ".png"}, "primary": true}], "photos": {"count": 0, "groups": []}, "venuePage": {"id": "113377497"}}, "referralId": "e-0-522245af11d29e4ef4df2291-16"}, {"reasons": {"count": 0, "items": [{"summary": "This spot is popular", "type": "general", "reasonName": "globalInteractionReason"}]}, "venue": {"id": "590d7d716fa81f5f68b98575", "name": "100 Brote", "location": {"address": "Hufelandstr. 2", "lat": 52.532895711893815, "lng": 13.42969720890722, "labeledLatLngs": [{"label": "display", "lat": 52.532895711893815, "lng": 13.42969720890722}], "distance": 146, "postalCode": "10407", "cc": "DE", "neighborhood": "Greifswalder Stra\u00dfe-S\u00fcd", "city": "Berlin", "state": "Berlin", "country": "Deutschland", "formattedAddress": ["Hufelandstr. 2", "10407 Berlin", "Deutschland"]}, "categories": [{"id": "4bf58dd8d48988d16a941735", "name": "Bakery", "pluralName": "Bakeries", "shortName": "Bakery", "icon": {"prefix": "https://ss3.4sqi.net/img/categories_v2/food/bakery_", "suffix": ".png"}, "primary": true}], "photos": {"count": 0, "groups": []}}, "referralId": "e-0-590d7d716fa81f5f68b98575-17"}, {"reasons": {"count": 0, "items": [{"summary": "This spot is popular", "type": "general", "reasonName": "globalInteractionReason"}]}, "venue": {"id": "56cd96c9cd1018a6df9c58d8", "name": "Burgers Burgers", "location": {"address": "Greifswalder Str. 37", "lat": 52.533541, "lng": 13.430525, "labeledLatLngs": [{"label": "display", "lat": 52.533541, "lng": 13.430525}], "distance": 131, "postalCode": "10405", "cc": "DE", "city": "Berlin", "state": "Berlin", "country": "Deutschland", "formattedAddress": ["Greifswalder Str. 37", "10405 Berlin", "Deutschland"]}, "categories": [{"id": "4bf58dd8d48988d16c941735", "name": "Burger Joint", "pluralName": "Burger Joints", "shortName": "Burgers", "icon": {"prefix": "https://ss3.4sqi.net/img/categories_v2/food/burger_", "suffix": ".png"}, "primary": true}], "photos": {"count": 0, "groups": []}}, "referralId": "e-0-56cd96c9cd1018a6df9c58d8-18"}, {"reasons": {"count": 0, "items": [{"summary": "This spot is popular", "type": "general", "reasonName": "globalInteractionReason"}]}, "venue": {"id": "5a748b9a6fd6265d55599347", "name": "Chili & Paprika", "location": {"address": "Danziger Str. 118", "lat": 52.53631180359912, "lng": 13.43246073571716, "labeledLatLngs": [{"label": "display", "lat": 52.53631180359912, "lng": 13.43246073571716}], "distance": 349, "postalCode": "10405", "cc": "DE", "city": "Berlin", "state": "Berlin", "country": "Deutschland", "formattedAddress": ["Danziger Str. 118", "10405 Berlin", "Deutschland"]}, "categories": [{"id": "4bf58dd8d48988d1f5941735", "name": "Gourmet Shop", "pluralName": "Gourmet Shops", "shortName": "Gourmet", "icon": {"prefix": "https://ss3.4sqi.net/img/categories_v2/shops/food_gourmet_", "suffix": ".png"}, "primary": true}], "photos": {"count": 0, "groups": []}}, "referralId": "e-0-5a748b9a6fd6265d55599347-19"}, {"reasons": {"count": 0, "items": [{"summary": "This spot is popular", "type": "general", "reasonName": "globalInteractionReason"}]}, "venue": {"id": "4c095fa5009a0f47aca8e7bf", "name": "Musikbrauerei", "location": {"address": "Greifswalder Str. 23A", "lat": 52.53074758083102, "lng": 13.428737913119635, "labeledLatLngs": [{"label": "display", "lat": 52.53074758083102, "lng": 13.428737913119635}], "distance": 372, "postalCode": "10405", "cc": "DE", "city": "Berlin", "state": "Berlin", "country": "Deutschland", "formattedAddress": ["Greifswalder Str. 23A", "10405 Berlin", "Deutschland"]}, "categories": [{"id": "4bf58dd8d48988d1e5931735", "name": "Music Venue", "pluralName": "Music Venues", "shortName": "Music Venue", "icon": {"prefix": "https://ss3.4sqi.net/img/categories_v2/arts_entertainment/musicvenue_", "suffix": ".png"}, "primary": true}], "photos": {"count": 0, "groups": []}}, "referralId": "e-0-4c095fa5009a0f47aca8e7bf-20"}, {"reasons": {"count": 0, "items": [{"summary": "This spot is popular", "type": "general", "reasonName": "globalInteractionReason"}]}, "venue": {"id": "5262c45c498e948ea3cab358", "name": "Izzy", "location": {"address": "Danziger Str. 128", "lat": 52.535439654508124, "lng": 13.434184741250805, "labeledLatLngs": [{"label": "display", "lat": 52.535439654508124, "lng": 13.434184741250805}], "distance": 393, "postalCode": "10407", "cc": "DE", "city": "Berlin", "state": "Berlin", "country": "Deutschland", "formattedAddress": ["Danziger Str. 128", "10407 Berlin", "Deutschland"]}, "categories": [{"id": "4bf58dd8d48988d118941735", "name": "Dive Bar", "pluralName": "Dive Bars", "shortName": "Dive Bar", "icon": {"prefix": "https://ss3.4sqi.net/img/categories_v2/nightlife/divebar_", "suffix": ".png"}, "primary": true}], "photos": {"count": 0, "groups": []}}, "referralId": "e-0-5262c45c498e948ea3cab358-21"}, {"reasons": {"count": 0, "items": [{"summary": "This spot is popular", "type": "general", "reasonName": "globalInteractionReason"}]}, "venue": {"id": "522c8d4f11d277f9f2449821", "name": "Cantine Sant' Ambroeus", "location": {"address": "Hufelandstr. 17", "lat": 52.53192786951622, "lng": 13.432108297571457, "labeledLatLngs": [{"label": "display", "lat": 52.53192786951622, "lng": 13.432108297571457}], "distance": 328, "cc": "DE", "neighborhood": "Greifswalder Stra\u00dfe-S\u00fcd", "city": "Berlin", "state": "Berlin", "country": "Deutschland", "formattedAddress": ["Hufelandstr. 17", "Berlin", "Deutschland"]}, "categories": [{"id": "4bf58dd8d48988d123941735", "name": "Wine Bar", "pluralName": "Wine Bars", "shortName": "Wine Bar", "icon": {"prefix": "https://ss3.4sqi.net/img/categories_v2/food/winery_", "suffix": ".png"}, "primary": true}], "photos": {"count": 0, "groups": []}}, "referralId": "e-0-522c8d4f11d277f9f2449821-22"}, {"reasons": {"count": 0, "items": [{"summary": "This spot is popular", "type": "general", "reasonName": "globalInteractionReason"}]}, "venue": {"id": "4bdc2b0a2a3a0f47c4b1b1b6", "name": "Rosa Canina", "location": {"address": "Pasteurstr. 32", "lat": 52.532396478847694, "lng": 13.435742855072021, "labeledLatLngs": [{"label": "display", "lat": 52.532396478847694, "lng": 13.435742855072021}], "distance": 505, "postalCode": "10407", "cc": "DE", "city": "Berlin", "state": "Berlin", "country": "Deutschland", "formattedAddress": ["Pasteurstr. 32", "10407 Berlin", "Deutschland"]}, "categories": [{"id": "4bf58dd8d48988d1c9941735", "name": "Ice Cream Shop", "pluralName": "Ice Cream Shops", "shortName": "Ice Cream", "icon": {"prefix": "https://ss3.4sqi.net/img/categories_v2/food/icecream_", "suffix": ".png"}, "primary": true}], "photos": {"count": 0, "groups": []}}, "referralId": "e-0-4bdc2b0a2a3a0f47c4b1b1b6-23"}, {"reasons": {"count": 0, "items": [{"summary": "This spot is popular", "type": "general", "reasonName": "globalInteractionReason"}]}, "venue": {"id": "599adc1eacb00b52a056c72c", "name": "Dream Baby Dream", "location": {"address": "Greifswalder Strasse 218", "lat": 52.53110323624463, "lng": 13.426671624183653, "labeledLatLngs": [{"label": "display", "lat": 52.53110323624463, "lng": 13.426671624183653}], "distance": 363, "postalCode": "10405", "cc": "DE", "city": "Berlin", "state": "Berlin", "country": "Deutschland", "formattedAddress": ["Greifswalder Strasse 218", "10405 Berlin", "Deutschland"]}, "categories": [{"id": "4bf58dd8d48988d11e941735", "name": "Cocktail Bar", "pluralName": "Cocktail Bars", "shortName": "Cocktail", "icon": {"prefix": "https://ss3.4sqi.net/img/categories_v2/nightlife/cocktails_", "suffix": ".png"}, "primary": true}], "photos": {"count": 0, "groups": []}}, "referralId": "e-0-599adc1eacb00b52a056c72c-24"}, {"reasons": {"count": 0, "items": [{"summary": "This spot is popular", "type": "general", "reasonName": "globalInteractionReason"}]}, "venue": {"id": "5c040e3aba57b4002d8bbaa7", "name": "Cinta Caf\u00e9", "location": {"address": "Hufelandstr. 20", "lat": 52.531767620993975, "lng": 13.432184738568806, "labeledLatLngs": [{"label": "display", "lat": 52.531767620993975, "lng": 13.432184738568806}], "distance": 345, "postalCode": "10407", "cc": "DE", "neighborhood": "Greifswalder Stra\u00dfe-S\u00fcd", "city": "Berlin", "state": "Berlin", "country": "Deutschland", "formattedAddress": ["Hufelandstr. 20", "10407 Berlin", "Deutschland"]}, "categories": [{"id": "4bf58dd8d48988d143941735", "name": "Breakfast Spot", "pluralName": "Breakfast Spots", "shortName": "Breakfast", "icon": {"prefix": "https://ss3.4sqi.net/img/categories_v2/food/breakfast_", "suffix": ".png"}, "primary": true}], "photos": {"count": 0, "groups": []}}, "referralId": "e-0-5c040e3aba57b4002d8bbaa7-25"}, {"reasons": {"count": 0, "items": [{"summary": "This spot is popular", "type": "general", "reasonName": "globalInteractionReason"}]}, "venue": {"id": "50f542fce4b0ff6d3381a7c0", "name": "Y4All - Yoga For All Mankind", "location": {"address": "Greifswalder Str. 9", "lat": 52.52960719853953, "lng": 13.426505225239163, "labeledLatLngs": [{"label": "display", "lat": 52.52960719853953, "lng": 13.426505225239163}], "distance": 523, "postalCode": "10405", "cc": "DE", "city": "Berlin", "state": "Berlin", "country": "Deutschland", "formattedAddress": ["Greifswalder Str. 9", "10405 Berlin", "Deutschland"]}, "categories": [{"id": "4bf58dd8d48988d102941735", "name": "Yoga Studio", "pluralName": "Yoga Studios", "shortName": "Yoga Studio", "icon": {"prefix": "https://ss3.4sqi.net/img/categories_v2/shops/gym_yogastudio_", "suffix": ".png"}, "primary": true}], "photos": {"count": 0, "groups": []}}, "referralId": "e-0-50f542fce4b0ff6d3381a7c0-26"}, {"reasons": {"count": 0, "items": [{"summary": "This spot is popular", "type": "general", "reasonName": "globalInteractionReason"}]}, "venue": {"id": "50af79aee4b042e78088961a", "name": "Leutemanns", "location": {"address": "B\u00f6tzowstr. 23", "lat": 52.53099695307988, "lng": 13.433312142164342, "labeledLatLngs": [{"label": "display", "lat": 52.53099695307988, "lng": 13.433312142164342}], "distance": 459, "postalCode": "10407", "cc": "DE", "city": "Berlin", "state": "Berlin", "country": "Deutschland", "formattedAddress": ["B\u00f6tzowstr. 23", "10407 Berlin", "Deutschland"]}, "categories": [{"id": "4bf58dd8d48988d146941735", "name": "Deli / Bodega", "pluralName": "Delis / Bodegas", "shortName": "Deli / Bodega", "icon": {"prefix": "https://ss3.4sqi.net/img/categories_v2/food/deli_", "suffix": ".png"}, "primary": true}], "photos": {"count": 0, "groups": []}}, "referralId": "e-0-50af79aee4b042e78088961a-27"}, {"reasons": {"count": 0, "items": [{"summary": "This spot is popular", "type": "general", "reasonName": "globalInteractionReason"}]}, "venue": {"id": "4c7bf19b2d3ba1430e8195d0", "name": "Saint George's", "location": {"address": "W\u00f6rther Str. 27", "crossStreet": "Rykestr.", "lat": 52.53597689739696, "lng": 13.421060493864418, "labeledLatLngs": [{"label": "display", "lat": 52.53597689739696, "lng": 13.421060493864418}], "distance": 565, "postalCode": "10405", "cc": "DE", "city": "Berlin", "state": "Berlin", "country": "Deutschland", "formattedAddress": ["W\u00f6rther Str. 27 (Rykestr.)", "10405 Berlin", "Deutschland"]}, "categories": [{"id": "4bf58dd8d48988d114951735", "name": "Bookstore", "pluralName": "Bookstores", "shortName": "Bookstore", "icon": {"prefix": "https://ss3.4sqi.net/img/categories_v2/shops/bookstore_", "suffix": ".png"}, "primary": true}], "photos": {"count": 0, "groups": []}}, "referralId": "e-0-4c7bf19b2d3ba1430e8195d0-28"}, {"reasons": {"count": 0, "items": [{"summary": "This spot is popular", "type": "general", "reasonName": "globalInteractionReason"}]}, "venue": {"id": "4b82e389f964a52037eb30e3", "name": "Caf\u00e9 / Bar Marienhof", "location": {"address": "Marienburgerstra\u00dfe 7", "lat": 52.5348432823524, "lng": 13.424011994367612, "labeledLatLngs": [{"label": "display", "lat": 52.5348432823524, "lng": 13.424011994367612}], "distance": 335, "postalCode": "10405", "cc": "DE", "city": "Berlin", "state": "Berlin", "country": "Deutschland", "formattedAddress": ["Marienburgerstra\u00dfe 7", "10405 Berlin", "Deutschland"]}, "categories": [{"id": "4bf58dd8d48988d1d8941735", "name": "Gay Bar", "pluralName": "Gay Bars", "shortName": "Gay Bar", "icon": {"prefix": "https://ss3.4sqi.net/img/categories_v2/nightlife/gaybar_", "suffix": ".png"}, "primary": true}], "photos": {"count": 0, "groups": []}, "venuePage": {"id": "42430080"}}, "referralId": "e-0-4b82e389f964a52037eb30e3-29"}, {"reasons": {"count": 0, "items": [{"summary": "This spot is popular", "type": "general", "reasonName": "globalInteractionReason"}]}, "venue": {"id": "4e43bc4a52b18fcc79915869", "name": "Mami Camilla", "location": {"address": "Hufelandstr. 36", "lat": 52.530725643590834, "lng": 13.434676847338318, "labeledLatLngs": [{"label": "display", "lat": 52.530725643590834, "lng": 13.434676847338318}], "distance": 546, "postalCode": "10407", "cc": "DE", "city": "Berlin", "state": "Berlin", "country": "Deutschland", "formattedAddress": ["Hufelandstr. 36", "10407 Berlin", "Deutschland"]}, "categories": [{"id": "4bf58dd8d48988d110941735", "name": "Italian Restaurant", "pluralName": "Italian Restaurants", "shortName": "Italian", "icon": {"prefix": "https://ss3.4sqi.net/img/categories_v2/food/italian_", "suffix": ".png"}, "primary": true}], "photos": {"count": 0, "groups": []}}, "referralId": "e-0-4e43bc4a52b18fcc79915869-30"}, {"reasons": {"count": 0, "items": [{"summary": "This spot is popular", "type": "general", "reasonName": "globalInteractionReason"}]}, "venue": {"id": "4c5ff39eb6f3be9a9f185e73", "name": "BUCHBOX!", "location": {"address": "Greifswalder Str. 33", "crossStreet": "Hufelandstr.", "lat": 52.532971415516364, "lng": 13.42961571084053, "labeledLatLngs": [{"label": "display", "lat": 52.532971415516364, "lng": 13.42961571084053}], "distance": 136, "postalCode": "10405", "cc": "DE", "city": "Berlin", "state": "Berlin", "country": "Deutschland", "formattedAddress": ["Greifswalder Str. 33 (Hufelandstr.)", "10405 Berlin", "Deutschland"]}, "categories": [{"id": "4bf58dd8d48988d114951735", "name": "Bookstore", "pluralName": "Bookstores", "shortName": "Bookstore", "icon": {"prefix": "https://ss3.4sqi.net/img/categories_v2/shops/bookstore_", "suffix": ".png"}, "primary": true}], "photos": {"count": 0, "groups": []}, "venuePage": {"id": "529704326"}}, "referralId": "e-0-4c5ff39eb6f3be9a9f185e73-31"}, {"reasons": {"count": 0, "items": [{"summary": "This spot is popular", "type": "general", "reasonName": "globalInteractionReason"}]}, "venue": {"id": "5905b1c8eacf4521f087ad53", "name": "Bootshaus Caf\u00e9", "location": {"address": "Marienburger Stra\u00dfe 49", "lat": 52.535435, "lng": 13.422962, "labeledLatLngs": [{"label": "display", "lat": 52.535435, "lng": 13.422962}], "distance": 423, "postalCode": "10405", "cc": "DE", "city": "Berlin", "state": "Berlin", "country": "Deutschland", "formattedAddress": ["Marienburger Stra\u00dfe 49", "10405 Berlin", "Deutschland"]}, "categories": [{"id": "4bf58dd8d48988d143941735", "name": "Breakfast Spot", "pluralName": "Breakfast Spots", "shortName": "Breakfast", "icon": {"prefix": "https://ss3.4sqi.net/img/categories_v2/food/breakfast_", "suffix": ".png"}, "primary": true}], "photos": {"count": 0, "groups": []}}, "referralId": "e-0-5905b1c8eacf4521f087ad53-32"}, {"reasons": {"count": 0, "items": [{"summary": "This spot is popular", "type": "general", "reasonName": "globalInteractionReason"}]}, "venue": {"id": "4be5a8852457a593fdc7ab15", "name": "Vineria Carvalho", "location": {"address": "Heinrich-Roller-Stra\u00dfe 9", "lat": 52.52996267352056, "lng": 13.424692761686563, "labeledLatLngs": [{"label": "display", "lat": 52.52996267352056, "lng": 13.424692761686563}], "distance": 537, "postalCode": "10405", "cc": "DE", "city": "Berlin", "state": "Berlin", "country": "Deutschland", "formattedAddress": ["Heinrich-Roller-Stra\u00dfe 9", "10405 Berlin", "Deutschland"]}, "categories": [{"id": "4bf58dd8d48988d146941735", "name": "Deli / Bodega", "pluralName": "Delis / Bodegas", "shortName": "Deli / Bodega", "icon": {"prefix": "https://ss3.4sqi.net/img/categories_v2/food/deli_", "suffix": ".png"}, "primary": true}], "photos": {"count": 0, "groups": []}, "venuePage": {"id": "50524085"}}, "referralId": "e-0-4be5a8852457a593fdc7ab15-33"}, {"reasons": {"count": 0, "items": [{"summary": "This spot is popular", "type": "general", "reasonName": "globalInteractionReason"}]}, "venue": {"id": "4af91f00f964a520091122e3", "name": "Godshot", "location": {"address": "Immanuelkirchstr. 32", "lat": 52.53306706135371, "lng": 13.422710312168903, "labeledLatLngs": [{"label": "display", "lat": 52.53306706135371, "lng": 13.422710312168903}], "distance": 428, "postalCode": "10405", "cc": "DE", "city": "Berlin", "state": "Berlin", "country": "Deutschland", "formattedAddress": ["Immanuelkirchstr. 32", "10405 Berlin", "Deutschland"]}, "categories": [{"id": "4bf58dd8d48988d1e0931735", "name": "Coffee Shop", "pluralName": "Coffee Shops", "shortName": "Coffee Shop", "icon": {"prefix": "https://ss3.4sqi.net/img/categories_v2/food/coffeeshop_", "suffix": ".png"}, "primary": true}], "photos": {"count": 0, "groups": []}, "venuePage": {"id": "55842506"}}, "referralId": "e-0-4af91f00f964a520091122e3-34"}, {"reasons": {"count": 0, "items": [{"summary": "This spot is popular", "type": "general", "reasonName": "globalInteractionReason"}]}, "venue": {"id": "4adcda8bf964a520d04921e3", "name": "Filmtheater am Friedrichshain", "location": {"address": "B\u00f6tzowstr. 1-5", "lat": 52.529068975520296, "lng": 13.430495290983881, "labeledLatLngs": [{"label": "display", "lat": 52.529068975520296, "lng": 13.430495290983881}], "distance": 570, "postalCode": "10407", "cc": "DE", "city": "Berlin", "state": "Berlin", "country": "Deutschland", "formattedAddress": ["B\u00f6tzowstr. 1-5", "10407 Berlin", "Deutschland"]}, "categories": [{"id": "4bf58dd8d48988d17e941735", "name": "Indie Movie Theater", "pluralName": "Indie Movie Theaters", "shortName": "Indie Movies", "icon": {"prefix": "https://ss3.4sqi.net/img/categories_v2/arts_entertainment/movietheater_", "suffix": ".png"}, "primary": true}], "photos": {"count": 0, "groups": []}}, "referralId": "e-0-4adcda8bf964a520d04921e3-35"}, {"reasons": {"count": 0, "items": [{"summary": "This spot is popular", "type": "general", "reasonName": "globalInteractionReason"}]}, "venue": {"id": "58385bf76431e579a8b171e6", "name": "REWE CITY", "location": {"address": "Pasteurstra\u00dfe 19", "lat": 52.53317418801197, "lng": 13.43466459759884, "labeledLatLngs": [{"label": "display", "lat": 52.53317418801197, "lng": 13.43466459759884}], "distance": 409, "postalCode": "10407", "cc": "DE", "city": "Berlin", "state": "Berlin", "country": "Deutschland", "formattedAddress": ["Pasteurstra\u00dfe 19", "10407 Berlin", "Deutschland"]}, "categories": [{"id": "52f2ab2ebcbc57f1066b8b46", "name": "Supermarket", "pluralName": "Supermarkets", "shortName": "Supermarket", "icon": {"prefix": "https://ss3.4sqi.net/img/categories_v2/shops/food_grocery_", "suffix": ".png"}, "primary": true}], "photos": {"count": 0, "groups": []}, "venuePage": {"id": "571679512"}}, "referralId": "e-0-58385bf76431e579a8b171e6-36"}, {"reasons": {"count": 0, "items": [{"summary": "This spot is popular", "type": "general", "reasonName": "globalInteractionReason"}]}, "venue": {"id": "594bfcd9f2905e24f6f13bbe", "name": "Izakaya WATAPAS", "location": {"address": "B\u00f6tzowstra\u00dfe 33", "crossStreet": "Liselotte-Herrmann-Stra\u00dfe", "lat": 52.532057, "lng": 13.434351, "labeledLatLngs": [{"label": "display", "lat": 52.532057, "lng": 13.434351}], "distance": 438, "postalCode": "10407", "cc": "DE", "city": "Berlin", "state": "Berlin", "country": "Deutschland", "formattedAddress": ["B\u00f6tzowstra\u00dfe 33 (Liselotte-Herrmann-Stra\u00dfe)", "10407 Berlin", "Deutschland"]}, "categories": [{"id": "4bf58dd8d48988d111941735", "name": "Japanese Restaurant", "pluralName": "Japanese Restaurants", "shortName": "Japanese", "icon": {"prefix": "https://ss3.4sqi.net/img/categories_v2/food/japanese_", "suffix": ".png"}, "primary": true}], "photos": {"count": 0, "groups": []}}, "referralId": "e-0-594bfcd9f2905e24f6f13bbe-37"}, {"reasons": {"count": 0, "items": [{"summary": "This spot is popular", "type": "general", "reasonName": "globalInteractionReason"}]}, "venue": {"id": "57212d4a498ef736dde75099", "name": "Birra - Italian Craft Beer", "location": {"address": "Prenzlauer Allee 198", "lat": 52.53862401663207, "lng": 13.423833782819282, "labeledLatLngs": [{"label": "display", "lat": 52.53862401663207, "lng": 13.423833782819282}], "distance": 606, "postalCode": "10405", "cc": "DE", "city": "Berlin", "state": "Berlin", "country": "Deutschland", "formattedAddress": ["Prenzlauer Allee 198", "10405 Berlin", "Deutschland"]}, "categories": [{"id": "56aa371ce4b08b9a8d57356c", "name": "Beer Bar", "pluralName": "Beer Bars", "shortName": "Beer Bar", "icon": {"prefix": "https://ss3.4sqi.net/img/categories_v2/nightlife/pub_", "suffix": ".png"}, "primary": true}], "photos": {"count": 0, "groups": []}}, "referralId": "e-0-57212d4a498ef736dde75099-38"}, {"reasons": {"count": 0, "items": [{"summary": "This spot is popular", "type": "general", "reasonName": "globalInteractionReason"}]}, "venue": {"id": "5919dd9c6e465058f788753e", "name": "Esse Osteria", "location": {"address": "Prenzlauer Allee 41", "lat": 52.53579118896019, "lng": 13.422438151171342, "labeledLatLngs": [{"label": "display", "lat": 52.53579118896019, "lng": 13.422438151171342}], "distance": 471, "postalCode": "10405", "cc": "DE", "neighborhood": "Kollwitzkiez", "city": "Berlin", "state": "Berlin", "country": "Deutschland", "formattedAddress": ["Prenzlauer Allee 41", "10405 Berlin", "Deutschland"]}, "categories": [{"id": "55a5a1ebe4b013909087cb7f", "name": "Trattoria/Osteria", "pluralName": "Trattorias/Osterias", "shortName": "Trattoria/Osteria", "icon": {"prefix": "https://ss3.4sqi.net/img/categories_v2/food/italian_", "suffix": ".png"}, "primary": true}], "photos": {"count": 0, "groups": []}}, "referralId": "e-0-5919dd9c6e465058f788753e-39"}, {"reasons": {"count": 0, "items": [{"summary": "This spot is popular", "type": "general", "reasonName": "globalInteractionReason"}]}, "venue": {"id": "4c813046d92ea0931f7f3e72", "name": "Etc:Bar", "location": {"address": "Knaackstr. 12", "lat": 52.534070432050434, "lng": 13.419661987048961, "labeledLatLngs": [{"label": "display", "lat": 52.534070432050434, "lng": 13.419661987048961}], "distance": 619, "postalCode": "10405", "cc": "DE", "city": "Berlin", "state": "Berlin", "country": "Deutschland", "formattedAddress": ["Knaackstr. 12", "10405 Berlin", "Deutschland"]}, "categories": [{"id": "4bf58dd8d48988d116941735", "name": "Bar", "pluralName": "Bars", "shortName": "Bar", "icon": {"prefix": "https://ss3.4sqi.net/img/categories_v2/nightlife/pub_", "suffix": ".png"}, "primary": true}], "photos": {"count": 0, "groups": []}}, "referralId": "e-0-4c813046d92ea0931f7f3e72-40"}, {"reasons": {"count": 0, "items": [{"summary": "This spot is popular", "type": "general", "reasonName": "globalInteractionReason"}]}, "venue": {"id": "5aac0eb8a9e40232ce2784b6", "name": "Grand Tang Xi Yu", "location": {"address": "Prenzlauer Allee 204", "crossStreet": "Jablonskistr", "lat": 52.53773781433857, "lng": 13.423279188568847, "labeledLatLngs": [{"label": "display", "lat": 52.53773781433857, "lng": 13.423279188568847}], "distance": 552, "postalCode": "10405", "cc": "DE", "country": "Deutschland", "formattedAddress": ["Prenzlauer Allee 204 (Jablonskistr)", "10405", "Deutschland"]}, "categories": [{"id": "4bf58dd8d48988d145941735", "name": "Chinese Restaurant", "pluralName": "Chinese Restaurants", "shortName": "Chinese", "icon": {"prefix": "https://ss3.4sqi.net/img/categories_v2/food/asian_", "suffix": ".png"}, "primary": true}], "photos": {"count": 0, "groups": []}}, "referralId": "e-0-5aac0eb8a9e40232ce2784b6-41"}, {"reasons": {"count": 0, "items": [{"summary": "This spot is popular", "type": "general", "reasonName": "globalInteractionReason"}]}, "venue": {"id": "563377e8498e265460203888", "name": "Allan's Breakfast Club & Wine Bar", "location": {"address": "Rykestr. 13", "crossStreet": "W\u00f6rtherstr.", "lat": 52.53650891039924, "lng": 13.420523200128146, "labeledLatLngs": [{"label": "display", "lat": 52.53650891039924, "lng": 13.420523200128146}], "distance": 622, "postalCode": "10405", "cc": "DE", "city": "Berlin", "state": "Berlin", "country": "Deutschland", "formattedAddress": ["Rykestr. 13 (W\u00f6rtherstr.)", "10405 Berlin", "Deutschland"]}, "categories": [{"id": "4bf58dd8d48988d143941735", "name": "Breakfast Spot", "pluralName": "Breakfast Spots", "shortName": "Breakfast", "icon": {"prefix": "https://ss3.4sqi.net/img/categories_v2/food/breakfast_", "suffix": ".png"}, "primary": true}], "photos": {"count": 0, "groups": []}}, "referralId": "e-0-563377e8498e265460203888-42"}, {"reasons": {"count": 0, "items": [{"summary": "This spot is popular", "type": "general", "reasonName": "globalInteractionReason"}]}, "venue": {"id": "54969b9a498ee0902b62b0e3", "name": "Caf\u00e9 Melon", "location": {"address": "Greifswalder Str. 228", "lat": 52.52943786707939, "lng": 13.424926012100054, "labeledLatLngs": [{"label": "display", "lat": 52.52943786707939, "lng": 13.424926012100054}], "distance": 581, "postalCode": "10405", "cc": "DE", "city": "Berlin", "state": "Berlin", "country": "Deutschland", "formattedAddress": ["Greifswalder Str. 228", "10405 Berlin", "Deutschland"]}, "categories": [{"id": "4bf58dd8d48988d16d941735", "name": "Caf\u00e9", "pluralName": "Caf\u00e9s", "shortName": "Caf\u00e9", "icon": {"prefix": "https://ss3.4sqi.net/img/categories_v2/food/cafe_", "suffix": ".png"}, "primary": true}], "photos": {"count": 0, "groups": []}}, "referralId": "e-0-54969b9a498ee0902b62b0e3-43"}, {"reasons": {"count": 0, "items": [{"summary": "This spot is popular", "type": "general", "reasonName": "globalInteractionReason"}]}, "venue": {"id": "51b48d31498e028dcc4650f4", "name": "FACCE deli", "location": {"address": "Hufelandstr. 13", "lat": 52.53225459229812, "lng": 13.43129010596695, "labeledLatLngs": [{"label": "display", "lat": 52.53225459229812, "lng": 13.43129010596695}], "distance": 264, "postalCode": "10407", "cc": "DE", "neighborhood": "B\u00f6tzowviertel", "city": "Berlin", "state": "Berlin", "country": "Deutschland", "formattedAddress": ["Hufelandstr. 13", "10407 Berlin", "Deutschland"]}, "categories": [{"id": "4bf58dd8d48988d16d941735", "name": "Caf\u00e9", "pluralName": "Caf\u00e9s", "shortName": "Caf\u00e9", "icon": {"prefix": "https://ss3.4sqi.net/img/categories_v2/food/cafe_", "suffix": ".png"}, "primary": true}], "photos": {"count": 0, "groups": []}}, "referralId": "e-0-51b48d31498e028dcc4650f4-44"}, {"reasons": {"count": 0, "items": [{"summary": "This spot is popular", "type": "general", "reasonName": "globalInteractionReason"}]}, "venue": {"id": "57af2d05498e4f6130cb9109", "name": "The Hidden", "location": {"address": "Heinrich-Roller-Str. 8", "lat": 52.52997834855536, "lng": 13.424413204193115, "labeledLatLngs": [{"label": "display", "lat": 52.52997834855536, "lng": 13.424413204193115}], "distance": 546, "postalCode": "10405", "cc": "DE", "city": "Berlin", "state": "Berlin", "country": "Deutschland", "formattedAddress": ["Heinrich-Roller-Str. 8", "10405 Berlin", "Deutschland"]}, "categories": [{"id": "58daa1558bbb0b01f18ec200", "name": "Cooking School", "pluralName": "Cooking Schools", "shortName": "Cooking School", "icon": {"prefix": "https://ss3.4sqi.net/img/categories_v2/building/school_", "suffix": ".png"}, "primary": true}], "photos": {"count": 0, "groups": []}}, "referralId": "e-0-57af2d05498e4f6130cb9109-45"}, {"reasons": {"count": 0, "items": [{"summary": "This spot is popular", "type": "general", "reasonName": "globalInteractionReason"}]}, "venue": {"id": "58bb254692ca4c138f5fddc6", "name": "Mamas Banh", "location": {"address": "Hufelandstr. 31", "lat": 52.531002266244776, "lng": 13.43416443337938, "labeledLatLngs": [{"label": "display", "lat": 52.531002266244776, "lng": 13.43416443337938}], "distance": 499, "postalCode": "10407", "cc": "DE", "neighborhood": "Greifswalder Stra\u00dfe-S\u00fcd", "city": "Berlin", "state": "Berlin", "country": "Deutschland", "formattedAddress": ["Hufelandstr. 31", "10407 Prenzlauer Berg", "Deutschland"]}, "categories": [{"id": "4bf58dd8d48988d14a941735", "name": "Vietnamese Restaurant", "pluralName": "Vietnamese Restaurants", "shortName": "Vietnamese", "icon": {"prefix": "https://ss3.4sqi.net/img/categories_v2/food/vietnamese_", "suffix": ".png"}, "primary": true}], "photos": {"count": 0, "groups": []}}, "referralId": "e-0-58bb254692ca4c138f5fddc6-46"}, {"reasons": {"count": 0, "items": [{"summary": "This spot is popular", "type": "general", "reasonName": "globalInteractionReason"}]}, "venue": {"id": "56693c69498eaa5ce9d9038f", "name": "denn\u2019s Biomarkt", "location": {"address": "Danziger Str. 73-77", "crossStreet": "Prenzlauer Allee", "lat": 52.53899327070821, "lng": 13.425192803024242, "labeledLatLngs": [{"label": "display", "lat": 52.53899327070821, "lng": 13.425192803024242}], "distance": 598, "postalCode": "10404", "cc": "DE", "city": "Prenzlauer Berg", "state": "Berlin", "country": "Deutschland", "formattedAddress": ["Danziger Str. 73-77 (Prenzlauer Allee)", "10404 Prenzlauer Berg", "Deutschland"]}, "categories": [{"id": "52f2ab2ebcbc57f1066b8b45", "name": "Organic Grocery", "pluralName": "Organic Groceries", "shortName": "Organic Grocery", "icon": {"prefix": "https://ss3.4sqi.net/img/categories_v2/shops/food_grocery_", "suffix": ".png"}, "primary": true}], "photos": {"count": 0, "groups": []}}, "referralId": "e-0-56693c69498eaa5ce9d9038f-47"}, {"reasons": {"count": 0, "items": [{"summary": "This spot is popular", "type": "general", "reasonName": "globalInteractionReason"}]}, "venue": {"id": "5c2fd688475abd0039875069", "name": "Archetyp Berlin", "location": {"address": "Marienburger Strasse 5", "lat": 52.53490584169249, "lng": 13.42354953289032, "labeledLatLngs": [{"label": "display", "lat": 52.53490584169249, "lng": 13.42354953289032}], "distance": 367, "postalCode": "10405", "cc": "DE", "city": "Berlin", "state": "Berlin", "country": "Deutschland", "formattedAddress": ["Marienburger Strasse 5", "10405 Berlin", "Deutschland"]}, "categories": [{"id": "4bf58dd8d48988d1e0931735", "name": "Coffee Shop", "pluralName": "Coffee Shops", "shortName": "Coffee Shop", "icon": {"prefix": "https://ss3.4sqi.net/img/categories_v2/food/coffeeshop_", "suffix": ".png"}, "primary": true}], "photos": {"count": 0, "groups": []}}, "referralId": "e-0-5c2fd688475abd0039875069-48"}, {"reasons": {"count": 0, "items": [{"summary": "This spot is popular", "type": "general", "reasonName": "globalInteractionReason"}]}, "venue": {"id": "4bdcbe03c79cc92852ef87e9", "name": "Perle Bar", "location": {"address": "Sredzkistr. 64", "crossStreet": "Prenzlauer Allee", "lat": 52.53743894857355, "lng": 13.422303633316385, "labeledLatLngs": [{"label": "display", "lat": 52.53743894857355, "lng": 13.422303633316385}], "distance": 577, "postalCode": "10405", "cc": "DE", "city": "Berlin", "state": "Berlin", "country": "Deutschland", "formattedAddress": ["Sredzkistr. 64 (Prenzlauer Allee)", "10405 Berlin", "Deutschland"]}, "categories": [{"id": "4bf58dd8d48988d11e941735", "name": "Cocktail Bar", "pluralName": "Cocktail Bars", "shortName": "Cocktail", "icon": {"prefix": "https://ss3.4sqi.net/img/categories_v2/nightlife/cocktails_", "suffix": ".png"}, "primary": true}], "photos": {"count": 0, "groups": []}, "venuePage": {"id": "39278268"}}, "referralId": "e-0-4bdcbe03c79cc92852ef87e9-49"}, {"reasons": {"count": 0, "items": [{"summary": "This spot is popular", "type": "general", "reasonName": "globalInteractionReason"}]}, "venue": {"id": "53677d21498e567ae5c7e8f3", "name": "Umami", "location": {"address": "Knaackstr. 16", "crossStreet": "Rykestr.", "lat": 52.534477, "lng": 13.419286, "labeledLatLngs": [{"label": "display", "lat": 52.534477, "lng": 13.419286}], "distance": 646, "postalCode": "10405", "cc": "DE", "city": "Berlin", "state": "Berlin", "country": "Deutschland", "formattedAddress": ["Knaackstr. 16 (Rykestr.)", "10405 Berlin", "Deutschland"]}, "categories": [{"id": "4bf58dd8d48988d14a941735", "name": "Vietnamese Restaurant", "pluralName": "Vietnamese Restaurants", "shortName": "Vietnamese", "icon": {"prefix": "https://ss3.4sqi.net/img/categories_v2/food/vietnamese_", "suffix": ".png"}, "primary": true}], "photos": {"count": 0, "groups": []}}, "referralId": "e-0-53677d21498e567ae5c7e8f3-50"}, {"reasons": {"count": 0, "items": [{"summary": "This spot is popular", "type": "general", "reasonName": "globalInteractionReason"}]}, "venue": {"id": "4b9ad22cf964a520fbd835e3", "name": "Hausbar", "location": {"address": "Rykestr. 54", "crossStreet": "Knaackstr.", "lat": 52.534898, "lng": 13.418957, "labeledLatLngs": [{"label": "display", "lat": 52.534898, "lng": 13.418957}], "distance": 673, "postalCode": "10405", "cc": "DE", "city": "Berlin", "state": "Berlin", "country": "Deutschland", "formattedAddress": ["Rykestr. 54 (Knaackstr.)", "10405 Berlin", "Deutschland"]}, "categories": [{"id": "4bf58dd8d48988d11e941735", "name": "Cocktail Bar", "pluralName": "Cocktail Bars", "shortName": "Cocktail", "icon": {"prefix": "https://ss3.4sqi.net/img/categories_v2/nightlife/cocktails_", "suffix": ".png"}, "primary": true}], "photos": {"count": 0, "groups": []}}, "referralId": "e-0-4b9ad22cf964a520fbd835e3-51"}, {"reasons": {"count": 0, "items": [{"summary": "This spot is popular", "type": "general", "reasonName": "globalInteractionReason"}]}, "venue": {"id": "4b222e91f964a5203e4424e3", "name": "Fleischerei Gottschlich", "location": {"address": "Prenzlauer Allee 219", "lat": 52.53456251801887, "lng": 13.421546567746725, "labeledLatLngs": [{"label": "display", "lat": 52.53456251801887, "lng": 13.421546567746725}], "distance": 494, "postalCode": "10405", "cc": "DE", "city": "Berlin", "state": "Berlin", "country": "Deutschland", "formattedAddress": ["Prenzlauer Allee 219", "10405 Berlin", "Deutschland"]}, "categories": [{"id": "4bf58dd8d48988d11d951735", "name": "Butcher", "pluralName": "Butchers", "shortName": "Butcher", "icon": {"prefix": "https://ss3.4sqi.net/img/categories_v2/shops/food_butcher_", "suffix": ".png"}, "primary": true}], "photos": {"count": 0, "groups": []}}, "referralId": "e-0-4b222e91f964a5203e4424e3-52"}, {"reasons": {"count": 0, "items": [{"summary": "This spot is popular", "type": "general", "reasonName": "globalInteractionReason"}]}, "venue": {"id": "4ba222ccf964a5204bde37e3", "name": "M\u00e4rchenbrunnen", "location": {"address": "Am Friedrichshain", "lat": 52.527999298697786, "lng": 13.4267520904541, "labeledLatLngs": [{"label": "display", "lat": 52.527999298697786, "lng": 13.4267520904541}], "distance": 692, "postalCode": "10249", "cc": "DE", "city": "Berlin", "state": "Berlin", "country": "Deutschland", "formattedAddress": ["Am Friedrichshain", "10249 Berlin", "Deutschland"]}, "categories": [{"id": "56aa371be4b08b9a8d573547", "name": "Fountain", "pluralName": "Fountains", "shortName": "Fountain", "icon": {"prefix": "https://ss3.4sqi.net/img/categories_v2/parks_outdoors/plaza_", "suffix": ".png"}, "primary": true}], "photos": {"count": 0, "groups": []}}, "referralId": "e-0-4ba222ccf964a5204bde37e3-53"}, {"reasons": {"count": 0, "items": [{"summary": "This spot is popular", "type": "general", "reasonName": "globalInteractionReason"}]}, "venue": {"id": "4afafa28f964a520071a22e3", "name": "No Fire No Glory", "location": {"address": "Rykestr. 45", "lat": 52.53656704857194, "lng": 13.420561683880376, "labeledLatLngs": [{"label": "display", "lat": 52.53656704857194, "lng": 13.420561683880376}], "distance": 622, "postalCode": "10405", "cc": "DE", "city": "Berlin", "state": "Berlin", "country": "Deutschland", "formattedAddress": ["Rykestr. 45", "10405 Berlin", "Deutschland"]}, "categories": [{"id": "4bf58dd8d48988d1e0931735", "name": "Coffee Shop", "pluralName": "Coffee Shops", "shortName": "Coffee Shop", "icon": {"prefix": "https://ss3.4sqi.net/img/categories_v2/food/coffeeshop_", "suffix": ".png"}, "primary": true}], "photos": {"count": 0, "groups": []}, "venuePage": {"id": "34475687"}}, "referralId": "e-0-4afafa28f964a520071a22e3-54"}, {"reasons": {"count": 0, "items": [{"summary": "This spot is popular", "type": "general", "reasonName": "globalInteractionReason"}]}, "venue": {"id": "58d56d7ee6160c04e8800bb2", "name": "KROM", "location": {"address": "Winsstra\u00dfe 9", "lat": 52.532099, "lng": 13.423956, "labeledLatLngs": [{"label": "display", "lat": 52.532099, "lng": 13.423956}], "distance": 396, "postalCode": "10405", "cc": "DE", "neighborhood": "Winsviertel", "city": "Berlin", "state": "Berlin", "country": "Deutschland", "formattedAddress": ["Winsstra\u00dfe 9", "10405 Prenzlauer Berg", "Deutschland"]}, "categories": [{"id": "4bf58dd8d48988d11e941735", "name": "Cocktail Bar", "pluralName": "Cocktail Bars", "shortName": "Cocktail", "icon": {"prefix": "https://ss3.4sqi.net/img/categories_v2/nightlife/cocktails_", "suffix": ".png"}, "primary": true}], "photos": {"count": 0, "groups": []}}, "referralId": "e-0-58d56d7ee6160c04e8800bb2-55"}, {"reasons": {"count": 0, "items": [{"summary": "This spot is popular", "type": "general", "reasonName": "globalInteractionReason"}]}, "venue": {"id": "5cd3f9062bf29b002d07c0d6", "name": "S\u00fc\u00dffein", "location": {"address": "Rykestr. 50", "lat": 52.535415, "lng": 13.419287, "labeledLatLngs": [{"label": "display", "lat": 52.535415, "lng": 13.419287}], "distance": 661, "postalCode": "10405", "cc": "DE", "city": "Berlin", "state": "Berlin", "country": "Deutschland", "formattedAddress": ["Rykestr. 50", "10405 Berlin", "Deutschland"]}, "categories": [{"id": "4bf58dd8d48988d1c9941735", "name": "Ice Cream Shop", "pluralName": "Ice Cream Shops", "shortName": "Ice Cream", "icon": {"prefix": "https://ss3.4sqi.net/img/categories_v2/food/icecream_", "suffix": ".png"}, "primary": true}], "photos": {"count": 0, "groups": []}}, "referralId": "e-0-5cd3f9062bf29b002d07c0d6-56"}, {"reasons": {"count": 0, "items": [{"summary": "This spot is popular", "type": "general", "reasonName": "globalInteractionReason"}]}, "venue": {"id": "596e5d8f9fca56559d3a1cd4", "name": "Tribeca Ice Cream", "location": {"address": "Rykestr. 40", "lat": 52.53739405956309, "lng": 13.421227304113174, "labeledLatLngs": [{"label": "display", "lat": 52.53739405956309, "lng": 13.421227304113174}], "distance": 631, "postalCode": "10405", "cc": "DE", "city": "Berlin", "state": "Berlin", "country": "Deutschland", "formattedAddress": ["Rykestr. 40", "10405 Berlin", "Deutschland"]}, "categories": [{"id": "4bf58dd8d48988d1c9941735", "name": "Ice Cream Shop", "pluralName": "Ice Cream Shops", "shortName": "Ice Cream", "icon": {"prefix": "https://ss3.4sqi.net/img/categories_v2/food/icecream_", "suffix": ".png"}, "primary": true}], "photos": {"count": 0, "groups": []}}, "referralId": "e-0-596e5d8f9fca56559d3a1cd4-57"}, {"reasons": {"count": 0, "items": [{"summary": "This spot is popular", "type": "general", "reasonName": "globalInteractionReason"}]}, "venue": {"id": "4adcda7df964a520634721e3", "name": "Wasserturm", "location": {"address": "Knaackstr.", "crossStreet": "Rykestr.", "lat": 52.53419122630572, "lng": 13.418587446212769, "labeledLatLngs": [{"label": "display", "lat": 52.53419122630572, "lng": 13.418587446212769}], "distance": 692, "postalCode": "10435", "cc": "DE", "city": "Berlin", "state": "Berlin", "country": "Deutschland", "formattedAddress": ["Knaackstr. (Rykestr.)", "10435 Berlin", "Deutschland"]}, "categories": [{"id": "4deefb944765f83613cdba6e", "name": "Historic Site", "pluralName": "Historic Sites", "shortName": "Historic Site", "icon": {"prefix": "https://ss3.4sqi.net/img/categories_v2/arts_entertainment/historicsite_", "suffix": ".png"}, "primary": true}], "photos": {"count": 0, "groups": []}}, "referralId": "e-0-4adcda7df964a520634721e3-58"}, {"reasons": {"count": 0, "items": [{"summary": "This spot is popular", "type": "general", "reasonName": "globalInteractionReason"}]}, "venue": {"id": "5a5a14a695da0c46503a64f0", "name": "Savanne Imbiss", "location": {"lat": 52.531544, "lng": 13.42793, "labeledLatLngs": [{"label": "display", "lat": 52.531544, "lng": 13.42793}], "distance": 289, "cc": "DE", "country": "Deutschland", "formattedAddress": ["Deutschland"]}, "categories": [{"id": "4bf58dd8d48988d10b941735", "name": "Falafel Restaurant", "pluralName": "Falafel Restaurants", "shortName": "Falafel", "icon": {"prefix": "https://ss3.4sqi.net/img/categories_v2/food/falafel_", "suffix": ".png"}, "primary": true}], "photos": {"count": 0, "groups": []}}, "referralId": "e-0-5a5a14a695da0c46503a64f0-59"}, {"reasons": {"count": 0, "items": [{"summary": "This spot is popular", "type": "general", "reasonName": "globalInteractionReason"}]}, "venue": {"id": "4adcda8bf964a520d74921e3", "name": "Theater unterm Dach", "location": {"address": "Danziger Str. 101", "lat": 52.53746074130734, "lng": 13.4307861328125, "labeledLatLngs": [{"label": "display", "lat": 52.53746074130734, "lng": 13.4307861328125}], "distance": 397, "postalCode": "10405", "cc": "DE", "city": "Berlin", "state": "Berlin", "country": "Deutschland", "formattedAddress": ["Danziger Str. 101", "10405 Berlin", "Deutschland"]}, "categories": [{"id": "4bf58dd8d48988d135941735", "name": "Indie Theater", "pluralName": "Indie Theaters", "shortName": "Indie", "icon": {"prefix": "https://ss3.4sqi.net/img/categories_v2/arts_entertainment/performingarts_theater_", "suffix": ".png"}, "primary": true}], "photos": {"count": 0, "groups": []}}, "referralId": "e-0-4adcda8bf964a520d74921e3-60"}, {"reasons": {"count": 0, "items": [{"summary": "This spot is popular", "type": "general", "reasonName": "globalInteractionReason"}]}, "venue": {"id": "4ed348f34fc68d9eb499876a", "name": "B\u00e4ckerei K\u00e4dtler", "location": {"address": "Danziger Str. 135", "lat": 52.53509932648522, "lng": 13.43537012881591, "labeledLatLngs": [{"label": "display", "lat": 52.53509932648522, "lng": 13.43537012881591}], "distance": 457, "postalCode": "10407", "cc": "DE", "city": "Berlin", "state": "Berlin", "country": "Deutschland", "formattedAddress": ["Danziger Str. 135", "10407 Berlin", "Deutschland"]}, "categories": [{"id": "4bf58dd8d48988d16a941735", "name": "Bakery", "pluralName": "Bakeries", "shortName": "Bakery", "icon": {"prefix": "https://ss3.4sqi.net/img/categories_v2/food/bakery_", "suffix": ".png"}, "primary": true}], "photos": {"count": 0, "groups": []}}, "referralId": "e-0-4ed348f34fc68d9eb499876a-61"}, {"reasons": {"count": 0, "items": [{"summary": "This spot is popular", "type": "general", "reasonName": "globalInteractionReason"}]}, "venue": {"id": "572e0c89498e8539a4c3b331", "name": "Come V\u00e0 V\u00e0", "location": {"address": "Danziger Str 144", "lat": 52.534494, "lng": 13.435989, "labeledLatLngs": [{"label": "display", "lat": 52.534494, "lng": 13.435989}], "distance": 487, "cc": "DE", "city": "Berlin", "state": "Berlin", "country": "Deutschland", "formattedAddress": ["Danziger Str 144", "Berlin", "Deutschland"]}, "categories": [{"id": "4bf58dd8d48988d1ca941735", "name": "Pizza Place", "pluralName": "Pizza Places", "shortName": "Pizza", "icon": {"prefix": "https://ss3.4sqi.net/img/categories_v2/food/pizza_", "suffix": ".png"}, "primary": true}], "photos": {"count": 0, "groups": []}}, "referralId": "e-0-572e0c89498e8539a4c3b331-62"}, {"reasons": {"count": 0, "items": [{"summary": "This spot is popular", "type": "general", "reasonName": "globalInteractionReason"}]}, "venue": {"id": "4cfa2d2cc6cca35dcd9f8432", "name": "BIO COMPANY", "location": {"address": "Greifswalder Str. 212", "lat": 52.531933528355665, "lng": 13.427757545131414, "labeledLatLngs": [{"label": "display", "lat": 52.531933528355665, "lng": 13.427757545131414}], "distance": 250, "postalCode": "10405", "cc": "DE", "city": "Berlin", "state": "Berlin", "country": "Deutschland", "formattedAddress": ["Greifswalder Str. 212", "10405 Berlin", "Deutschland"]}, "categories": [{"id": "52f2ab2ebcbc57f1066b8b45", "name": "Organic Grocery", "pluralName": "Organic Groceries", "shortName": "Organic Grocery", "icon": {"prefix": "https://ss3.4sqi.net/img/categories_v2/shops/food_grocery_", "suffix": ".png"}, "primary": true}], "photos": {"count": 0, "groups": []}, "venuePage": {"id": "478951829"}}, "referralId": "e-0-4cfa2d2cc6cca35dcd9f8432-63"}, {"reasons": {"count": 0, "items": [{"summary": "This spot is popular", "type": "general", "reasonName": "globalInteractionReason"}]}, "venue": {"id": "4c489e8e31e41b8df4b65035", "name": "Spielplatz am Wasserturm", "location": {"address": "Kolmarer Str.", "crossStreet": "Knaackstr.", "lat": 52.533891019112495, "lng": 13.418866395950317, "labeledLatLngs": [{"label": "display", "lat": 52.533891019112495, "lng": 13.418866395950317}], "distance": 673, "postalCode": "10405", "cc": "DE", "city": "Berlin", "state": "Berlin", "country": "Deutschland", "formattedAddress": ["Kolmarer Str. (Knaackstr.)", "10405 Berlin", "Deutschland"]}, "categories": [{"id": "4bf58dd8d48988d1e7941735", "name": "Playground", "pluralName": "Playgrounds", "shortName": "Playground", "icon": {"prefix": "https://ss3.4sqi.net/img/categories_v2/parks_outdoors/playground_", "suffix": ".png"}, "primary": true}], "photos": {"count": 0, "groups": []}}, "referralId": "e-0-4c489e8e31e41b8df4b65035-64"}, {"reasons": {"count": 0, "items": [{"summary": "This spot is popular", "type": "general", "reasonName": "globalInteractionReason"}]}, "venue": {"id": "4adcda87f964a520364921e3", "name": "Il Pane e le Rose", "location": {"address": "Am Friedrichshain 6", "lat": 52.529358243671346, "lng": 13.4344049701531, "labeledLatLngs": [{"label": "display", "lat": 52.529358243671346, "lng": 13.4344049701531}], "distance": 648, "postalCode": "10407", "cc": "DE", "city": "Berlin", "state": "Berlin", "country": "Deutschland", "formattedAddress": ["Am Friedrichshain 6", "10407 Berlin", "Deutschland"]}, "categories": [{"id": "4bf58dd8d48988d110941735", "name": "Italian Restaurant", "pluralName": "Italian Restaurants", "shortName": "Italian", "icon": {"prefix": "https://ss3.4sqi.net/img/categories_v2/food/italian_", "suffix": ".png"}, "primary": true}], "photos": {"count": 0, "groups": []}}, "referralId": "e-0-4adcda87f964a520364921e3-65"}, {"reasons": {"count": 0, "items": [{"summary": "This spot is popular", "type": "general", "reasonName": "globalInteractionReason"}]}, "venue": {"id": "4e45063d7d8bee2823a40cc4", "name": "Sommerhaus KaffeeBar", "location": {"address": "Hufelandstr. 43", "lat": 52.5301852281776, "lng": 13.436099127689948, "labeledLatLngs": [{"label": "display", "lat": 52.5301852281776, "lng": 13.436099127689948}], "distance": 657, "postalCode": "10407", "cc": "DE", "city": "Berlin", "state": "Berlin", "country": "Deutschland", "formattedAddress": ["Hufelandstr. 43", "10407 Berlin", "Deutschland"]}, "categories": [{"id": "4bf58dd8d48988d16d941735", "name": "Caf\u00e9", "pluralName": "Caf\u00e9s", "shortName": "Caf\u00e9", "icon": {"prefix": "https://ss3.4sqi.net/img/categories_v2/food/cafe_", "suffix": ".png"}, "primary": true}], "photos": {"count": 0, "groups": []}, "venuePage": {"id": "44982898"}}, "referralId": "e-0-4e45063d7d8bee2823a40cc4-66"}, {"reasons": {"count": 0, "items": [{"summary": "This spot is popular", "type": "general", "reasonName": "globalInteractionReason"}]}, "venue": {"id": "542edf37498e412bc384b638", "name": "Akemi", "location": {"address": "Rykestr. 39", "lat": 52.537619865261455, "lng": 13.421439910844029, "labeledLatLngs": [{"label": "display", "lat": 52.537619865261455, "lng": 13.421439910844029}], "distance": 635, "postalCode": "10405", "cc": "DE", "city": "Berlin", "state": "Berlin", "country": "Deutschland", "formattedAddress": ["Rykestr. 39", "10405 Berlin", "Deutschland"]}, "categories": [{"id": "4bf58dd8d48988d142941735", "name": "Asian Restaurant", "pluralName": "Asian Restaurants", "shortName": "Asian", "icon": {"prefix": "https://ss3.4sqi.net/img/categories_v2/food/asian_", "suffix": ".png"}, "primary": true}], "photos": {"count": 0, "groups": []}}, "referralId": "e-0-542edf37498e412bc384b638-67"}, {"reasons": {"count": 0, "items": [{"summary": "This spot is popular", "type": "general", "reasonName": "globalInteractionReason"}]}, "venue": {"id": "4adcda7df964a520864721e3", "name": "Volkspark Friedrichshain", "location": {"address": "Am Friedrichshain", "crossStreet": "Friedenstr.", "lat": 52.52751439464056, "lng": 13.432159423828125, "labeledLatLngs": [{"label": "display", "lat": 52.52751439464056, "lng": 13.432159423828125}], "distance": 766, "postalCode": "10249", "cc": "DE", "city": "Berlin", "state": "Berlin", "country": "Deutschland", "formattedAddress": ["Am Friedrichshain (Friedenstr.)", "10249 Berlin", "Deutschland"]}, "categories": [{"id": "4bf58dd8d48988d163941735", "name": "Park", "pluralName": "Parks", "shortName": "Park", "icon": {"prefix": "https://ss3.4sqi.net/img/categories_v2/parks_outdoors/park_", "suffix": ".png"}, "primary": true}], "photos": {"count": 0, "groups": []}}, "referralId": "e-0-4adcda7df964a520864721e3-68"}, {"reasons": {"count": 0, "items": [{"summary": "This spot is popular", "type": "general", "reasonName": "globalInteractionReason"}]}, "venue": {"id": "4df4e9a762e1288ed308dedf", "name": "Trampolinspielplatz", "location": {"address": "Hufelandstr.", "crossStreet": "Hans-Otto-Str.", "lat": 52.530094826299326, "lng": 13.4354038676305, "labeledLatLngs": [{"label": "display", "lat": 52.530094826299326, "lng": 13.4354038676305}], "distance": 630, "cc": "DE", "neighborhood": "Friedrichs", "city": "Berlin", "state": "Berlin", "country": "Deutschland", "formattedAddress": ["Hufelandstr. (Hans-Otto-Str.)", "Berlin", "Deutschland"]}, "categories": [{"id": "4bf58dd8d48988d1e7941735", "name": "Playground", "pluralName": "Playgrounds", "shortName": "Playground", "icon": {"prefix": "https://ss3.4sqi.net/img/categories_v2/parks_outdoors/playground_", "suffix": ".png"}, "primary": true}], "photos": {"count": 0, "groups": []}}, "referralId": "e-0-4df4e9a762e1288ed308dedf-69"}, {"reasons": {"count": 0, "items": [{"summary": "This spot is popular", "type": "general", "reasonName": "globalInteractionReason"}]}, "venue": {"id": "4d4401f91ed56dcb171caa54", "name": "Park am Wasserturm", "location": {"address": "Belforter Str.", "crossStreet": "Kolmarer Str.", "lat": 52.53387144031121, "lng": 13.418126106262207, "labeledLatLngs": [{"label": "display", "lat": 52.53387144031121, "lng": 13.418126106262207}], "distance": 724, "postalCode": "10405", "cc": "DE", "city": "Berlin", "state": "Berlin", "country": "Deutschland", "formattedAddress": ["Belforter Str. (Kolmarer Str.)", "10405 Berlin", "Deutschland"]}, "categories": [{"id": "4bf58dd8d48988d163941735", "name": "Park", "pluralName": "Parks", "shortName": "Park", "icon": {"prefix": "https://ss3.4sqi.net/img/categories_v2/parks_outdoors/park_", "suffix": ".png"}, "primary": true}], "photos": {"count": 0, "groups": []}}, "referralId": "e-0-4d4401f91ed56dcb171caa54-70"}, {"reasons": {"count": 0, "items": [{"summary": "This spot is popular", "type": "general", "reasonName": "globalInteractionReason"}]}, "venue": {"id": "554dd8c8498e6819b490bb0d", "name": "B\u00e4ckerei Aura", "location": {"address": "Greifswalder Str. 46", "lat": 52.535697691736374, "lng": 13.432574995004465, "labeledLatLngs": [{"label": "display", "lat": 52.535697691736374, "lng": 13.432574995004465}], "distance": 311, "postalCode": "10405", "cc": "DE", "city": "Berlin", "state": "Berlin", "country": "Deutschland", "formattedAddress": ["Greifswalder Str. 46", "10405 Berlin", "Deutschland"]}, "categories": [{"id": "4bf58dd8d48988d16a941735", "name": "Bakery", "pluralName": "Bakeries", "shortName": "Bakery", "icon": {"prefix": "https://ss3.4sqi.net/img/categories_v2/food/bakery_", "suffix": ".png"}, "primary": true}], "photos": {"count": 0, "groups": []}}, "referralId": "e-0-554dd8c8498e6819b490bb0d-71"}, {"reasons": {"count": 0, "items": [{"summary": "This spot is popular", "type": "general", "reasonName": "globalInteractionReason"}]}, "venue": {"id": "5bd47dc267e5f2002cd7e73a", "name": "L'\u00e9picerie", "location": {"address": "W\u00f6rther Str. 19", "crossStreet": "Rykestr.", "lat": 52.535896, "lng": 13.420355, "labeledLatLngs": [{"label": "display", "lat": 52.535896, "lng": 13.420355}], "distance": 606, "postalCode": "10405", "cc": "DE", "neighborhood": "Kollwitzkiez", "city": "Berlin", "state": "Berlin", "country": "Deutschland", "formattedAddress": ["W\u00f6rther Str. 19 (Rykestr.)", "10405 Berlin", "Deutschland"]}, "categories": [{"id": "4bf58dd8d48988d1f5941735", "name": "Gourmet Shop", "pluralName": "Gourmet Shops", "shortName": "Gourmet", "icon": {"prefix": "https://ss3.4sqi.net/img/categories_v2/shops/food_gourmet_", "suffix": ".png"}, "primary": true}], "photos": {"count": 0, "groups": []}}, "referralId": "e-0-5bd47dc267e5f2002cd7e73a-72"}, {"reasons": {"count": 0, "items": [{"summary": "This spot is popular", "type": "general", "reasonName": "globalInteractionReason"}]}, "venue": {"id": "4bcc69f6937ca5938c03ab92", "name": "Cafezinho", "location": {"address": "B\u00f6tzowstr.", "lat": 52.532868765939924, "lng": 13.435749291775648, "labeledLatLngs": [{"label": "display", "lat": 52.532868765939924, "lng": 13.435749291775648}], "distance": 489, "postalCode": "10407", "cc": "DE", "city": "Berlin", "state": "Berlin", "country": "Deutschland", "formattedAddress": ["B\u00f6tzowstr.", "10407 Berlin", "Deutschland"]}, "categories": [{"id": "4bf58dd8d48988d16d941735", "name": "Caf\u00e9", "pluralName": "Caf\u00e9s", "shortName": "Caf\u00e9", "icon": {"prefix": "https://ss3.4sqi.net/img/categories_v2/food/cafe_", "suffix": ".png"}, "primary": true}], "photos": {"count": 0, "groups": []}}, "referralId": "e-0-4bcc69f6937ca5938c03ab92-73"}, {"reasons": {"count": 0, "items": [{"summary": "This spot is popular", "type": "general", "reasonName": "globalInteractionReason"}]}, "venue": {"id": "532a110a498e8321f7eec61b", "name": "Bryk Bar", "location": {"address": "Rykestr. 18", "lat": 52.53724999929866, "lng": 13.421173070014882, "labeledLatLngs": [{"label": "display", "lat": 52.53724999929866, "lng": 13.421173070014882}], "distance": 625, "postalCode": "10405", "cc": "DE", "city": "Berlin", "state": "Berlin", "country": "Deutschland", "formattedAddress": ["Rykestr. 18", "10405 Berlin", "Deutschland"]}, "categories": [{"id": "4bf58dd8d48988d11e941735", "name": "Cocktail Bar", "pluralName": "Cocktail Bars", "shortName": "Cocktail", "icon": {"prefix": "https://ss3.4sqi.net/img/categories_v2/nightlife/cocktails_", "suffix": ".png"}, "primary": true}], "photos": {"count": 0, "groups": []}}, "referralId": "e-0-532a110a498e8321f7eec61b-74"}, {"reasons": {"count": 0, "items": [{"summary": "This spot is popular", "type": "general", "reasonName": "globalInteractionReason"}]}, "venue": {"id": "4fc8fb62e4b02e99be94610f", "name": "Leisepark", "location": {"address": "Heinrich-Roller-Stra\u00dfe", "crossStreet": "Winsstra\u00dfe", "lat": 52.53116825358396, "lng": 13.421452231178282, "labeledLatLngs": [{"label": "display", "lat": 52.53116825358396, "lng": 13.421452231178282}], "distance": 595, "postalCode": "10405", "cc": "DE", "city": "Berlin", "state": "Berlin", "country": "Deutschland", "formattedAddress": ["Heinrich-Roller-Stra\u00dfe (Winsstra\u00dfe)", "10405 Berlin", "Deutschland"]}, "categories": [{"id": "4bf58dd8d48988d163941735", "name": "Park", "pluralName": "Parks", "shortName": "Park", "icon": {"prefix": "https://ss3.4sqi.net/img/categories_v2/parks_outdoors/park_", "suffix": ".png"}, "primary": true}], "photos": {"count": 0, "groups": []}}, "referralId": "e-0-4fc8fb62e4b02e99be94610f-75"}, {"reasons": {"count": 0, "items": [{"summary": "This spot is popular", "type": "general", "reasonName": "globalInteractionReason"}]}, "venue": {"id": "4b110f3df964a520cc7723e3", "name": "Wochenmarkt am Kollwitzplatz", "location": {"address": "Kollwitzstr.", "crossStreet": "W\u00f6rther Str.", "lat": 52.53659933582729, "lng": 13.418276309967041, "labeledLatLngs": [{"label": "display", "lat": 52.53659933582729, "lng": 13.418276309967041}], "distance": 766, "postalCode": "10405", "cc": "DE", "city": "Berlin", "state": "Berlin", "country": "Deutschland", "formattedAddress": ["Kollwitzstr. (W\u00f6rther Str.)", "10405 Berlin", "Deutschland"]}, "categories": [{"id": "4bf58dd8d48988d1fa941735", "name": "Farmers Market", "pluralName": "Farmers Markets", "shortName": "Farmer's Market", "icon": {"prefix": "https://ss3.4sqi.net/img/categories_v2/shops/food_farmersmarket_", "suffix": ".png"}, "primary": true}], "photos": {"count": 0, "groups": []}}, "referralId": "e-0-4b110f3df964a520cc7723e3-76"}, {"reasons": {"count": 0, "items": [{"summary": "This spot is popular", "type": "general", "reasonName": "globalInteractionReason"}]}, "venue": {"id": "538ffc06498e2cb938159ccd", "name": "Backstube SowohlAlsAuch", "location": {"address": "Sredzkistr. 53", "crossStreet": "Kollwitzstr.", "lat": 52.538119835602814, "lng": 13.420464992523192, "labeledLatLngs": [{"label": "display", "lat": 52.538119835602814, "lng": 13.420464992523192}], "distance": 721, "postalCode": "10405", "cc": "DE", "city": "Berlin", "state": "Berlin", "country": "Deutschland", "formattedAddress": ["Sredzkistr. 53 (Kollwitzstr.)", "10405 Berlin", "Deutschland"]}, "categories": [{"id": "4bf58dd8d48988d16a941735", "name": "Bakery", "pluralName": "Bakeries", "shortName": "Bakery", "icon": {"prefix": "https://ss3.4sqi.net/img/categories_v2/food/bakery_", "suffix": ".png"}, "primary": true}], "photos": {"count": 0, "groups": []}}, "referralId": "e-0-538ffc06498e2cb938159ccd-77"}, {"reasons": {"count": 0, "items": [{"summary": "This spot is popular", "type": "general", "reasonName": "globalInteractionReason"}]}, "venue": {"id": "4b01c059f964a520244522e3", "name": "Zweistrom", "location": {"address": "Kollwitzstr. 104", "lat": 52.5393128298324, "lng": 13.421396575082154, "labeledLatLngs": [{"label": "display", "lat": 52.5393128298324, "lng": 13.421396575082154}], "distance": 768, "postalCode": "10435", "cc": "DE", "city": "Berlin", "state": "Berlin", "country": "Deutschland", "formattedAddress": ["Kollwitzstr. 104", "10435 Berlin", "Deutschland"]}, "categories": [{"id": "4bf58dd8d48988d10b941735", "name": "Falafel Restaurant", "pluralName": "Falafel Restaurants", "shortName": "Falafel", "icon": {"prefix": "https://ss3.4sqi.net/img/categories_v2/food/falafel_", "suffix": ".png"}, "primary": true}], "photos": {"count": 0, "groups": []}}, "referralId": "e-0-4b01c059f964a520244522e3-78"}, {"reasons": {"count": 0, "items": [{"summary": "This spot is popular", "type": "general", "reasonName": "globalInteractionReason"}]}, "venue": {"id": "52570f7311d27f925e6b81a2", "name": "Monterey Bar", "location": {"address": "Danziger Str. 61", "lat": 52.53963049460394, "lng": 13.422444462776184, "labeledLatLngs": [{"label": "display", "lat": 52.53963049460394, "lng": 13.422444462776184}], "distance": 752, "postalCode": "10435", "cc": "DE", "city": "Berlin", "state": "Berlin", "country": "Deutschland", "formattedAddress": ["Danziger Str. 61", "10435 Berlin", "Deutschland"]}, "categories": [{"id": "56aa371ce4b08b9a8d57356c", "name": "Beer Bar", "pluralName": "Beer Bars", "shortName": "Beer Bar", "icon": {"prefix": "https://ss3.4sqi.net/img/categories_v2/nightlife/pub_", "suffix": ".png"}, "primary": true}], "photos": {"count": 0, "groups": []}, "venuePage": {"id": "72402800"}}, "referralId": "e-0-52570f7311d27f925e6b81a2-79"}, {"reasons": {"count": 0, "items": [{"summary": "This spot is popular", "type": "general", "reasonName": "globalInteractionReason"}]}, "venue": {"id": "56f39a12498e8886f31f57d2", "name": "Caf\u00e9 Neue Liebe", "location": {"address": "Rykestr. 42", "lat": 52.53707821644291, "lng": 13.42097486201507, "labeledLatLngs": [{"label": "display", "lat": 52.53707821644291, "lng": 13.42097486201507}], "distance": 626, "postalCode": "10405", "cc": "DE", "city": "Berlin", "state": "Berlin", "country": "Deutschland", "formattedAddress": ["Rykestr. 42", "10405 Berlin", "Deutschland"]}, "categories": [{"id": "4bf58dd8d48988d16d941735", "name": "Caf\u00e9", "pluralName": "Caf\u00e9s", "shortName": "Caf\u00e9", "icon": {"prefix": "https://ss3.4sqi.net/img/categories_v2/food/cafe_", "suffix": ".png"}, "primary": true}], "photos": {"count": 0, "groups": []}, "venuePage": {"id": "214437962"}}, "referralId": "e-0-56f39a12498e8886f31f57d2-80"}, {"reasons": {"count": 0, "items": [{"summary": "This spot is popular", "type": "general", "reasonName": "globalInteractionReason"}]}, "venue": {"id": "4adcda86f964a520224921e3", "name": "Pasternak", "location": {"address": "Knaackstr. 22-24", "lat": 52.53465906029785, "lng": 13.418682027809362, "labeledLatLngs": [{"label": "display", "lat": 52.53465906029785, "lng": 13.418682027809362}], "distance": 688, "postalCode": "10405", "cc": "DE", "city": "Berlin", "state": "Berlin", "country": "Deutschland", "formattedAddress": ["Knaackstr. 22-24", "10405 Berlin", "Deutschland"]}, "categories": [{"id": "5293a7563cf9994f4e043a44", "name": "Russian Restaurant", "pluralName": "Russian Restaurants", "shortName": "Russian", "icon": {"prefix": "https://ss3.4sqi.net/img/categories_v2/food/russian_", "suffix": ".png"}, "primary": true}], "photos": {"count": 0, "groups": []}}, "referralId": "e-0-4adcda86f964a520224921e3-81"}, {"reasons": {"count": 0, "items": [{"summary": "This spot is popular", "type": "general", "reasonName": "globalInteractionReason"}]}, "venue": {"id": "4adcda78f964a520694621e3", "name": "Saphire Bar", "location": {"address": "B\u00f6tzowstra\u00dfe 31", "lat": 52.531806503167346, "lng": 13.434282705696377, "labeledLatLngs": [{"label": "display", "lat": 52.531806503167346, "lng": 13.434282705696377}], "distance": 449, "postalCode": "10407", "cc": "DE", "city": "Berlin", "state": "Berlin", "country": "Deutschland", "formattedAddress": ["B\u00f6tzowstra\u00dfe 31", "10407 Berlin", "Deutschland"]}, "categories": [{"id": "4bf58dd8d48988d11e941735", "name": "Cocktail Bar", "pluralName": "Cocktail Bars", "shortName": "Cocktail", "icon": {"prefix": "https://ss3.4sqi.net/img/categories_v2/nightlife/cocktails_", "suffix": ".png"}, "primary": true}], "photos": {"count": 0, "groups": []}}, "referralId": "e-0-4adcda78f964a520694621e3-82"}, {"reasons": {"count": 0, "items": [{"summary": "This spot is popular", "type": "general", "reasonName": "globalInteractionReason"}]}, "venue": {"id": "4faea0ebe4b0b84e1cbfa7c7", "name": "Pepe Nero", "location": {"address": "B\u00f6tzowstr. 30", "lat": 52.53189183773727, "lng": 13.43457406475462, "labeledLatLngs": [{"label": "display", "lat": 52.53189183773727, "lng": 13.43457406475462}], "distance": 460, "postalCode": "10407", "cc": "DE", "city": "Berlin", "state": "Berlin", "country": "Deutschland", "formattedAddress": ["B\u00f6tzowstr. 30", "10407 Berlin", "Deutschland"]}, "categories": [{"id": "4bf58dd8d48988d110941735", "name": "Italian Restaurant", "pluralName": "Italian Restaurants", "shortName": "Italian", "icon": {"prefix": "https://ss3.4sqi.net/img/categories_v2/food/italian_", "suffix": ".png"}, "primary": true}], "photos": {"count": 0, "groups": []}}, "referralId": "e-0-4faea0ebe4b0b84e1cbfa7c7-83"}, {"reasons": {"count": 0, "items": [{"summary": "This spot is popular", "type": "general", "reasonName": "globalInteractionReason"}]}, "venue": {"id": "519e4bb1498e8864b86cdad7", "name": "MDC Cosmetic", "location": {"address": "Knaackstrasse 26", "lat": 52.53496545839637, "lng": 13.4178760373489, "labeledLatLngs": [{"label": "display", "lat": 52.53496545839637, "lng": 13.4178760373489}], "distance": 746, "postalCode": "10405", "cc": "DE", "city": "Berlin", "state": "Berlin", "country": "Deutschland", "formattedAddress": ["Knaackstrasse 26", "10405 Berlin", "Deutschland"]}, "categories": [{"id": "4bf58dd8d48988d10c951735", "name": "Cosmetics Shop", "pluralName": "Cosmetics Shops", "shortName": "Cosmetics", "icon": {"prefix": "https://ss3.4sqi.net/img/categories_v2/shops/beauty_cosmetic_", "suffix": ".png"}, "primary": true}], "photos": {"count": 0, "groups": []}}, "referralId": "e-0-519e4bb1498e8864b86cdad7-84"}, {"reasons": {"count": 0, "items": [{"summary": "This spot is popular", "type": "general", "reasonName": "globalInteractionReason"}]}, "venue": {"id": "4c0229160d0e0f4715cb009a", "name": "LEKR", "location": {"address": "B\u00f6tzowstr. 23", "lat": 52.5312622324579, "lng": 13.433425255575496, "labeledLatLngs": [{"label": "display", "lat": 52.5312622324579, "lng": 13.433425255575496}], "distance": 443, "postalCode": "10407", "cc": "DE", "city": "Berlin", "state": "Berlin", "country": "Deutschland", "formattedAddress": ["B\u00f6tzowstr. 23", "10407 Berlin", "Deutschland"]}, "categories": [{"id": "4bf58dd8d48988d118951735", "name": "Grocery Store", "pluralName": "Grocery Stores", "shortName": "Grocery Store", "icon": {"prefix": "https://ss3.4sqi.net/img/categories_v2/shops/food_grocery_", "suffix": ".png"}, "primary": true}], "photos": {"count": 0, "groups": []}}, "referralId": "e-0-4c0229160d0e0f4715cb009a-85"}, {"reasons": {"count": 0, "items": [{"summary": "This spot is popular", "type": "general", "reasonName": "globalInteractionReason"}]}, "venue": {"id": "50420dd5e4b08d5b622377e4", "name": "Kahrmann's Own", "location": {"address": "B\u00f6tzowstr. 21", "crossStreet": "Hufelandstrasse", "lat": 52.53090414997427, "lng": 13.433274343253295, "labeledLatLngs": [{"label": "display", "lat": 52.53090414997427, "lng": 13.433274343253295}], "distance": 466, "postalCode": "10407", "cc": "DE", "city": "Berlin", "state": "Berlin", "country": "Deutschland", "formattedAddress": ["B\u00f6tzowstr. 21 (Hufelandstrasse)", "10407 Berlin", "Deutschland"]}, "categories": [{"id": "4bf58dd8d48988d16d941735", "name": "Caf\u00e9", "pluralName": "Caf\u00e9s", "shortName": "Caf\u00e9", "icon": {"prefix": "https://ss3.4sqi.net/img/categories_v2/food/cafe_", "suffix": ".png"}, "primary": true}], "photos": {"count": 0, "groups": []}, "venuePage": {"id": "49498767"}}, "referralId": "e-0-50420dd5e4b08d5b622377e4-86"}, {"reasons": {"count": 0, "items": [{"summary": "This spot is popular", "type": "general", "reasonName": "globalInteractionReason"}]}, "venue": {"id": "4b29237cf964a5207f9924e3", "name": "Willy Bresch", "location": {"address": "Danziger Str. 120", "crossStreet": "Greifswalder Str.", "lat": 52.536023851784634, "lng": 13.43336010833403, "labeledLatLngs": [{"label": "display", "lat": 52.536023851784634, "lng": 13.43336010833403}], "distance": 375, "postalCode": "10407", "cc": "DE", "city": "Berlin", "state": "Berlin", "country": "Deutschland", "formattedAddress": ["Danziger Str. 120 (Greifswalder Str.)", "10407 Berlin", "Deutschland"]}, "categories": [{"id": "4bf58dd8d48988d11b941735", "name": "Pub", "pluralName": "Pubs", "shortName": "Pub", "icon": {"prefix": "https://ss3.4sqi.net/img/categories_v2/nightlife/pub_", "suffix": ".png"}, "primary": true}], "photos": {"count": 0, "groups": []}}, "referralId": "e-0-4b29237cf964a5207f9924e3-87"}, {"reasons": {"count": 0, "items": [{"summary": "This spot is popular", "type": "general", "reasonName": "globalInteractionReason"}]}, "venue": {"id": "5d592d93676ceb00074f2cb4", "name": "Plant Base", "location": {"address": "Prenzlauer Allee 208", "lat": 52.536843, "lng": 13.42244, "labeledLatLngs": [{"label": "display", "lat": 52.536843, "lng": 13.42244}], "distance": 529, "postalCode": "10405", "cc": "DE", "neighborhood": "Kollwitzkiez", "city": "Berlin", "state": "Berlin", "country": "Deutschland", "formattedAddress": ["Prenzlauer Allee 208", "10405 Berlin", "Deutschland"]}, "categories": [{"id": "4bf58dd8d48988d16d941735", "name": "Caf\u00e9", "pluralName": "Caf\u00e9s", "shortName": "Caf\u00e9", "icon": {"prefix": "https://ss3.4sqi.net/img/categories_v2/food/cafe_", "suffix": ".png"}, "primary": true}], "photos": {"count": 0, "groups": []}}, "referralId": "e-0-5d592d93676ceb00074f2cb4-88"}, {"reasons": {"count": 0, "items": [{"summary": "This spot is popular", "type": "general", "reasonName": "globalInteractionReason"}]}, "venue": {"id": "4b059890f964a520a0df22e3", "name": "Delizie D'Italia", "location": {"address": "Kollwitzstr. 100", "lat": 52.53915611505613, "lng": 13.421155682207546, "labeledLatLngs": [{"label": "display", "lat": 52.53915611505613, "lng": 13.421155682207546}], "distance": 765, "postalCode": "10435", "cc": "DE", "city": "Berlin", "state": "Berlin", "country": "Deutschland", "formattedAddress": ["Kollwitzstr. 100", "10435 Berlin", "Deutschland"]}, "categories": [{"id": "4bf58dd8d48988d110941735", "name": "Italian Restaurant", "pluralName": "Italian Restaurants", "shortName": "Italian", "icon": {"prefix": "https://ss3.4sqi.net/img/categories_v2/food/italian_", "suffix": ".png"}, "primary": true}], "photos": {"count": 0, "groups": []}}, "referralId": "e-0-4b059890f964a520a0df22e3-89"}, {"reasons": {"count": 0, "items": [{"summary": "This spot is popular", "type": "general", "reasonName": "globalInteractionReason"}]}, "venue": {"id": "4b9396f4f964a520624934e3", "name": "Spielplatz Am Friedrichshain", "location": {"address": "Am Friedrichshain", "lat": 52.529021787374404, "lng": 13.435480962688844, "labeledLatLngs": [{"label": "display", "lat": 52.529021787374404, "lng": 13.435480962688844}], "distance": 722, "postalCode": "10249", "cc": "DE", "city": "Berlin", "state": "Berlin", "country": "Deutschland", "formattedAddress": ["Am Friedrichshain", "10249 Berlin", "Deutschland"]}, "categories": [{"id": "4bf58dd8d48988d1e7941735", "name": "Playground", "pluralName": "Playgrounds", "shortName": "Playground", "icon": {"prefix": "https://ss3.4sqi.net/img/categories_v2/parks_outdoors/playground_", "suffix": ".png"}, "primary": true}], "photos": {"count": 0, "groups": []}}, "referralId": "e-0-4b9396f4f964a520624934e3-90"}, {"reasons": {"count": 0, "items": [{"summary": "This spot is popular", "type": "general", "reasonName": "globalInteractionReason"}]}, "venue": {"id": "4adf5adff964a520cc7921e3", "name": "Kaffeehaus SowohlAlsAuch", "location": {"address": "Kollwitzstr. 88", "crossStreet": "Sredzkistr.", "lat": 52.5383319182967, "lng": 13.420599102973938, "labeledLatLngs": [{"label": "display", "lat": 52.5383319182967, "lng": 13.420599102973938}], "distance": 729, "postalCode": "10435", "cc": "DE", "city": "Berlin", "state": "Berlin", "country": "Deutschland", "formattedAddress": ["Kollwitzstr. 88 (Sredzkistr.)", "10435 Berlin", "Deutschland"]}, "categories": [{"id": "4bf58dd8d48988d16d941735", "name": "Caf\u00e9", "pluralName": "Caf\u00e9s", "shortName": "Caf\u00e9", "icon": {"prefix": "https://ss3.4sqi.net/img/categories_v2/food/cafe_", "suffix": ".png"}, "primary": true}], "photos": {"count": 0, "groups": []}}, "referralId": "e-0-4adf5adff964a520cc7921e3-91"}, {"reasons": {"count": 0, "items": [{"summary": "This spot is popular", "type": "general", "reasonName": "globalInteractionReason"}]}, "venue": {"id": "570786c4498e2c6e767286eb", "name": "HEIDE's", "location": {"address": "Rykestrasse 52", "lat": 52.53503918111514, "lng": 13.41934515030824, "labeledLatLngs": [{"label": "display", "lat": 52.53503918111514, "lng": 13.41934515030824}], "distance": 649, "postalCode": "10405", "cc": "DE", "city": "Berlin", "state": "Berlin", "country": "Deutschland", "formattedAddress": ["Rykestrasse 52", "10405 Berlin", "Deutschland"]}, "categories": [{"id": "52e81612bcbc57f1066b79f1", "name": "Bistro", "pluralName": "Bistros", "shortName": "Bistro", "icon": {"prefix": "https://ss3.4sqi.net/img/categories_v2/food/default_", "suffix": ".png"}, "primary": true}], "photos": {"count": 0, "groups": []}, "venuePage": {"id": "341564063"}}, "referralId": "e-0-570786c4498e2c6e767286eb-92"}, {"reasons": {"count": 0, "items": [{"summary": "This spot is popular", "type": "general", "reasonName": "globalInteractionReason"}]}, "venue": {"id": "4f8424eea17cce0ef8114963", "name": "Sila Thai Massage", "location": {"address": "Hans-Otto-Stra\u00dfe 12", "lat": 52.53050375660785, "lng": 13.43552827835083, "labeledLatLngs": [{"label": "display", "lat": 52.53050375660785, "lng": 13.43552827835083}], "distance": 605, "postalCode": "10407", "cc": "DE", "city": "Berlin", "state": "Berlin", "country": "Deutschland", "formattedAddress": ["Hans-Otto-Stra\u00dfe 12", "10407 Berlin", "Deutschland"]}, "categories": [{"id": "52f2ab2ebcbc57f1066b8b3c", "name": "Massage Studio", "pluralName": "Massage Studios", "shortName": "Massage Studio", "icon": {"prefix": "https://ss3.4sqi.net/img/categories_v2/shops/spa_", "suffix": ".png"}, "primary": true}], "photos": {"count": 0, "groups": []}}, "referralId": "e-0-4f8424eea17cce0ef8114963-93"}, {"reasons": {"count": 0, "items": [{"summary": "This spot is popular", "type": "general", "reasonName": "globalInteractionReason"}]}, "venue": {"id": "524ed7a811d2f09a1c4abbb1", "name": "Manufacture Delicate", "location": {"address": "Rykestr. 7", "lat": 52.53544379407601, "lng": 13.419735988580616, "labeledLatLngs": [{"label": "display", "lat": 52.53544379407601, "lng": 13.419735988580616}], "distance": 632, "postalCode": "10405", "cc": "DE", "city": "Berlin", "state": "Berlin", "country": "Deutschland", "formattedAddress": ["Rykestr. 7", "10405 Berlin", "Deutschland"]}, "categories": [{"id": "4bf58dd8d48988d16a941735", "name": "Bakery", "pluralName": "Bakeries", "shortName": "Bakery", "icon": {"prefix": "https://ss3.4sqi.net/img/categories_v2/food/bakery_", "suffix": ".png"}, "primary": true}], "photos": {"count": 0, "groups": []}}, "referralId": "e-0-524ed7a811d2f09a1c4abbb1-94"}, {"reasons": {"count": 0, "items": [{"summary": "This spot is popular", "type": "general", "reasonName": "globalInteractionReason"}]}, "venue": {"id": "4af9ae6af964a5204c1322e3", "name": "Weinladen Schmidt", "location": {"address": "Kollwitzstr. 50", "lat": 52.534699796594396, "lng": 13.416316645041784, "labeledLatLngs": [{"label": "display", "lat": 52.534699796594396, "lng": 13.416316645041784}], "distance": 848, "postalCode": "10405", "cc": "DE", "city": "Berlin", "state": "Berlin", "country": "Deutschland", "formattedAddress": ["Kollwitzstr. 50", "10405 Berlin", "Deutschland"]}, "categories": [{"id": "4bf58dd8d48988d119951735", "name": "Wine Shop", "pluralName": "Wine Shops", "shortName": "Wine Shop", "icon": {"prefix": "https://ss3.4sqi.net/img/categories_v2/shops/food_wineshop_", "suffix": ".png"}, "primary": true}], "photos": {"count": 0, "groups": []}}, "referralId": "e-0-4af9ae6af964a5204c1322e3-95"}, {"reasons": {"count": 0, "items": [{"summary": "This spot is popular", "type": "general", "reasonName": "globalInteractionReason"}]}, "venue": {"id": "5a993d20772fbc4393a81e43", "name": "Brammibal's Donuts", "location": {"address": "Danziger Str. 65", "lat": 52.539404504281194, "lng": 13.42298043479712, "labeledLatLngs": [{"label": "display", "lat": 52.539404504281194, "lng": 13.42298043479712}], "distance": 711, "postalCode": "10435", "cc": "DE", "city": "Berlin", "state": "Berlin", "country": "Deutschland", "formattedAddress": ["Danziger Str. 65", "10435 Berlin", "Deutschland"]}, "categories": [{"id": "4bf58dd8d48988d148941735", "name": "Donut Shop", "pluralName": "Donut Shops", "shortName": "Donuts", "icon": {"prefix": "https://ss3.4sqi.net/img/categories_v2/food/donuts_", "suffix": ".png"}, "primary": true}], "photos": {"count": 0, "groups": []}}, "referralId": "e-0-5a993d20772fbc4393a81e43-96"}, {"reasons": {"count": 0, "items": [{"summary": "This spot is popular", "type": "general", "reasonName": "globalInteractionReason"}]}, "venue": {"id": "4c1dc3cb63750f471ad7b867", "name": "Einstern Coffee Bar", "location": {"address": "Prenzlauer Allee 195", "lat": 52.53962429766169, "lng": 13.424449930469796, "labeledLatLngs": [{"label": "display", "lat": 52.53962429766169, "lng": 13.424449930469796}], "distance": 682, "postalCode": "10405", "cc": "DE", "city": "Berlin", "state": "Berlin", "country": "Deutschland", "formattedAddress": ["Prenzlauer Allee 195", "10405 Berlin", "Deutschland"]}, "categories": [{"id": "4bf58dd8d48988d16d941735", "name": "Caf\u00e9", "pluralName": "Caf\u00e9s", "shortName": "Caf\u00e9", "icon": {"prefix": "https://ss3.4sqi.net/img/categories_v2/food/cafe_", "suffix": ".png"}, "primary": true}], "photos": {"count": 0, "groups": []}}, "referralId": "e-0-4c1dc3cb63750f471ad7b867-97"}, {"reasons": {"count": 0, "items": [{"summary": "This spot is popular", "type": "general", "reasonName": "globalInteractionReason"}]}, "venue": {"id": "5c952132fc9e94002bfb9f02", "name": "Chotto", "location": {"address": "Kollwitzstr. 84", "crossStreet": "Sredzkistr.", "lat": 52.537678, "lng": 13.419915, "labeledLatLngs": [{"label": "display", "lat": 52.537678, "lng": 13.419915}], "distance": 722, "postalCode": "10435", "cc": "DE", "city": "Berlin", "state": "Berlin", "country": "Deutschland", "formattedAddress": ["Kollwitzstr. 84 (Sredzkistr.)", "10435 Berlin", "Deutschland"]}, "categories": [{"id": "4bf58dd8d48988d111941735", "name": "Japanese Restaurant", "pluralName": "Japanese Restaurants", "shortName": "Japanese", "icon": {"prefix": "https://ss3.4sqi.net/img/categories_v2/food/japanese_", "suffix": ".png"}, "primary": true}], "photos": {"count": 0, "groups": []}, "venuePage": {"id": "553580488"}}, "referralId": "e-0-5c952132fc9e94002bfb9f02-98"}, {"reasons": {"count": 0, "items": [{"summary": "This spot is popular", "type": "general", "reasonName": "globalInteractionReason"}]}, "venue": {"id": "4adcda7df964a520624721e3", "name": "Kollwitzplatz", "location": {"address": "Kollwitzstr.", "crossStreet": "W\u00f6rther Str.", "lat": 52.536236, "lng": 13.417045, "labeledLatLngs": [{"label": "display", "lat": 52.536236, "lng": 13.417045}], "distance": 831, "postalCode": "10435", "cc": "DE", "neighborhood": "Kollwitzkiez", "city": "Berlin", "state": "Berlin", "country": "Deutschland", "formattedAddress": ["Kollwitzstr. (W\u00f6rther Str.)", "10435 Berlin", "Deutschland"]}, "categories": [{"id": "4bf58dd8d48988d164941735", "name": "Plaza", "pluralName": "Plazas", "shortName": "Plaza", "icon": {"prefix": "https://ss3.4sqi.net/img/categories_v2/parks_outdoors/plaza_", "suffix": ".png"}, "primary": true}], "photos": {"count": 0, "groups": []}}, "referralId": "e-0-4adcda7df964a520624721e3-99"}]