[{"reasons": {"count": 0, "items": [{"summary": "This spot is popular", "type": "general", "reasonName": "globalInteractionReason"}]}, "venue": {"id": "4adcda7df964a5206a4721e3", "name": "Gendarmenmarkt", "location": {"address": "Markgrafenstr.", "crossStreet": "Mohrenstr.", "lat": 52.51357005399756, "lng": 13.392720222473145, "labeledLatLngs": [{"label": "display", "lat": 52.51357005399756, "lng": 13.392720222473145}], "distance": 155, "postalCode": "10117", "cc": "DE", "city": "Berlin", "state": "Berlin", "country": "Deutschland", "formattedAddress": ["Markgrafenstr. (Mohrenstr.)", "10117 Berlin", "Deutschland"]}, "categories": [{"id": "4bf58dd8d48988d164941735", "name": "Plaza", "pluralName": "Plazas", "shortName": "Plaza", "icon": {"prefix": "https://ss3.4sqi.net/img/categories_v2/parks_outdoors/plaza_", "suffix": ".png"}, "primary": true}], "photos": {"count": 0, "groups": []}}, "referralId": "e-0-4adcda7df964a5206a4721e3-0"}, {"reasons": {"count": 0, "items": [{"summary": "This spot is popular", "type": "general", "reasonName": "globalInteractionReason"}]}, "venue": {"id": "4adcda7cf964a520584721e3", "name": "Konzerthaus Berlin", "location": {"address": "Gendarmenmarkt 3/4", "crossStreet": "Charlottenstr.", "lat": 52.51363861144126, "lng": 13.391794860363007, "labeledLatLngs": [{"label": "display", "lat": 52.51363861144126, "lng": 13.391794860363007}], "distance": 97, "postalCode": "10117", "cc": "DE", "city": "Berlin", "state": "Berlin", "country": "Deutschland", "formattedAddress": ["Gendarmenmarkt 3/4 (Charlottenstr.)", "10117 Berlin", "Deutschland"]}, "categories": [{"id": "5032792091d4c4b30a586d5c", "name": "Concert Hall", "pluralName": "Concert Halls", "shortName": "Concert Hall", "icon": {"prefix": "https://ss3.4sqi.net/img/categories_v2/arts_entertainment/musicvenue_", "suffix": ".png"}, "primary": true}], "photos": {"count": 0, "groups": []}}, "referralId": "e-0-4adcda7cf964a520584721e3-1"}, {"reasons": {"count": 0, "items": [{"summary": "This spot is popular", "type": "general", "reasonName": "globalInteractionReason"}]}, "venue": {"id": "5622323a498efb9560ccd9b2", "name": "Lafayette Gourmet", "location": {"address": "Friedrichstr. 76", "lat": 52.51438464756296, "lng": 13.389569085434193, "labeledLatLngs": [{"label": "display", "lat": 52.51438464756296, "lng": 13.389569085434193}], "distance": 76, "cc": "DE", "neighborhood": "Gendarmenmarkt", "city": "Berlin", "state": "Berlin", "country": "Deutschland", "formattedAddress": ["Friedrichstr. 76", "Berlin", "Deutschland"]}, "categories": [{"id": "4bf58dd8d48988d1f5941735", "name": "Gourmet Shop", "pluralName": "Gourmet Shops", "shortName": "Gourmet", "icon": {"prefix": "https://ss3.4sqi.net/img/categories_v2/shops/food_gourmet_", "suffix": ".png"}, "primary": true}], "photos": {"count": 0, "groups": []}}, "referralId": "e-0-5622323a498efb9560ccd9b2-2"}, {"reasons": {"count": 0, "items": [{"summary": "This spot is popular", "type": "general", "reasonName": "globalInteractionReason"}]}, "venue": {"id": "4b742a06f964a520bbca2de3", "name": "Rausch Schokoladenhaus", "location": {"address": "Charlottenstr.  60", "crossStreet": "Mohrenstr.", "lat": 52.512289232118704, "lng": 13.391400330243998, "labeledLatLngs": [{"label": "display", "lat": 52.512289232118704, "lng": 13.391400330243998}], "distance": 214, "postalCode": "10117", "cc": "DE", "city": "Berlin", "state": "Berlin", "country": "Deutschland", "formattedAddress": ["Charlottenstr.  60 (Mohrenstr.)", "10117 Berlin", "Deutschland"]}, "categories": [{"id": "52f2ab2ebcbc57f1066b8b31", "name": "Chocolate Shop", "pluralName": "Chocolate Shops", "shortName": "Chocolate Shop", "icon": {"prefix": "https://ss3.4sqi.net/img/categories_v2/shops/candystore_", "suffix": ".png"}, "primary": true}], "photos": {"count": 0, "groups": []}, "venuePage": {"id": "133640121"}}, "referralId": "e-0-4b742a06f964a520bbca2de3-3"}, {"reasons": {"count": 0, "items": [{"summary": "This spot is popular", "type": "general", "reasonName": "globalInteractionReason"}]}, "venue": {"id": "4adcda7df964a5207e4721e3", "name": "Deutscher Dom", "location": {"address": "Gendarmenmarkt 1", "crossStreet": "Mohrenstr.", "lat": 52.51274735633035, "lng": 13.392655849456787, "labeledLatLngs": [{"label": "display", "lat": 52.51274735633035, "lng": 13.392655849456787}], "distance": 208, "postalCode": "10117", "cc": "DE", "city": "Berlin", "state": "Berlin", "country": "Deutschland", "formattedAddress": ["Gendarmenmarkt 1 (Mohrenstr.)", "10117 Berlin", "Deutschland"]}, "categories": [{"id": "4bf58dd8d48988d190941735", "name": "History Museum", "pluralName": "History Museums", "shortName": "History Museum", "icon": {"prefix": "https://ss3.4sqi.net/img/categories_v2/arts_entertainment/museum_history_", "suffix": ".png"}, "primary": true}], "photos": {"count": 0, "groups": []}}, "referralId": "e-0-4adcda7df964a5207e4721e3-4"}, {"reasons": {"count": 0, "items": [{"summary": "This spot is popular", "type": "general", "reasonName": "globalInteractionReason"}]}, "venue": {"id": "4b5099f3f964a520f82827e3", "name": "Ritter Sport Bunte Schokowelt", "location": {"address": "Franz\u00f6sische Str. 24", "lat": 52.51490646289965, "lng": 13.390378033623746, "labeledLatLngs": [{"label": "display", "lat": 52.51490646289965, "lng": 13.390378033623746}], "distance": 85, "postalCode": "10117", "cc": "DE", "city": "Berlin", "state": "Berlin", "country": "Deutschland", "formattedAddress": ["Franz\u00f6sische Str. 24", "10117 Berlin", "Deutschland"]}, "categories": [{"id": "52f2ab2ebcbc57f1066b8b31", "name": "Chocolate Shop", "pluralName": "Chocolate Shops", "shortName": "Chocolate Shop", "icon": {"prefix": "https://ss3.4sqi.net/img/categories_v2/shops/candystore_", "suffix": ".png"}, "primary": true}], "photos": {"count": 0, "groups": []}}, "referralId": "e-0-4b5099f3f964a520f82827e3-5"}, {"reasons": {"count": 0, "items": [{"summary": "This spot is popular", "type": "general", "reasonName": "globalInteractionReason"}]}, "venue": {"id": "57b9e6a5498e3c02814928f7", "name": "Gro\u00dfer Saal", "location": {"address": "Gendarmenmarkt 3", "lat": 52.51360922969275, "lng": 13.392033576965332, "labeledLatLngs": [{"label": "display", "lat": 52.51360922969275, "lng": 13.392033576965332}], "distance": 112, "postalCode": "10117", "cc": "DE", "city": "Berlin", "state": "Berlin", "country": "Deutschland", "formattedAddress": ["Gendarmenmarkt 3", "10117 Berlin", "Deutschland"]}, "categories": [{"id": "5032792091d4c4b30a586d5c", "name": "Concert Hall", "pluralName": "Concert Halls", "shortName": "Concert Hall", "icon": {"prefix": "https://ss3.4sqi.net/img/categories_v2/arts_entertainment/musicvenue_", "suffix": ".png"}, "primary": true}], "photos": {"count": 0, "groups": []}}, "referralId": "e-0-57b9e6a5498e3c02814928f7-6"}, {"reasons": {"count": 0, "items": [{"summary": "This spot is popular", "type": "general", "reasonName": "globalInteractionReason"}]}, "venue": {"id": "4adcda7df964a5207a4721e3", "name": "Franz\u00f6sischer Dom", "location": {"address": "Gendarmenmarkt 5", "crossStreet": "Franz\u00f6sische Str.", "lat": 52.51429479870534, "lng": 13.392366170883179, "labeledLatLngs": [{"label": "display", "lat": 52.51429479870534, "lng": 13.392366170883179}], "distance": 117, "postalCode": "10117", "cc": "DE", "city": "Berlin", "state": "Berlin", "country": "Deutschland", "formattedAddress": ["Gendarmenmarkt 5 (Franz\u00f6sische Str.)", "10117 Berlin", "Deutschland"]}, "categories": [{"id": "4bf58dd8d48988d12d941735", "name": "Monument / Landmark", "pluralName": "Monuments / Landmarks", "shortName": "Landmark", "icon": {"prefix": "https://ss3.4sqi.net/img/categories_v2/building/government_monument_", "suffix": ".png"}, "primary": true}], "photos": {"count": 0, "groups": []}}, "referralId": "e-0-4adcda7df964a5207a4721e3-7"}, {"reasons": {"count": 0, "items": [{"summary": "This spot is popular", "type": "general", "reasonName": "globalInteractionReason"}]}, "venue": {"id": "4b4b65d9f964a5201a9a26e3", "name": "COS", "location": {"address": "Friedrichstrasse 83", "lat": 52.51569793249014, "lng": 13.389297709602715, "labeledLatLngs": [{"label": "display", "lat": 52.51569793249014, "lng": 13.389297709602715}], "distance": 194, "postalCode": "10117", "cc": "DE", "city": "Berlin", "state": "Berlin", "country": "Deutschland", "formattedAddress": ["Friedrichstrasse 83", "10117 Berlin", "Deutschland"]}, "categories": [{"id": "4bf58dd8d48988d103951735", "name": "Clothing Store", "pluralName": "Clothing Stores", "shortName": "Apparel", "icon": {"prefix": "https://ss3.4sqi.net/img/categories_v2/shops/apparel_", "suffix": ".png"}, "primary": true}], "photos": {"count": 0, "groups": []}}, "referralId": "e-0-4b4b65d9f964a5201a9a26e3-8"}, {"reasons": {"count": 0, "items": [{"summary": "This spot is popular", "type": "general", "reasonName": "globalInteractionReason"}]}, "venue": {"id": "4af0444cf964a520f0da21e3", "name": "Hotel de Rome", "location": {"address": "Behrenstr. 37", "lat": 52.516024880809326, "lng": 13.393938200455462, "labeledLatLngs": [{"label": "display", "lat": 52.516024880809326, "lng": 13.393938200455462}], "distance": 305, "postalCode": "10117", "cc": "DE", "city": "Berlin", "state": "Berlin", "country": "Deutschland", "formattedAddress": ["Behrenstr. 37", "10117 Berlin", "Deutschland"]}, "categories": [{"id": "4bf58dd8d48988d1fa931735", "name": "Hotel", "pluralName": "Hotels", "shortName": "Hotel", "icon": {"prefix": "https://ss3.4sqi.net/img/categories_v2/travel/hotel_", "suffix": ".png"}, "primary": true}], "photos": {"count": 0, "groups": []}}, "referralId": "e-0-4af0444cf964a520f0da21e3-9"}, {"reasons": {"count": 0, "items": [{"summary": "This spot is popular", "type": "general", "reasonName": "globalInteractionReason"}]}, "venue": {"id": "4adcda72f964a520474521e3", "name": "The Mandala Suites", "location": {"address": "Friedrichstr. 185-190", "lat": 52.51161670319382, "lng": 13.388785521292048, "labeledLatLngs": [{"label": "display", "lat": 52.51161670319382, "lng": 13.388785521292048}], "distance": 309, "postalCode": "10117", "cc": "DE", "city": "Berlin", "state": "Berlin", "country": "Deutschland", "formattedAddress": ["Friedrichstr. 185-190", "10117 Berlin", "Deutschland"]}, "categories": [{"id": "56aa371be4b08b9a8d5734e1", "name": "Vacation Rental", "pluralName": "Vacation Rentals", "shortName": "Vacation Rental", "icon": {"prefix": "https://ss3.4sqi.net/img/categories_v2/travel/hostel_", "suffix": ".png"}, "primary": true}], "photos": {"count": 0, "groups": []}}, "referralId": "e-0-4adcda72f964a520474521e3-10"}, {"reasons": {"count": 0, "items": [{"summary": "This spot is popular", "type": "general", "reasonName": "globalInteractionReason"}]}, "venue": {"id": "4adf61aef964a520177a21e3", "name": "Cookies Cream", "location": {"address": "Behrenstr. 55", "lat": 52.51656861215425, "lng": 13.388007784206705, "labeledLatLngs": [{"label": "display", "lat": 52.51656861215425, "lng": 13.388007784206705}], "distance": 322, "postalCode": "10117", "cc": "DE", "city": "Berlin", "state": "Berlin", "country": "Deutschland", "formattedAddress": ["Behrenstr. 55", "10117 Berlin", "Deutschland"]}, "categories": [{"id": "4bf58dd8d48988d1d3941735", "name": "Vegetarian / Vegan Restaurant", "pluralName": "Vegetarian / Vegan Restaurants", "shortName": "Vegetarian / Vegan", "icon": {"prefix": "https://ss3.4sqi.net/img/categories_v2/food/vegetarian_", "suffix": ".png"}, "primary": true}], "photos": {"count": 0, "groups": []}}, "referralId": "e-0-4adf61aef964a520177a21e3-11"}, {"reasons": {"count": 0, "items": [{"summary": "This spot is popular", "type": "general", "reasonName": "globalInteractionReason"}]}, "venue": {"id": "4b0b02b9f964a520862b23e3", "name": "N\u00f6!", "location": {"address": "Glinkastr. 23", "lat": 52.51331214646562, "lng": 13.386288285255432, "labeledLatLngs": [{"label": "display", "lat": 52.51331214646562, "lng": 13.386288285255432}], "distance": 309, "postalCode": "10117", "cc": "DE", "city": "Berlin", "state": "Berlin", "country": "Deutschland", "formattedAddress": ["Glinkastr. 23", "10117 Berlin", "Deutschland"]}, "categories": [{"id": "4bf58dd8d48988d123941735", "name": "Wine Bar", "pluralName": "Wine Bars", "shortName": "Wine Bar", "icon": {"prefix": "https://ss3.4sqi.net/img/categories_v2/food/winery_", "suffix": ".png"}, "primary": true}], "photos": {"count": 0, "groups": []}}, "referralId": "e-0-4b0b02b9f964a520862b23e3-12"}, {"reasons": {"count": 0, "items": [{"summary": "This spot is popular", "type": "general", "reasonName": "globalInteractionReason"}]}, "venue": {"id": "4adcda72f964a520234521e3", "name": "Regent Berlin", "location": {"address": "Charlottenstr. 49", "lat": 52.51537487444737, "lng": 13.390936801352405, "labeledLatLngs": [{"label": "display", "lat": 52.51537487444737, "lng": 13.390936801352405}], "distance": 136, "postalCode": "10117", "cc": "DE", "city": "Berlin", "state": "Berlin", "country": "Deutschland", "formattedAddress": ["Charlottenstr. 49", "10117 Berlin", "Deutschland"]}, "categories": [{"id": "4bf58dd8d48988d1fa931735", "name": "Hotel", "pluralName": "Hotels", "shortName": "Hotel", "icon": {"prefix": "https://ss3.4sqi.net/img/categories_v2/travel/hotel_", "suffix": ".png"}, "primary": true}], "photos": {"count": 0, "groups": []}, "venuePage": {"id": "79347839"}}, "referralId": "e-0-4adcda72f964a520234521e3-13"}, {"reasons": {"count": 0, "items": [{"summary": "This spot is popular", "type": "general", "reasonName": "globalInteractionReason"}]}, "venue": {"id": "4adcda72f964a5202a4521e3", "name": "Hilton", "location": {"address": "Mohrenstr. 30", "crossStreet": "Gendarmenmarkt", "lat": 52.512228339574094, "lng": 13.392881363704863, "labeledLatLngs": [{"label": "display", "lat": 52.512228339574094, "lng": 13.392881363704863}], "distance": 263, "postalCode": "10117", "cc": "DE", "city": "Berlin", "state": "Berlin", "country": "Deutschland", "formattedAddress": ["Mohrenstr. 30 (Gendarmenmarkt)", "10117 Berlin", "Deutschland"]}, "categories": [{"id": "4bf58dd8d48988d1fa931735", "name": "Hotel", "pluralName": "Hotels", "shortName": "Hotel", "icon": {"prefix": "https://ss3.4sqi.net/img/categories_v2/travel/hotel_", "suffix": ".png"}, "primary": true}], "photos": {"count": 0, "groups": []}}, "referralId": "e-0-4adcda72f964a5202a4521e3-14"}, {"reasons": {"count": 0, "items": [{"summary": "This spot is popular", "type": "general", "reasonName": "globalInteractionReason"}]}, "venue": {"id": "57018779498e52f43091af88", "name": "Pierre Boulez Saal", "location": {"address": "Franz\u00f6sische Str. 33d", "lat": 52.51533292570581, "lng": 13.396217823028564, "labeledLatLngs": [{"label": "display", "lat": 52.51533292570581, "lng": 13.396217823028564}], "distance": 399, "postalCode": "10117", "cc": "DE", "city": "Berlin", "state": "Berlin", "country": "Deutschland", "formattedAddress": ["Franz\u00f6sische Str. 33d", "10117 Berlin", "Deutschland"]}, "categories": [{"id": "5032792091d4c4b30a586d5c", "name": "Concert Hall", "pluralName": "Concert Halls", "shortName": "Concert Hall", "icon": {"prefix": "https://ss3.4sqi.net/img/categories_v2/arts_entertainment/musicvenue_", "suffix": ".png"}, "primary": true}], "photos": {"count": 0, "groups": []}}, "referralId": "e-0-57018779498e52f43091af88-15"}, {"reasons": {"count": 0, "items": [{"summary": "This spot is popular", "type": "general", "reasonName": "globalInteractionReason"}]}, "venue": {"id": "4adcda7df964a520ab4721e3", "name": "Bebelplatz", "location": {"address": "Bebelplatz", "crossStreet": "Unter den Linden", "lat": 52.51653012045096, "lng": 13.393846660247611, "labeledLatLngs": [{"label": "display", "lat": 52.51653012045096, "lng": 13.393846660247611}], "distance": 341, "postalCode": "10117", "cc": "DE", "city": "Berlin", "state": "Berlin", "country": "Deutschland", "formattedAddress": ["Bebelplatz (Unter den Linden)", "10117 Berlin", "Deutschland"]}, "categories": [{"id": "4bf58dd8d48988d164941735", "name": "Plaza", "pluralName": "Plazas", "shortName": "Plaza", "icon": {"prefix": "https://ss3.4sqi.net/img/categories_v2/parks_outdoors/plaza_", "suffix": ".png"}, "primary": true}], "photos": {"count": 0, "groups": []}}, "referralId": "e-0-4adcda7df964a520ab4721e3-16"}, {"reasons": {"count": 0, "items": [{"summary": "This spot is popular", "type": "general", "reasonName": "globalInteractionReason"}]}, "venue": {"id": "4adcda75f964a5209d4521e3", "name": "Lutter & Wegner Gendarmenmarkt", "location": {"address": "Charlottenstr. 56", "crossStreet": "Taubenstr.", "lat": 52.5132109418307, "lng": 13.391228914260864, "labeledLatLngs": [{"label": "display", "lat": 52.5132109418307, "lng": 13.391228914260864}], "distance": 112, "postalCode": "10117", "cc": "DE", "neighborhood": "Gendarmenmarkt", "city": "Berlin", "state": "Berlin", "country": "Deutschland", "formattedAddress": ["Charlottenstr. 56 (Taubenstr.)", "10117 Berlin", "Deutschland"]}, "categories": [{"id": "4bf58dd8d48988d10d941735", "name": "German Restaurant", "pluralName": "German Restaurants", "shortName": "German", "icon": {"prefix": "https://ss3.4sqi.net/img/categories_v2/food/german_", "suffix": ".png"}, "primary": true}], "photos": {"count": 0, "groups": []}}, "referralId": "e-0-4adcda75f964a5209d4521e3-17"}, {"reasons": {"count": 0, "items": [{"summary": "This spot is popular", "type": "general", "reasonName": "globalInteractionReason"}]}, "venue": {"id": "4c3c6ed87d00d13a77db3850", "name": "Dachterrasse | Hotel de Rome", "location": {"address": "Behrenstr. 37", "lat": 52.51579461318027, "lng": 13.394086388299044, "labeledLatLngs": [{"label": "display", "lat": 52.51579461318027, "lng": 13.394086388299044}], "distance": 296, "postalCode": "10117", "cc": "DE", "city": "Berlin", "state": "Berlin", "country": "Deutschland", "formattedAddress": ["Behrenstr. 37", "10117 Berlin", "Deutschland"]}, "categories": [{"id": "4bf58dd8d48988d133951735", "name": "Roof Deck", "pluralName": "Roof Decks", "shortName": "Roof Deck", "icon": {"prefix": "https://ss3.4sqi.net/img/categories_v2/travel/hotel_roofdeck_", "suffix": ".png"}, "primary": true}], "photos": {"count": 0, "groups": []}}, "referralId": "e-0-4c3c6ed87d00d13a77db3850-18"}, {"reasons": {"count": 0, "items": [{"summary": "This spot is popular", "type": "general", "reasonName": "globalInteractionReason"}]}, "venue": {"id": "54f5af22498ebced7debb423", "name": "Titanic Gendarmenmarkt", "location": {"address": "Franz\u00f6sische Str. 30", "lat": 52.515185563305494, "lng": 13.394676208772314, "labeledLatLngs": [{"label": "display", "lat": 52.515185563305494, "lng": 13.394676208772314}], "distance": 296, "postalCode": "10117", "cc": "DE", "neighborhood": "Mitte", "city": "Berlin", "state": "Berlin", "country": "Deutschland", "formattedAddress": ["Franz\u00f6sische Str. 30", "10117 Berlin", "Deutschland"]}, "categories": [{"id": "4bf58dd8d48988d1fa931735", "name": "Hotel", "pluralName": "Hotels", "shortName": "Hotel", "icon": {"prefix": "https://ss3.4sqi.net/img/categories_v2/travel/hotel_", "suffix": ".png"}, "primary": true}], "photos": {"count": 0, "groups": []}}, "referralId": "e-0-54f5af22498ebced7debb423-19"}, {"reasons": {"count": 0, "items": [{"summary": "This spot is popular", "type": "general", "reasonName": "globalInteractionReason"}]}, "venue": {"id": "4d60f2631ee8721ee0d3b021", "name": "Kathedrale St. Hedwig", "location": {"address": "Hinter der Katholischen Kirche 3", "lat": 52.515840408600276, "lng": 13.394501396904237, "labeledLatLngs": [{"label": "display", "lat": 52.515840408600276, "lng": 13.394501396904237}], "distance": 321, "postalCode": "10117", "cc": "DE", "city": "Berlin", "state": "Berlin", "country": "Deutschland", "formattedAddress": ["Hinter der Katholischen Kirche 3", "10117 Berlin", "Deutschland"]}, "categories": [{"id": "4bf58dd8d48988d132941735", "name": "Church", "pluralName": "Churches", "shortName": "Church", "icon": {"prefix": "https://ss3.4sqi.net/img/categories_v2/building/religious_church_", "suffix": ".png"}, "primary": true}], "photos": {"count": 0, "groups": []}}, "referralId": "e-0-4d60f2631ee8721ee0d3b021-20"}, {"reasons": {"count": 0, "items": [{"summary": "This spot is popular", "type": "general", "reasonName": "globalInteractionReason"}]}, "venue": {"id": "4b7fe068f964a520f84130e3", "name": "BoConcept", "location": {"address": "Friedrichstr. 63", "crossStreet": "Mohrenstr.", "lat": 52.51203834481421, "lng": 13.389782653854795, "labeledLatLngs": [{"label": "display", "lat": 52.51203834481421, "lng": 13.389782653854795}], "distance": 243, "postalCode": "10117", "cc": "DE", "city": "Berlin", "state": "Berlin", "country": "Deutschland", "formattedAddress": ["Friedrichstr. 63 (Mohrenstr.)", "10117 Berlin", "Deutschland"]}, "categories": [{"id": "4bf58dd8d48988d1f8941735", "name": "Furniture / Home Store", "pluralName": "Furniture / Home Stores", "shortName": "Furniture / Home", "icon": {"prefix": "https://ss3.4sqi.net/img/categories_v2/shops/furniture_", "suffix": ".png"}, "primary": true}], "photos": {"count": 0, "groups": []}}, "referralId": "e-0-4b7fe068f964a520f84130e3-21"}, {"reasons": {"count": 0, "items": [{"summary": "This spot is popular", "type": "general", "reasonName": "globalInteractionReason"}]}, "venue": {"id": "5c29f241e679bc002c15aaf7", "name": "LIU \u6210\u90fd\u5473\u9053", "location": {"address": "Kronenstr. 72", "lat": 52.511107212858555, "lng": 13.38751745258213, "labeledLatLngs": [{"label": "display", "lat": 52.511107212858555, "lng": 13.38751745258213}], "distance": 400, "postalCode": "10117", "cc": "DE", "city": "Berlin", "state": "Berlin", "country": "Deutschland", "formattedAddress": ["Kronenstr. 72", "10117 Berlin", "Deutschland"]}, "categories": [{"id": "4bf58dd8d48988d1d1941735", "name": "Noodle House", "pluralName": "Noodle Houses", "shortName": "Noodles", "icon": {"prefix": "https://ss3.4sqi.net/img/categories_v2/food/ramen_", "suffix": ".png"}, "primary": true}], "photos": {"count": 0, "groups": []}}, "referralId": "e-0-5c29f241e679bc002c15aaf7-22"}, {"reasons": {"count": 0, "items": [{"summary": "This spot is popular", "type": "general", "reasonName": "globalInteractionReason"}]}, "venue": {"id": "4adcda8ef964a520934a21e3", "name": "Galeries Lafayette", "location": {"address": "Friedrichstr. 76-78", "crossStreet": "Franz\u00f6sische Str.", "lat": 52.514469478526976, "lng": 13.389597461128965, "labeledLatLngs": [{"label": "display", "lat": 52.514469478526976, "lng": 13.389597461128965}], "distance": 78, "postalCode": "10117", "cc": "DE", "neighborhood": "Gendarmenmarkt", "city": "Berlin", "state": "Berlin", "country": "Deutschland", "formattedAddress": ["Friedrichstr. 76-78 (Franz\u00f6sische Str.)", "10117 Berlin", "Deutschland"]}, "categories": [{"id": "4bf58dd8d48988d1f6941735", "name": "Department Store", "pluralName": "Department Stores", "shortName": "Department Store", "icon": {"prefix": "https://ss3.4sqi.net/img/categories_v2/shops/departmentstore_", "suffix": ".png"}, "primary": true}], "photos": {"count": 0, "groups": []}}, "referralId": "e-0-4adcda8ef964a520934a21e3-23"}, {"reasons": {"count": 0, "items": [{"summary": "This spot is popular", "type": "general", "reasonName": "globalInteractionReason"}]}, "venue": {"id": "4adcda8af964a520bd4921e3", "name": "Komische Oper", "location": {"address": "Behrenstr. 55-57", "lat": 52.51596828902978, "lng": 13.38670069725068, "labeledLatLngs": [{"label": "display", "lat": 52.51596828902978, "lng": 13.38670069725068}], "distance": 334, "postalCode": "10117", "cc": "DE", "neighborhood": "Unter den Linden", "city": "Berlin", "state": "Berlin", "country": "Deutschland", "formattedAddress": ["Behrenstr. 55-57", "10117 Berlin", "Deutschland"]}, "categories": [{"id": "4bf58dd8d48988d136941735", "name": "Opera House", "pluralName": "Opera Houses", "shortName": "Opera House", "icon": {"prefix": "https://ss3.4sqi.net/img/categories_v2/arts_entertainment/performingarts_operahouse_", "suffix": ".png"}, "primary": true}], "photos": {"count": 0, "groups": []}}, "referralId": "e-0-4adcda8af964a520bd4921e3-24"}, {"reasons": {"count": 0, "items": [{"summary": "This spot is popular", "type": "general", "reasonName": "globalInteractionReason"}]}, "venue": {"id": "4b043935f964a520495222e3", "name": "Holmes Place", "location": {"address": "Friedrichstr. 68, Eingang Mohrenstr.", "crossStreet": "Eingang Mohrenstr. 50", "lat": 52.512599000000016, "lng": 13.390514286052735, "labeledLatLngs": [{"label": "display", "lat": 52.512599000000016, "lng": 13.390514286052735}], "distance": 173, "postalCode": "10117", "cc": "DE", "city": "Berlin", "state": "Berlin", "country": "Deutschland", "formattedAddress": ["Friedrichstr. 68, Eingang Mohrenstr. (Eingang Mohrenstr. 50)", "10117 Berlin", "Deutschland"]}, "categories": [{"id": "4bf58dd8d48988d175941735", "name": "Gym / Fitness Center", "pluralName": "Gyms or Fitness Centers", "shortName": "Gym / Fitness", "icon": {"prefix": "https://ss3.4sqi.net/img/categories_v2/building/gym_", "suffix": ".png"}, "primary": true}], "photos": {"count": 0, "groups": []}}, "referralId": "e-0-4b043935f964a520495222e3-25"}, {"reasons": {"count": 0, "items": [{"summary": "This spot is popular", "type": "general", "reasonName": "globalInteractionReason"}]}, "venue": {"id": "51495f99e4b0e0dd146da05c", "name": "Fitness First", "location": {"address": "J\u00e4gerstra\u00dfe 27", "lat": 52.51394058938433, "lng": 13.39557409286499, "labeledLatLngs": [{"label": "display", "lat": 52.51394058938433, "lng": 13.39557409286499}], "distance": 335, "postalCode": "10117", "cc": "DE", "city": "Berlin", "state": "Berlin", "country": "Deutschland", "formattedAddress": ["J\u00e4gerstra\u00dfe 27", "10117 Berlin", "Deutschland"]}, "categories": [{"id": "4bf58dd8d48988d175941735", "name": "Gym / Fitness Center", "pluralName": "Gyms or Fitness Centers", "shortName": "Gym / Fitness", "icon": {"prefix": "https://ss3.4sqi.net/img/categories_v2/building/gym_", "suffix": ".png"}, "primary": true}], "photos": {"count": 0, "groups": []}}, "referralId": "e-0-51495f99e4b0e0dd146da05c-26"}, {"reasons": {"count": 0, "items": [{"summary": "This spot is popular", "type": "general", "reasonName": "globalInteractionReason"}]}, "venue": {"id": "54b44bba498e3255b64820d8", "name": "dm-drogerie markt", "location": {"address": "Friedrichstra\u00dfe 191", "crossStreet": "Leipziger Str.", "lat": 52.510524, "lng": 13.389608, "labeledLatLngs": [{"label": "display", "lat": 52.510524, "lng": 13.389608}], "distance": 410, "postalCode": "10117", "cc": "DE", "city": "Berlin", "state": "Berlin", "country": "Deutschland", "formattedAddress": ["Friedrichstra\u00dfe 191 (Leipziger Str.)", "10117 Berlin", "Deutschland"]}, "categories": [{"id": "5745c2e4498e11e7bccabdbd", "name": "Drugstore", "pluralName": "Drugstores", "shortName": "Drugstore", "icon": {"prefix": "https://ss3.4sqi.net/img/categories_v2/shops/pharmacy_", "suffix": ".png"}, "primary": true}], "photos": {"count": 0, "groups": []}, "venuePage": {"id": "451282255"}}, "referralId": "e-0-54b44bba498e3255b64820d8-27"}, {"reasons": {"count": 0, "items": [{"summary": "This spot is popular", "type": "general", "reasonName": "globalInteractionReason"}]}, "venue": {"id": "562a9474498e20b9ac65c6fe", "name": "Dussmann English Bookshop", "location": {"address": "Friedrichstr. 90", "lat": 52.518222843680675, "lng": 13.389239378375944, "labeledLatLngs": [{"label": "display", "lat": 52.518222843680675, "lng": 13.389239378375944}], "distance": 462, "postalCode": "10117", "cc": "DE", "city": "Berlin", "state": "Berlin", "country": "Deutschland", "formattedAddress": ["Friedrichstr. 90", "10117 Berlin", "Deutschland"]}, "categories": [{"id": "4bf58dd8d48988d114951735", "name": "Bookstore", "pluralName": "Bookstores", "shortName": "Bookstore", "icon": {"prefix": "https://ss3.4sqi.net/img/categories_v2/shops/bookstore_", "suffix": ".png"}, "primary": true}], "photos": {"count": 0, "groups": []}}, "referralId": "e-0-562a9474498e20b9ac65c6fe-28"}, {"reasons": {"count": 0, "items": [{"summary": "This spot is popular", "type": "general", "reasonName": "globalInteractionReason"}]}, "venue": {"id": "4adcda8ef964a520a74a21e3", "name": "Dussmann das KulturKaufhaus", "location": {"address": "Friedrichstr. 90", "lat": 52.518343, "lng": 13.388965, "labeledLatLngs": [{"label": "display", "lat": 52.518343, "lng": 13.388965}], "distance": 479, "postalCode": "10117", "cc": "DE", "city": "Berlin", "state": "Berlin", "country": "Deutschland", "formattedAddress": ["Friedrichstr. 90", "10117 Berlin", "Deutschland"]}, "categories": [{"id": "4bf58dd8d48988d114951735", "name": "Bookstore", "pluralName": "Bookstores", "shortName": "Bookstore", "icon": {"prefix": "https://ss3.4sqi.net/img/categories_v2/shops/bookstore_", "suffix": ".png"}, "primary": true}], "photos": {"count": 0, "groups": []}}, "referralId": "e-0-4adcda8ef964a520a74a21e3-29"}, {"reasons": {"count": 0, "items": [{"summary": "This spot is popular", "type": "general", "reasonName": "globalInteractionReason"}]}, "venue": {"id": "4adf6142f964a520127a21e3", "name": "Clipper City Home", "location": {"address": "Behrenstr. 47", "crossStreet": "Friedrichstr.", "lat": 52.515737250328684, "lng": 13.390087978228255, "labeledLatLngs": [{"label": "display", "lat": 52.515737250328684, "lng": 13.390087978228255}], "distance": 179, "postalCode": "10117", "cc": "DE", "city": "Berlin", "state": "Berlin", "country": "Deutschland", "formattedAddress": ["Behrenstr. 47 (Friedrichstr.)", "10117 Berlin", "Deutschland"]}, "categories": [{"id": "4bf58dd8d48988d1fa931735", "name": "Hotel", "pluralName": "Hotels", "shortName": "Hotel", "icon": {"prefix": "https://ss3.4sqi.net/img/categories_v2/travel/hotel_", "suffix": ".png"}, "primary": true}], "photos": {"count": 0, "groups": []}, "venuePage": {"id": "86880940"}}, "referralId": "e-0-4adf6142f964a520127a21e3-30"}, {"reasons": {"count": 0, "items": [{"summary": "This spot is popular", "type": "general", "reasonName": "globalInteractionReason"}]}, "venue": {"id": "4adcda72f964a520424521e3", "name": "The Westin Grand Berlin", "location": {"address": "Friedrichstr. 158-164", "crossStreet": "Unter den Linden", "lat": 52.5157751854713, "lng": 13.388444939610054, "labeledLatLngs": [{"label": "display", "lat": 52.5157751854713, "lng": 13.388444939610054}], "distance": 233, "postalCode": "10117", "cc": "DE", "city": "Berlin", "state": "Berlin", "country": "Deutschland", "formattedAddress": ["Friedrichstr. 158-164 (Unter den Linden)", "10117 Berlin", "Deutschland"]}, "categories": [{"id": "4bf58dd8d48988d1fa931735", "name": "Hotel", "pluralName": "Hotels", "shortName": "Hotel", "icon": {"prefix": "https://ss3.4sqi.net/img/categories_v2/travel/hotel_", "suffix": ".png"}, "primary": true}], "photos": {"count": 0, "groups": []}}, "referralId": "e-0-4adcda72f964a520424521e3-31"}, {"reasons": {"count": 0, "items": [{"summary": "This spot is popular", "type": "general", "reasonName": "globalInteractionReason"}]}, "venue": {"id": "4adcda83f964a520be4821e3", "name": "Borchardt", "location": {"address": "Franz\u00f6sische Str. 47", "lat": 52.51498065888788, "lng": 13.390415960101807, "labeledLatLngs": [{"label": "display", "lat": 52.51498065888788, "lng": 13.390415960101807}], "distance": 92, "postalCode": "10117", "cc": "DE", "city": "Berlin", "state": "Berlin", "country": "Deutschland", "formattedAddress": ["Franz\u00f6sische Str. 47", "10117 Berlin", "Deutschland"]}, "categories": [{"id": "4bf58dd8d48988d1c4941735", "name": "Restaurant", "pluralName": "Restaurants", "shortName": "Restaurant", "icon": {"prefix": "https://ss3.4sqi.net/img/categories_v2/food/default_", "suffix": ".png"}, "primary": true}], "photos": {"count": 0, "groups": []}}, "referralId": "e-0-4adcda83f964a520be4821e3-32"}, {"reasons": {"count": 0, "items": [{"summary": "This spot is popular", "type": "general", "reasonName": "globalInteractionReason"}]}, "venue": {"id": "5b85b8241fa763002ccd8cc3", "name": "Freundschaft", "location": {"address": "Mittelstr. 1", "crossStreet": "Charlottenstr.", "lat": 52.51829373810599, "lng": 13.39034378528595, "labeledLatLngs": [{"label": "display", "lat": 52.51829373810599, "lng": 13.39034378528595}], "distance": 460, "postalCode": "10117", "cc": "DE", "city": "Berlin", "state": "Berlin", "country": "Deutschland", "formattedAddress": ["Mittelstr. 1 (Charlottenstr.)", "10117 Berlin", "Deutschland"]}, "categories": [{"id": "4bf58dd8d48988d123941735", "name": "Wine Bar", "pluralName": "Wine Bars", "shortName": "Wine Bar", "icon": {"prefix": "https://ss3.4sqi.net/img/categories_v2/food/winery_", "suffix": ".png"}, "primary": true}], "photos": {"count": 0, "groups": []}}, "referralId": "e-0-5b85b8241fa763002ccd8cc3-33"}, {"reasons": {"count": 0, "items": [{"summary": "This spot is popular", "type": "general", "reasonName": "globalInteractionReason"}]}, "venue": {"id": "4adcda8af964a520be4921e3", "name": "Staatsoper Unter den Linden", "location": {"address": "Unter den Linden 7", "lat": 52.517023910254956, "lng": 13.394651412963867, "labeledLatLngs": [{"label": "display", "lat": 52.517023910254956, "lng": 13.394651412963867}], "distance": 418, "postalCode": "10117", "cc": "DE", "city": "Berlin", "state": "Berlin", "country": "Deutschland", "formattedAddress": ["Unter den Linden 7", "10117 Berlin", "Deutschland"]}, "categories": [{"id": "4bf58dd8d48988d136941735", "name": "Opera House", "pluralName": "Opera Houses", "shortName": "Opera House", "icon": {"prefix": "https://ss3.4sqi.net/img/categories_v2/arts_entertainment/performingarts_operahouse_", "suffix": ".png"}, "primary": true}], "photos": {"count": 0, "groups": []}}, "referralId": "e-0-4adcda8af964a520be4921e3-34"}, {"reasons": {"count": 0, "items": [{"summary": "This spot is popular", "type": "general", "reasonName": "globalInteractionReason"}]}, "venue": {"id": "54ca4aa1498ec55b34814a6e", "name": "DRIVE Volkswagen Group Forum", "location": {"address": "Friedrichstr. 84", "crossStreet": "Unter den Linden", "lat": 52.516653727429, "lng": 13.389072847785428, "labeledLatLngs": [{"label": "display", "lat": 52.516653727429, "lng": 13.389072847785428}], "distance": 297, "postalCode": "10117", "cc": "DE", "city": "Berlin", "state": "Berlin", "country": "Deutschland", "formattedAddress": ["Friedrichstr. 84 (Unter den Linden)", "10117 Berlin", "Deutschland"]}, "categories": [{"id": "56aa371be4b08b9a8d573532", "name": "Exhibit", "pluralName": "Exhibits", "shortName": "Exhibit", "icon": {"prefix": "https://ss3.4sqi.net/img/categories_v2/arts_entertainment/default_", "suffix": ".png"}, "primary": true}], "photos": {"count": 0, "groups": []}}, "referralId": "e-0-54ca4aa1498ec55b34814a6e-35"}, {"reasons": {"count": 0, "items": [{"summary": "This spot is popular", "type": "general", "reasonName": "globalInteractionReason"}]}, "venue": {"id": "4b0a99d8f964a520822523e3", "name": "Gendarmerie", "location": {"address": "Behrenstr. 42", "crossStreet": "Charlottenstr.", "lat": 52.515718875674196, "lng": 13.39093951929833, "labeledLatLngs": [{"label": "display", "lat": 52.515718875674196, "lng": 13.39093951929833}], "distance": 174, "postalCode": "10117", "cc": "DE", "city": "Berlin", "state": "Berlin", "country": "Deutschland", "formattedAddress": ["Behrenstr. 42 (Charlottenstr.)", "10117 Berlin", "Deutschland"]}, "categories": [{"id": "4bf58dd8d48988d10d941735", "name": "German Restaurant", "pluralName": "German Restaurants", "shortName": "German", "icon": {"prefix": "https://ss3.4sqi.net/img/categories_v2/food/german_", "suffix": ".png"}, "primary": true}], "photos": {"count": 0, "groups": []}}, "referralId": "e-0-4b0a99d8f964a520822523e3-36"}, {"reasons": {"count": 0, "items": [{"summary": "This spot is popular", "type": "general", "reasonName": "globalInteractionReason"}]}, "venue": {"id": "50641751b0ed1dcc8e57c9f2", "name": "AMPELMANN Flagship Store", "location": {"address": "Unter den Linden 35", "crossStreet": "Friedrichstr.", "lat": 52.516726006341436, "lng": 13.388661265724483, "labeledLatLngs": [{"label": "display", "lat": 52.516726006341436, "lng": 13.388661265724483}], "distance": 315, "postalCode": "10117", "cc": "DE", "city": "Berlin", "state": "Berlin", "country": "Deutschland", "formattedAddress": ["Unter den Linden 35 (Friedrichstr.)", "10117 Berlin", "Deutschland"]}, "categories": [{"id": "52f2ab2ebcbc57f1066b8b1b", "name": "Souvenir Shop", "pluralName": "Souvenir Shops", "shortName": "Souvenir Shop", "icon": {"prefix": "https://ss3.4sqi.net/img/categories_v2/shops/default_", "suffix": ".png"}, "primary": true}], "photos": {"count": 0, "groups": []}}, "referralId": "e-0-50641751b0ed1dcc8e57c9f2-37"}, {"reasons": {"count": 0, "items": [{"summary": "This spot is popular", "type": "general", "reasonName": "globalInteractionReason"}]}, "venue": {"id": "4b59a814f964a5202b9128e3", "name": "NIVEA Haus Berlin", "location": {"address": "Unter den Linden 28", "lat": 52.51718712925783, "lng": 13.387929797172546, "labeledLatLngs": [{"label": "display", "lat": 52.51718712925783, "lng": 13.387929797172546}], "distance": 383, "postalCode": "10117", "cc": "DE", "city": "Berlin", "state": "Berlin", "country": "Deutschland", "formattedAddress": ["Unter den Linden 28", "10117 Berlin", "Deutschland"]}, "categories": [{"id": "4bf58dd8d48988d10c951735", "name": "Cosmetics Shop", "pluralName": "Cosmetics Shops", "shortName": "Cosmetics", "icon": {"prefix": "https://ss3.4sqi.net/img/categories_v2/shops/beauty_cosmetic_", "suffix": ".png"}, "primary": true}], "photos": {"count": 0, "groups": []}}, "referralId": "e-0-4b59a814f964a5202b9128e3-38"}, {"reasons": {"count": 0, "items": [{"summary": "This spot is popular", "type": "general", "reasonName": "globalInteractionReason"}]}, "venue": {"id": "4dbc1fa1a86e0e98a1daa36d", "name": "Schinkel Pavillion", "location": {"address": "Oberwallstr. 1", "lat": 52.51616321966491, "lng": 13.396857047689211, "labeledLatLngs": [{"label": "display", "lat": 52.51616321966491, "lng": 13.396857047689211}], "distance": 476, "postalCode": "10117", "cc": "DE", "city": "Berlin", "state": "Berlin", "country": "Deutschland", "formattedAddress": ["Oberwallstr. 1", "10117 Berlin", "Deutschland"]}, "categories": [{"id": "4bf58dd8d48988d1e2931735", "name": "Art Gallery", "pluralName": "Art Galleries", "shortName": "Art Gallery", "icon": {"prefix": "https://ss3.4sqi.net/img/categories_v2/arts_entertainment/artgallery_", "suffix": ".png"}, "primary": true}], "photos": {"count": 0, "groups": []}}, "referralId": "e-0-4dbc1fa1a86e0e98a1daa36d-39"}, {"reasons": {"count": 0, "items": [{"summary": "This spot is popular", "type": "general", "reasonName": "globalInteractionReason"}]}, "venue": {"id": "54610138498e2db343de55ab", "name": "Crackers", "location": {"address": "Friedrichstr. 158", "crossStreet": "Unter den Linden", "lat": 52.51649507652091, "lng": 13.388117551803589, "labeledLatLngs": [{"label": "display", "lat": 52.51649507652091, "lng": 13.388117551803589}], "distance": 311, "postalCode": "10117", "cc": "DE", "city": "Berlin", "state": "Berlin", "country": "Deutschland", "formattedAddress": ["Friedrichstr. 158 (Unter den Linden)", "10117 Berlin", "Deutschland"]}, "categories": [{"id": "4bf58dd8d48988d1c4941735", "name": "Restaurant", "pluralName": "Restaurants", "shortName": "Restaurant", "icon": {"prefix": "https://ss3.4sqi.net/img/categories_v2/food/default_", "suffix": ".png"}, "primary": true}], "photos": {"count": 0, "groups": []}}, "referralId": "e-0-54610138498e2db343de55ab-40"}, {"reasons": {"count": 0, "items": [{"summary": "This spot is popular", "type": "general", "reasonName": "globalInteractionReason"}]}, "venue": {"id": "57025f87cd1094b87f8c89de", "name": "Alnatura", "location": {"address": "Friedrichstr. 191", "lat": 52.51109923627007, "lng": 13.389514804210874, "labeledLatLngs": [{"label": "display", "lat": 52.51109923627007, "lng": 13.389514804210874}], "distance": 349, "postalCode": "10117", "cc": "DE", "city": "Berlin", "state": "Berlin", "country": "Deutschland", "formattedAddress": ["Friedrichstr. 191", "10117 Berlin", "Deutschland"]}, "categories": [{"id": "52f2ab2ebcbc57f1066b8b45", "name": "Organic Grocery", "pluralName": "Organic Groceries", "shortName": "Organic Grocery", "icon": {"prefix": "https://ss3.4sqi.net/img/categories_v2/shops/food_grocery_", "suffix": ".png"}, "primary": true}], "photos": {"count": 0, "groups": []}}, "referralId": "e-0-57025f87cd1094b87f8c89de-41"}, {"reasons": {"count": 0, "items": [{"summary": "This spot is popular", "type": "general", "reasonName": "globalInteractionReason"}]}, "venue": {"id": "4be303d0d27a20a116ff905b", "name": "Augustiner am Gendarmenmarkt", "location": {"address": "Charlottenstr. 55", "lat": 52.513990106984444, "lng": 13.39100122726925, "labeledLatLngs": [{"label": "display", "lat": 52.513990106984444, "lng": 13.39100122726925}], "distance": 30, "postalCode": "10117", "cc": "DE", "city": "Berlin", "state": "Berlin", "country": "Deutschland", "formattedAddress": ["Charlottenstr. 55", "10117 Berlin", "Deutschland"]}, "categories": [{"id": "4bf58dd8d48988d10d941735", "name": "German Restaurant", "pluralName": "German Restaurants", "shortName": "German", "icon": {"prefix": "https://ss3.4sqi.net/img/categories_v2/food/german_", "suffix": ".png"}, "primary": true}], "photos": {"count": 0, "groups": []}}, "referralId": "e-0-4be303d0d27a20a116ff905b-42"}, {"reasons": {"count": 0, "items": [{"summary": "This spot is popular", "type": "general", "reasonName": "globalInteractionReason"}]}, "venue": {"id": "53563283498eb99b6030eb15", "name": "Hit Ullrich", "location": {"address": "Mohrenstr. 69", "crossStreet": "Wilhelmstr.", "lat": 52.511679829874616, "lng": 13.383836366726397, "labeledLatLngs": [{"label": "display", "lat": 52.511679829874616, "lng": 13.383836366726397}], "distance": 537, "postalCode": "10117", "cc": "DE", "city": "Berlin", "state": "Berlin", "country": "Deutschland", "formattedAddress": ["Mohrenstr. 69 (Wilhelmstr.)", "10117 Berlin", "Deutschland"]}, "categories": [{"id": "52f2ab2ebcbc57f1066b8b46", "name": "Supermarket", "pluralName": "Supermarkets", "shortName": "Supermarket", "icon": {"prefix": "https://ss3.4sqi.net/img/categories_v2/shops/food_grocery_", "suffix": ".png"}, "primary": true}], "photos": {"count": 0, "groups": []}, "venuePage": {"id": "88959493"}}, "referralId": "e-0-53563283498eb99b6030eb15-43"}, {"reasons": {"count": 0, "items": [{"summary": "This spot is popular", "type": "general", "reasonName": "globalInteractionReason"}]}, "venue": {"id": "571cc909cd104795c11968d8", "name": "ride.bln Studio Mitte", "location": {"address": "Sch\u00fctzenstrasse 70", "lat": 52.5087611625007, "lng": 13.391629563159995, "labeledLatLngs": [{"label": "display", "lat": 52.5087611625007, "lng": 13.391629563159995}], "distance": 604, "postalCode": "10117", "cc": "DE", "city": "Berlin", "state": "Berlin", "country": "Deutschland", "formattedAddress": ["Sch\u00fctzenstrasse 70", "10117 Berlin", "Deutschland"]}, "categories": [{"id": "52f2ab2ebcbc57f1066b8b49", "name": "Cycle Studio", "pluralName": "Cycle Studios", "shortName": "Cycle Studio", "icon": {"prefix": "https://ss3.4sqi.net/img/categories_v2/shops/bikeshop_", "suffix": ".png"}, "primary": true}], "photos": {"count": 0, "groups": []}}, "referralId": "e-0-571cc909cd104795c11968d8-44"}, {"reasons": {"count": 0, "items": [{"summary": "This spot is popular", "type": "general", "reasonName": "globalInteractionReason"}]}, "venue": {"id": "568a65aa498ecc4b3bc19113", "name": "Chupenga", "location": {"address": "Mohrenstr. 42", "lat": 52.512476904145956, "lng": 13.394327276444338, "labeledLatLngs": [{"label": "display", "lat": 52.512476904145956, "lng": 13.394327276444338}], "distance": 312, "postalCode": "10117", "cc": "DE", "city": "Berlin", "state": "Berlin", "country": "Deutschland", "formattedAddress": ["Mohrenstr. 42", "10117 Berlin", "Deutschland"]}, "categories": [{"id": "4bf58dd8d48988d153941735", "name": "Burrito Place", "pluralName": "Burrito Places", "shortName": "Burritos", "icon": {"prefix": "https://ss3.4sqi.net/img/categories_v2/food/burrito_", "suffix": ".png"}, "primary": true}], "photos": {"count": 0, "groups": []}}, "referralId": "e-0-568a65aa498ecc4b3bc19113-45"}, {"reasons": {"count": 0, "items": [{"summary": "This spot is popular", "type": "general", "reasonName": "globalInteractionReason"}]}, "venue": {"id": "4adcda83f964a520aa4821e3", "name": "Deutsches Historisches Museum", "location": {"address": "Unter den Linden 2", "lat": 52.5177881130353, "lng": 13.39694770969441, "labeledLatLngs": [{"label": "display", "lat": 52.5177881130353, "lng": 13.39694770969441}], "distance": 587, "postalCode": "10117", "cc": "DE", "city": "Berlin", "state": "Berlin", "country": "Deutschland", "formattedAddress": ["Unter den Linden 2", "10117 Berlin", "Deutschland"]}, "categories": [{"id": "4bf58dd8d48988d190941735", "name": "History Museum", "pluralName": "History Museums", "shortName": "History Museum", "icon": {"prefix": "https://ss3.4sqi.net/img/categories_v2/arts_entertainment/museum_history_", "suffix": ".png"}, "primary": true}], "photos": {"count": 0, "groups": []}}, "referralId": "e-0-4adcda83f964a520aa4821e3-46"}, {"reasons": {"count": 0, "items": [{"summary": "This spot is popular", "type": "general", "reasonName": "globalInteractionReason"}]}, "venue": {"id": "556987a9498ee2f2c6fd6d7c", "name": "Butter Lindner", "location": {"address": "Friedrichstr. 63", "crossStreet": "Mohrenstr.", "lat": 52.51157523983487, "lng": 13.389692986749624, "labeledLatLngs": [{"label": "display", "lat": 52.51157523983487, "lng": 13.389692986749624}], "distance": 294, "postalCode": "10117", "cc": "DE", "city": "Berlin", "state": "Berlin", "country": "Deutschland", "formattedAddress": ["Friedrichstr. 63 (Mohrenstr.)", "10117 Berlin", "Deutschland"]}, "categories": [{"id": "4bf58dd8d48988d1f5941735", "name": "Gourmet Shop", "pluralName": "Gourmet Shops", "shortName": "Gourmet", "icon": {"prefix": "https://ss3.4sqi.net/img/categories_v2/shops/food_gourmet_", "suffix": ".png"}, "primary": true}], "photos": {"count": 0, "groups": []}}, "referralId": "e-0-556987a9498ee2f2c6fd6d7c-47"}, {"reasons": {"count": 0, "items": [{"summary": "This spot is popular", "type": "general", "reasonName": "globalInteractionReason"}]}, "venue": {"id": "4adcda79f964a520874621e3", "name": "Windhorst", "location": {"address": "Dorotheenstr. 65", "crossStreet": "Neust\u00e4dtische Kirchstr.", "lat": 52.51855306339908, "lng": 13.386269840737189, "labeledLatLngs": [{"label": "display", "lat": 52.51855306339908, "lng": 13.386269840737189}], "distance": 571, "postalCode": "10117", "cc": "DE", "city": "Berlin", "state": "Berlin", "country": "Deutschland", "formattedAddress": ["Dorotheenstr. 65 (Neust\u00e4dtische Kirchstr.)", "10117 Berlin", "Deutschland"]}, "categories": [{"id": "4bf58dd8d48988d11e941735", "name": "Cocktail Bar", "pluralName": "Cocktail Bars", "shortName": "Cocktail", "icon": {"prefix": "https://ss3.4sqi.net/img/categories_v2/nightlife/cocktails_", "suffix": ".png"}, "primary": true}], "photos": {"count": 0, "groups": []}}, "referralId": "e-0-4adcda79f964a520874621e3-48"}, {"reasons": {"count": 0, "items": [{"summary": "This spot is popular", "type": "general", "reasonName": "globalInteractionReason"}]}, "venue": {"id": "4af43795f964a520a4f021e3", "name": "Sagrantino", "location": {"address": "Behrenstr. 47", "lat": 52.51575379208366, "lng": 13.390292927458177, "labeledLatLngs": [{"label": "display", "lat": 52.51575379208366, "lng": 13.390292927458177}], "distance": 179, "postalCode": "10117", "cc": "DE", "city": "Berlin", "state": "Berlin", "country": "Deutschland", "formattedAddress": ["Behrenstr. 47", "10117 Berlin", "Deutschland"]}, "categories": [{"id": "4bf58dd8d48988d123941735", "name": "Wine Bar", "pluralName": "Wine Bars", "shortName": "Wine Bar", "icon": {"prefix": "https://ss3.4sqi.net/img/categories_v2/food/winery_", "suffix": ".png"}, "primary": true}], "photos": {"count": 0, "groups": []}}, "referralId": "e-0-4af43795f964a520a4f021e3-49"}, {"reasons": {"count": 0, "items": [{"summary": "This spot is popular", "type": "general", "reasonName": "globalInteractionReason"}]}, "venue": {"id": "4b798128f964a5204cfd2ee3", "name": "Marsano Flowers", "location": {"address": "Charlottenstr. 75", "lat": 52.50923323304768, "lng": 13.392135797537648, "labeledLatLngs": [{"label": "display", "lat": 52.50923323304768, "lng": 13.392135797537648}], "distance": 557, "postalCode": "10117", "cc": "DE", "city": "Berlin", "state": "Berlin", "country": "Deutschland", "formattedAddress": ["Charlottenstr. 75", "10117 Berlin", "Deutschland"]}, "categories": [{"id": "4bf58dd8d48988d11b951735", "name": "Flower Shop", "pluralName": "Flower Shops", "shortName": "Flower Shop", "icon": {"prefix": "https://ss3.4sqi.net/img/categories_v2/shops/flowershop_", "suffix": ".png"}, "primary": true}], "photos": {"count": 0, "groups": []}}, "referralId": "e-0-4b798128f964a5204cfd2ee3-50"}, {"reasons": {"count": 0, "items": [{"summary": "This spot is popular", "type": "general", "reasonName": "globalInteractionReason"}]}, "venue": {"id": "4adcda89f964a520954921e3", "name": "Maxim Gorki Theater", "location": {"address": "Am Festungsgraben 1", "lat": 52.51894077519612, "lng": 13.39524493467083, "labeledLatLngs": [{"label": "display", "lat": 52.51894077519612, "lng": 13.39524493467083}], "distance": 616, "postalCode": "10117", "cc": "DE", "city": "Berlin", "state": "Berlin", "country": "Deutschland", "formattedAddress": ["Am Festungsgraben 1", "10117 Berlin", "Deutschland"]}, "categories": [{"id": "4bf58dd8d48988d137941735", "name": "Theater", "pluralName": "Theaters", "shortName": "Theater", "icon": {"prefix": "https://ss3.4sqi.net/img/categories_v2/arts_entertainment/performingarts_theater_", "suffix": ".png"}, "primary": true}], "photos": {"count": 0, "groups": []}}, "referralId": "e-0-4adcda89f964a520954921e3-51"}, {"reasons": {"count": 0, "items": [{"summary": "This spot is popular", "type": "general", "reasonName": "globalInteractionReason"}]}, "venue": {"id": "500fd5cae4b0899ebaa985ac", "name": "Reiterstandbild Friedrich der Gro\u00dfe", "location": {"address": "Unter den Linden", "crossStreet": "Universit\u00e4tsstr.", "lat": 52.517370062301744, "lng": 13.392854268546179, "labeledLatLngs": [{"label": "display", "lat": 52.517370062301744, "lng": 13.392854268546179}], "distance": 387, "postalCode": "10117", "cc": "DE", "city": "Berlin", "state": "Berlin", "country": "Deutschland", "formattedAddress": ["Unter den Linden (Universit\u00e4tsstr.)", "10117 Berlin", "Deutschland"]}, "categories": [{"id": "52e81612bcbc57f1066b79ed", "name": "Outdoor Sculpture", "pluralName": "Outdoor Sculptures", "shortName": "Outdoor Sculpture", "icon": {"prefix": "https://ss3.4sqi.net/img/categories_v2/parks_outdoors/sculpture_", "suffix": ".png"}, "primary": true}], "photos": {"count": 0, "groups": []}}, "referralId": "e-0-500fd5cae4b0899ebaa985ac-52"}, {"reasons": {"count": 0, "items": [{"summary": "This spot is popular", "type": "general", "reasonName": "globalInteractionReason"}]}, "venue": {"id": "574f24b5498e0c8032bcea00", "name": "Julia Stoschek Collection", "location": {"address": "Leipziger Strasse 60", "lat": 52.51124734323915, "lng": 13.396608172335373, "labeledLatLngs": [{"label": "display", "lat": 52.51124734323915, "lng": 13.396608172335373}], "distance": 518, "postalCode": "10117", "cc": "DE", "city": "Berlin", "state": "Berlin", "country": "Deutschland", "formattedAddress": ["Leipziger Strasse 60", "10117 Berlin", "Deutschland"]}, "categories": [{"id": "4bf58dd8d48988d1e2931735", "name": "Art Gallery", "pluralName": "Art Galleries", "shortName": "Art Gallery", "icon": {"prefix": "https://ss3.4sqi.net/img/categories_v2/arts_entertainment/artgallery_", "suffix": ".png"}, "primary": true}], "photos": {"count": 0, "groups": []}}, "referralId": "e-0-574f24b5498e0c8032bcea00-53"}, {"reasons": {"count": 0, "items": [{"summary": "This spot is popular", "type": "general", "reasonName": "globalInteractionReason"}]}, "venue": {"id": "4adcda81f964a5207d4821e3", "name": "Museum f\u00fcr Kommunikation", "location": {"address": "Leipziger Str. 16", "crossStreet": "Mauerstr.", "lat": 52.50982208432867, "lng": 13.38707685470581, "labeledLatLngs": [{"label": "display", "lat": 52.50982208432867, "lng": 13.38707685470581}], "distance": 539, "postalCode": "10117", "cc": "DE", "city": "Berlin", "state": "Berlin", "country": "Deutschland", "formattedAddress": ["Leipziger Str. 16 (Mauerstr.)", "10117 Berlin", "Deutschland"]}, "categories": [{"id": "4bf58dd8d48988d191941735", "name": "Science Museum", "pluralName": "Science Museums", "shortName": "Science Museum", "icon": {"prefix": "https://ss3.4sqi.net/img/categories_v2/arts_entertainment/museum_science_", "suffix": ".png"}, "primary": true}], "photos": {"count": 0, "groups": []}}, "referralId": "e-0-4adcda81f964a5207d4821e3-54"}, {"reasons": {"count": 0, "items": [{"summary": "This spot is popular", "type": "general", "reasonName": "globalInteractionReason"}]}, "venue": {"id": "4cb168fb1168a093a54b3323", "name": "\"Bibliothek\" - Mahnmal zur Erinnerung an die B\u00fccherverbrennung 1933", "location": {"address": "Bebelplatz", "lat": 52.51647775462584, "lng": 13.393750155194352, "labeledLatLngs": [{"label": "display", "lat": 52.51647775462584, "lng": 13.393750155194352}], "distance": 333, "postalCode": "10117", "cc": "DE", "city": "Berlin", "state": "Berlin", "country": "Deutschland", "formattedAddress": ["Bebelplatz", "10117 Berlin", "Deutschland"]}, "categories": [{"id": "5642206c498e4bfca532186c", "name": "Memorial Site", "pluralName": "Memorial Sites", "shortName": "Memorial Site", "icon": {"prefix": "https://ss3.4sqi.net/img/categories_v2/arts_entertainment/historicsite_", "suffix": ".png"}, "primary": true}], "photos": {"count": 0, "groups": []}}, "referralId": "e-0-4cb168fb1168a093a54b3323-55"}, {"reasons": {"count": 0, "items": [{"summary": "This spot is popular", "type": "general", "reasonName": "globalInteractionReason"}]}, "venue": {"id": "54491ce8498e623e3ad25ada", "name": "COS", "location": {"address": "Leipziger Platz 12", "lat": 52.51089684560424, "lng": 13.383017855404159, "labeledLatLngs": [{"label": "display", "lat": 52.51089684560424, "lng": 13.383017855404159}], "distance": 631, "postalCode": "10117", "cc": "DE", "city": "Berlin", "state": "Berlin", "country": "Deutschland", "formattedAddress": ["Leipziger Platz 12", "10117 Berlin", "Deutschland"]}, "categories": [{"id": "4bf58dd8d48988d103951735", "name": "Clothing Store", "pluralName": "Clothing Stores", "shortName": "Apparel", "icon": {"prefix": "https://ss3.4sqi.net/img/categories_v2/shops/apparel_", "suffix": ".png"}, "primary": true}], "photos": {"count": 0, "groups": []}}, "referralId": "e-0-54491ce8498e623e3ad25ada-56"}, {"reasons": {"count": 0, "items": [{"summary": "This spot is popular", "type": "general", "reasonName": "globalInteractionReason"}]}, "venue": {"id": "4afa6086f964a520c91722e3", "name": "Caf\u00e9 Einstein", "location": {"address": "Unter den Linden 42", "crossStreet": "Neust\u00e4dtische Kirchstr.", "lat": 52.51710878421212, "lng": 13.38582158088684, "labeledLatLngs": [{"label": "display", "lat": 52.51710878421212, "lng": 13.38582158088684}], "distance": 463, "postalCode": "10117", "cc": "DE", "city": "Berlin", "state": "Berlin", "country": "Deutschland", "formattedAddress": ["Unter den Linden 42 (Neust\u00e4dtische Kirchstr.)", "10117 Berlin", "Deutschland"]}, "categories": [{"id": "4bf58dd8d48988d16d941735", "name": "Caf\u00e9", "pluralName": "Caf\u00e9s", "shortName": "Caf\u00e9", "icon": {"prefix": "https://ss3.4sqi.net/img/categories_v2/food/cafe_", "suffix": ".png"}, "primary": true}], "photos": {"count": 0, "groups": []}}, "referralId": "e-0-4afa6086f964a520c91722e3-57"}, {"reasons": {"count": 0, "items": [{"summary": "This spot is popular", "type": "general", "reasonName": "globalInteractionReason"}]}, "venue": {"id": "54240cc4498eb3890dfca7cc", "name": "REWE CITY", "location": {"address": "Friedrichstr. 67-70", "lat": 52.512642, "lng": 13.390446, "labeledLatLngs": [{"label": "display", "lat": 52.512642, "lng": 13.390446}], "distance": 169, "postalCode": "10117", "cc": "DE", "city": "Berlin", "state": "Berlin", "country": "Deutschland", "formattedAddress": ["Friedrichstr. 67-70", "10117 Berlin", "Deutschland"]}, "categories": [{"id": "52f2ab2ebcbc57f1066b8b46", "name": "Supermarket", "pluralName": "Supermarkets", "shortName": "Supermarket", "icon": {"prefix": "https://ss3.4sqi.net/img/categories_v2/shops/food_grocery_", "suffix": ".png"}, "primary": true}], "photos": {"count": 0, "groups": []}}, "referralId": "e-0-54240cc4498eb3890dfca7cc-58"}, {"reasons": {"count": 0, "items": [{"summary": "This spot is popular", "type": "general", "reasonName": "globalInteractionReason"}]}, "venue": {"id": "4d2c7f80068e8cfa3defec4c", "name": "Flamingo Fresh Food Bar", "location": {"address": "Neust\u00e4dtische Kirchstr. 8", "crossStreet": "Georgenstr.", "lat": 52.51954067986944, "lng": 13.385424613952637, "labeledLatLngs": [{"label": "display", "lat": 52.51954067986944, "lng": 13.385424613952637}], "distance": 695, "postalCode": "10117", "cc": "DE", "city": "Berlin", "state": "Berlin", "country": "Deutschland", "formattedAddress": ["Neust\u00e4dtische Kirchstr. 8 (Georgenstr.)", "10117 Berlin", "Deutschland"]}, "categories": [{"id": "4bf58dd8d48988d1c5941735", "name": "Sandwich Place", "pluralName": "Sandwich Places", "shortName": "Sandwiches", "icon": {"prefix": "https://ss3.4sqi.net/img/categories_v2/food/deli_", "suffix": ".png"}, "primary": true}], "photos": {"count": 0, "groups": []}, "venuePage": {"id": "66995457"}}, "referralId": "e-0-4d2c7f80068e8cfa3defec4c-59"}, {"reasons": {"count": 0, "items": [{"summary": "This spot is popular", "type": "general", "reasonName": "globalInteractionReason"}]}, "venue": {"id": "4adcda88f964a520524921e3", "name": "Entrec\u00f4te", "location": {"address": "Sch\u00fctzenstr. 5", "lat": 52.508503595789044, "lng": 13.391074918766897, "labeledLatLngs": [{"label": "display", "lat": 52.508503595789044, "lng": 13.391074918766897}], "distance": 630, "postalCode": "10117", "cc": "DE", "city": "Berlin", "state": "Berlin", "country": "Deutschland", "formattedAddress": ["Sch\u00fctzenstr. 5", "10117 Berlin", "Deutschland"]}, "categories": [{"id": "4bf58dd8d48988d1cc941735", "name": "Steakhouse", "pluralName": "Steakhouses", "shortName": "Steakhouse", "icon": {"prefix": "https://ss3.4sqi.net/img/categories_v2/food/steakhouse_", "suffix": ".png"}, "primary": true}], "photos": {"count": 0, "groups": []}}, "referralId": "e-0-4adcda88f964a520524921e3-60"}, {"reasons": {"count": 0, "items": [{"summary": "This spot is popular", "type": "general", "reasonName": "globalInteractionReason"}]}, "venue": {"id": "4ba21485f964a5205fda37e3", "name": "Ishin", "location": {"address": "Mittelstr. 24", "lat": 52.51798579625111, "lng": 13.386713577457856, "labeledLatLngs": [{"label": "display", "lat": 52.51798579625111, "lng": 13.386713577457856}], "distance": 502, "postalCode": "10117", "cc": "DE", "city": "Berlin", "state": "Berlin", "country": "Deutschland", "formattedAddress": ["Mittelstr. 24", "10117 Berlin", "Deutschland"]}, "categories": [{"id": "4bf58dd8d48988d1d2941735", "name": "Sushi Restaurant", "pluralName": "Sushi Restaurants", "shortName": "Sushi", "icon": {"prefix": "https://ss3.4sqi.net/img/categories_v2/food/sushi_", "suffix": ".png"}, "primary": true}], "photos": {"count": 0, "groups": []}}, "referralId": "e-0-4ba21485f964a5205fda37e3-61"}, {"reasons": {"count": 0, "items": [{"summary": "This spot is popular", "type": "general", "reasonName": "globalInteractionReason"}]}, "venue": {"id": "54f0647d498ed1ceeaf9e623", "name": "Zwipf", "location": {"address": "Charlottenstr. 75", "lat": 52.509037, "lng": 13.392016, "labeledLatLngs": [{"label": "display", "lat": 52.509037, "lng": 13.392016}], "distance": 577, "postalCode": "10117", "cc": "DE", "city": "Berlin", "state": "Berlin", "country": "Deutschland", "formattedAddress": ["Charlottenstr. 75", "10117 Berlin", "Deutschland"]}, "categories": [{"id": "4bf58dd8d48988d143941735", "name": "Breakfast Spot", "pluralName": "Breakfast Spots", "shortName": "Breakfast", "icon": {"prefix": "https://ss3.4sqi.net/img/categories_v2/food/breakfast_", "suffix": ".png"}, "primary": true}], "photos": {"count": 0, "groups": []}}, "referralId": "e-0-54f0647d498ed1ceeaf9e623-62"}, {"reasons": {"count": 0, "items": [{"summary": "This spot is popular", "type": "general", "reasonName": "globalInteractionReason"}]}, "venue": {"id": "5babbd2225ecca002caf1ae1", "name": "PalaisPopulaire", "location": {"address": "Unter den Linden 5", "lat": 52.517124, "lng": 13.396176, "labeledLatLngs": [{"label": "display", "lat": 52.517124, "lng": 13.396176}], "distance": 499, "postalCode": "10117", "cc": "DE", "neighborhood": "Unter den Linden", "city": "Berlin", "state": "Berlin", "country": "Deutschland", "formattedAddress": ["Unter den Linden 5", "10117 Berlin", "Deutschland"]}, "categories": [{"id": "4bf58dd8d48988d1e2931735", "name": "Art Gallery", "pluralName": "Art Galleries", "shortName": "Art Gallery", "icon": {"prefix": "https://ss3.4sqi.net/img/categories_v2/arts_entertainment/artgallery_", "suffix": ".png"}, "primary": true}], "photos": {"count": 0, "groups": []}}, "referralId": "e-0-5babbd2225ecca002caf1ae1-63"}, {"reasons": {"count": 0, "items": [{"summary": "This spot is popular", "type": "general", "reasonName": "globalInteractionReason"}]}, "venue": {"id": "5839f8284bc2f13036a2f45a", "name": "Steel Vintage Bikes Caf\u00e9", "location": {"address": "Wilhelmstr. 91", "lat": 52.51279370993855, "lng": 13.382495686054138, "labeledLatLngs": [{"label": "display", "lat": 52.51279370993855, "lng": 13.382495686054138}], "distance": 572, "postalCode": "10117", "cc": "DE", "city": "Berlin", "state": "Berlin", "country": "Deutschland", "formattedAddress": ["Wilhelmstr. 91", "10117 Berlin", "Deutschland"]}, "categories": [{"id": "4bf58dd8d48988d16d941735", "name": "Caf\u00e9", "pluralName": "Caf\u00e9s", "shortName": "Caf\u00e9", "icon": {"prefix": "https://ss3.4sqi.net/img/categories_v2/food/cafe_", "suffix": ".png"}, "primary": true}], "photos": {"count": 0, "groups": []}}, "referralId": "e-0-5839f8284bc2f13036a2f45a-64"}, {"reasons": {"count": 0, "items": [{"summary": "This spot is popular", "type": "general", "reasonName": "globalInteractionReason"}]}, "venue": {"id": "4f68743ce4b0cbeea622041c", "name": "Hausvogteiplatz", "location": {"address": "Oberwallstr.", "crossStreet": "Niederwallstr.", "lat": 52.51309231324969, "lng": 13.396742150803828, "labeledLatLngs": [{"label": "display", "lat": 52.51309231324969, "lng": 13.396742150803828}], "distance": 429, "postalCode": "10117", "cc": "DE", "city": "Berlin", "state": "Berlin", "country": "Deutschland", "formattedAddress": ["Oberwallstr. (Niederwallstr.)", "10117 Berlin", "Deutschland"]}, "categories": [{"id": "4bf58dd8d48988d164941735", "name": "Plaza", "pluralName": "Plazas", "shortName": "Plaza", "icon": {"prefix": "https://ss3.4sqi.net/img/categories_v2/parks_outdoors/plaza_", "suffix": ".png"}, "primary": true}], "photos": {"count": 0, "groups": []}}, "referralId": "e-0-4f68743ce4b0cbeea622041c-65"}, {"reasons": {"count": 0, "items": [{"summary": "This spot is popular", "type": "general", "reasonName": "globalInteractionReason"}]}, "venue": {"id": "55bceead498e58c1296dbafc", "name": "AVAN", "location": {"address": "Mauerstr. 81", "lat": 52.50910138180226, "lng": 13.388735019641526, "labeledLatLngs": [{"label": "display", "lat": 52.50910138180226, "lng": 13.388735019641526}], "distance": 577, "postalCode": "10117", "cc": "DE", "city": "Berlin", "state": "Berlin", "country": "Deutschland", "formattedAddress": ["Mauerstr. 81", "10117 Berlin", "Deutschland"]}, "categories": [{"id": "4bf58dd8d48988d142941735", "name": "Asian Restaurant", "pluralName": "Asian Restaurants", "shortName": "Asian", "icon": {"prefix": "https://ss3.4sqi.net/img/categories_v2/food/asian_", "suffix": ".png"}, "primary": true}], "photos": {"count": 0, "groups": []}}, "referralId": "e-0-55bceead498e58c1296dbafc-66"}, {"reasons": {"count": 0, "items": [{"summary": "This spot is popular", "type": "general", "reasonName": "globalInteractionReason"}]}, "venue": {"id": "4adcda92f964a5200a4c21e3", "name": "Adlon Spa by Resense", "location": {"address": "Unter den Linden 77", "lat": 52.515823, "lng": 13.380434, "labeledLatLngs": [{"label": "display", "lat": 52.515823, "lng": 13.380434}], "distance": 715, "postalCode": "10117", "cc": "DE", "city": "Berlin", "state": "Berlin", "country": "Deutschland", "formattedAddress": ["Unter den Linden 77", "10117 Berlin", "Deutschland"]}, "categories": [{"id": "4bf58dd8d48988d1ed941735", "name": "Spa", "pluralName": "Spas", "shortName": "Spa", "icon": {"prefix": "https://ss3.4sqi.net/img/categories_v2/shops/spa_", "suffix": ".png"}, "primary": true}], "photos": {"count": 0, "groups": []}, "venuePage": {"id": "126425487"}}, "referralId": "e-0-4adcda92f964a5200a4c21e3-67"}, {"reasons": {"count": 0, "items": [{"summary": "This spot is popular", "type": "general", "reasonName": "globalInteractionReason"}]}, "venue": {"id": "4d44383d2e326ea8babee1a6", "name": "LUSH", "location": {"address": "Friedrichstr. 96", "crossStreet": "Georgenstr.", "lat": 52.51964161972643, "lng": 13.38835156449952, "labeledLatLngs": [{"label": "display", "lat": 52.51964161972643, "lng": 13.38835156449952}], "distance": 629, "postalCode": "10117", "cc": "DE", "city": "Berlin", "state": "Berlin", "country": "Deutschland", "formattedAddress": ["Friedrichstr. 96 (Georgenstr.)", "10117 Berlin", "Deutschland"]}, "categories": [{"id": "4bf58dd8d48988d10c951735", "name": "Cosmetics Shop", "pluralName": "Cosmetics Shops", "shortName": "Cosmetics", "icon": {"prefix": "https://ss3.4sqi.net/img/categories_v2/shops/beauty_cosmetic_", "suffix": ".png"}, "primary": true}], "photos": {"count": 0, "groups": []}}, "referralId": "e-0-4d44383d2e326ea8babee1a6-68"}, {"reasons": {"count": 0, "items": [{"summary": "This spot is popular", "type": "general", "reasonName": "globalInteractionReason"}]}, "venue": {"id": "4adcda8ef964a5208c4a21e3", "name": "Quartier 206", "location": {"address": "Friedrichstr. 71", "lat": 52.51345746439982, "lng": 13.389540291443748, "labeledLatLngs": [{"label": "display", "lat": 52.51345746439982, "lng": 13.389540291443748}], "distance": 107, "postalCode": "10117", "cc": "DE", "city": "Berlin", "state": "Berlin", "country": "Deutschland", "formattedAddress": ["Friedrichstr. 71", "10117 Berlin", "Deutschland"]}, "categories": [{"id": "4bf58dd8d48988d1f6941735", "name": "Department Store", "pluralName": "Department Stores", "shortName": "Department Store", "icon": {"prefix": "https://ss3.4sqi.net/img/categories_v2/shops/departmentstore_", "suffix": ".png"}, "primary": true}], "photos": {"count": 0, "groups": []}}, "referralId": "e-0-4adcda8ef964a5208c4a21e3-69"}, {"reasons": {"count": 0, "items": [{"summary": "This spot is popular", "type": "general", "reasonName": "globalInteractionReason"}]}, "venue": {"id": "581db6e308396928a379397a", "name": "Die Espressonisten", "location": {"address": "Zimmerstr. 90", "lat": 52.507648415439206, "lng": 13.388159410183967, "labeledLatLngs": [{"label": "display", "lat": 52.507648415439206, "lng": 13.388159410183967}], "distance": 743, "cc": "DE", "city": "Berlin", "state": "Berlin", "country": "Deutschland", "formattedAddress": ["Zimmerstr. 90", "Berlin", "Deutschland"]}, "categories": [{"id": "4bf58dd8d48988d1e0931735", "name": "Coffee Shop", "pluralName": "Coffee Shops", "shortName": "Coffee Shop", "icon": {"prefix": "https://ss3.4sqi.net/img/categories_v2/food/coffeeshop_", "suffix": ".png"}, "primary": true}], "photos": {"count": 0, "groups": []}}, "referralId": "e-0-581db6e308396928a379397a-70"}, {"reasons": {"count": 0, "items": [{"summary": "This spot is popular", "type": "general", "reasonName": "globalInteractionReason"}]}, "venue": {"id": "4adcda72f964a520274521e3", "name": "Hotel Adlon Kempinski Berlin", "location": {"address": "Unter den Linden 77", "crossStreet": "Pariser Platz", "lat": 52.51603805458656, "lng": 13.380124568939209, "labeledLatLngs": [{"label": "display", "lat": 52.51603805458656, "lng": 13.380124568939209}], "distance": 742, "postalCode": "10117", "cc": "DE", "city": "Berlin", "state": "Berlin", "country": "Deutschland", "formattedAddress": ["Unter den Linden 77 (Pariser Platz)", "10117 Berlin", "Deutschland"]}, "categories": [{"id": "4bf58dd8d48988d1fa931735", "name": "Hotel", "pluralName": "Hotels", "shortName": "Hotel", "icon": {"prefix": "https://ss3.4sqi.net/img/categories_v2/travel/hotel_", "suffix": ".png"}, "primary": true}], "photos": {"count": 0, "groups": []}, "venuePage": {"id": "78119702"}}, "referralId": "e-0-4adcda72f964a520274521e3-71"}, {"reasons": {"count": 0, "items": [{"summary": "This spot is popular", "type": "general", "reasonName": "globalInteractionReason"}]}, "venue": {"id": "4adcda7cf964a5205f4721e3", "name": "Lustgarten", "location": {"address": "Am Lustgarten", "crossStreet": "Schlo\u00dfplatz", "lat": 52.518469490131785, "lng": 13.399454063404399, "labeledLatLngs": [{"label": "display", "lat": 52.518469490131785, "lng": 13.399454063404399}], "distance": 765, "postalCode": "10178", "cc": "DE", "neighborhood": "Museumsinsel", "city": "Berlin", "state": "Berlin", "country": "Deutschland", "formattedAddress": ["Am Lustgarten (Schlo\u00dfplatz)", "10178 Berlin", "Deutschland"]}, "categories": [{"id": "4bf58dd8d48988d15a941735", "name": "Garden", "pluralName": "Gardens", "shortName": "Garden", "icon": {"prefix": "https://ss3.4sqi.net/img/categories_v2/parks_outdoors/garden_", "suffix": ".png"}, "primary": true}], "photos": {"count": 0, "groups": []}}, "referralId": "e-0-4adcda7cf964a5205f4721e3-72"}, {"reasons": {"count": 0, "items": [{"summary": "This spot is popular", "type": "general", "reasonName": "globalInteractionReason"}]}, "venue": {"id": "4b58465ff964a520835028e3", "name": "Hotel NH Collection Berlin Mitte am Checkpoint Charlie", "location": {"address": "Leipziger Str. 106-111", "lat": 52.51030667486289, "lng": 13.388410071849227, "labeledLatLngs": [{"label": "display", "lat": 52.51030667486289, "lng": 13.388410071849227}], "distance": 454, "postalCode": "10117", "cc": "DE", "neighborhood": "Mitte, Berlin", "city": "Berlin", "state": "Berlin", "country": "Deutschland", "formattedAddress": ["Leipziger Str. 106-111", "10117 Berlin", "Deutschland"]}, "categories": [{"id": "4bf58dd8d48988d1fa931735", "name": "Hotel", "pluralName": "Hotels", "shortName": "Hotel", "icon": {"prefix": "https://ss3.4sqi.net/img/categories_v2/travel/hotel_", "suffix": ".png"}, "primary": true}], "photos": {"count": 0, "groups": []}}, "referralId": "e-0-4b58465ff964a520835028e3-73"}, {"reasons": {"count": 0, "items": [{"summary": "This spot is popular", "type": "general", "reasonName": "globalInteractionReason"}]}, "venue": {"id": "56dd6508498e12e3c58083eb", "name": "Little Green Rabbit", "location": {"address": "Friedrichstr. 200", "lat": 52.508782640619074, "lng": 13.389224714135477, "labeledLatLngs": [{"label": "display", "lat": 52.508782640619074, "lng": 13.389224714135477}], "distance": 606, "postalCode": "10117", "cc": "DE", "city": "Berlin", "state": "Berlin", "country": "Deutschland", "formattedAddress": ["Friedrichstr. 200", "10117 Berlin", "Deutschland"]}, "categories": [{"id": "4bf58dd8d48988d1bd941735", "name": "Salad Place", "pluralName": "Salad Places", "shortName": "Salad", "icon": {"prefix": "https://ss3.4sqi.net/img/categories_v2/food/salad_", "suffix": ".png"}, "primary": true}], "photos": {"count": 0, "groups": []}}, "referralId": "e-0-56dd6508498e12e3c58083eb-74"}, {"reasons": {"count": 0, "items": [{"summary": "This spot is popular", "type": "general", "reasonName": "globalInteractionReason"}]}, "venue": {"id": "4bea8f256295c9b62e828608", "name": "Trabi-Safari / Trabi-World", "location": {"address": "Zimmerstr. 97", "lat": 52.50762662685895, "lng": 13.386632240518113, "labeledLatLngs": [{"label": "display", "lat": 52.50762662685895, "lng": 13.386632240518113}], "distance": 776, "postalCode": "10117", "cc": "DE", "city": "Berlin", "state": "Berlin", "country": "Deutschland", "formattedAddress": ["Zimmerstr. 97", "10117 Berlin", "Deutschland"]}, "categories": [{"id": "4bf58dd8d48988d1ef941735", "name": "Rental Car Location", "pluralName": "Rental Car Locations", "shortName": "Rental Car", "icon": {"prefix": "https://ss3.4sqi.net/img/categories_v2/shops/airport_rentalcar_", "suffix": ".png"}, "primary": true}], "photos": {"count": 0, "groups": []}}, "referralId": "e-0-4bea8f256295c9b62e828608-75"}, {"reasons": {"count": 0, "items": [{"summary": "This spot is popular", "type": "general", "reasonName": "globalInteractionReason"}]}, "venue": {"id": "546b96cf498e769bed6a1f3d", "name": "Lindt", "location": {"address": "Vo\u00dfstr. 32", "lat": 52.51091255446804, "lng": 13.381178677082062, "labeledLatLngs": [{"label": "display", "lat": 52.51091255446804, "lng": 13.381178677082062}], "distance": 735, "postalCode": "10117", "cc": "DE", "city": "Berlin", "state": "Berlin", "country": "Deutschland", "formattedAddress": ["Vo\u00dfstr. 32", "10117 Berlin", "Deutschland"]}, "categories": [{"id": "52f2ab2ebcbc57f1066b8b31", "name": "Chocolate Shop", "pluralName": "Chocolate Shops", "shortName": "Chocolate Shop", "icon": {"prefix": "https://ss3.4sqi.net/img/categories_v2/shops/candystore_", "suffix": ".png"}, "primary": true}], "photos": {"count": 0, "groups": []}, "venuePage": {"id": "558862171"}}, "referralId": "e-0-546b96cf498e769bed6a1f3d-76"}, {"reasons": {"count": 0, "items": [{"summary": "This spot is popular", "type": "general", "reasonName": "globalInteractionReason"}]}, "venue": {"id": "58f3ad1435f983278e8dc6cb", "name": "India Club", "location": {"address": "Behrenstr. 72", "lat": 52.514835149745636, "lng": 13.379803689847819, "labeledLatLngs": [{"label": "display", "lat": 52.514835149745636, "lng": 13.379803689847819}], "distance": 738, "postalCode": "10117", "cc": "DE", "city": "Berlin", "state": "Berlin", "country": "Deutschland", "formattedAddress": ["Behrenstr. 72", "10117 Berlin", "Deutschland"]}, "categories": [{"id": "4bf58dd8d48988d10f941735", "name": "Indian Restaurant", "pluralName": "Indian Restaurants", "shortName": "Indian", "icon": {"prefix": "https://ss3.4sqi.net/img/categories_v2/food/indian_", "suffix": ".png"}, "primary": true}], "photos": {"count": 0, "groups": []}}, "referralId": "e-0-58f3ad1435f983278e8dc6cb-77"}, {"reasons": {"count": 0, "items": [{"summary": "This spot is popular", "type": "general", "reasonName": "globalInteractionReason"}]}, "venue": {"id": "4b4c65e5f964a5203ab226e3", "name": "Parf\u00fcmerie Douglas", "location": {"address": "Unter den Linden 16", "crossStreet": "Friedrichstr.", "lat": 52.51718547144278, "lng": 13.388983837874989, "labeledLatLngs": [{"label": "display", "lat": 52.51718547144278, "lng": 13.388983837874989}], "distance": 355, "postalCode": "10117", "cc": "DE", "city": "Berlin", "state": "Berlin", "country": "Deutschland", "formattedAddress": ["Unter den Linden 16 (Friedrichstr.)", "10117 Berlin", "Deutschland"]}, "categories": [{"id": "52f2ab2ebcbc57f1066b8b23", "name": "Perfume Shop", "pluralName": "Perfume Shops", "shortName": "Perfume Shop", "icon": {"prefix": "https://ss3.4sqi.net/img/categories_v2/shops/default_", "suffix": ".png"}, "primary": true}], "photos": {"count": 0, "groups": []}}, "referralId": "e-0-4b4c65e5f964a5203ab226e3-78"}, {"reasons": {"count": 0, "items": [{"summary": "This spot is popular", "type": "general", "reasonName": "globalInteractionReason"}]}, "venue": {"id": "4baa0944f964a52086453ae3", "name": "Butter Lindner", "location": {"address": "Wilhelmstr. 68a", "lat": 52.51787932321359, "lng": 13.380449533542258, "labeledLatLngs": [{"label": "display", "lat": 52.51787932321359, "lng": 13.380449533542258}], "distance": 805, "postalCode": "10117", "cc": "DE", "city": "Berlin", "state": "Berlin", "country": "Deutschland", "formattedAddress": ["Wilhelmstr. 68a", "10117 Berlin", "Deutschland"]}, "categories": [{"id": "4bf58dd8d48988d1f5941735", "name": "Gourmet Shop", "pluralName": "Gourmet Shops", "shortName": "Gourmet", "icon": {"prefix": "https://ss3.4sqi.net/img/categories_v2/shops/food_gourmet_", "suffix": ".png"}, "primary": true}], "photos": {"count": 0, "groups": []}}, "referralId": "e-0-4baa0944f964a52086453ae3-79"}, {"reasons": {"count": 0, "items": [{"summary": "This spot is popular", "type": "general", "reasonName": "globalInteractionReason"}]}, "venue": {"id": "4b2fa102f964a52029ed24e3", "name": "Goodtime", "location": {"address": "Hausvogteiplatz 11", "lat": 52.51250649184582, "lng": 13.396963180791031, "labeledLatLngs": [{"label": "display", "lat": 52.51250649184582, "lng": 13.396963180791031}], "distance": 466, "postalCode": "10117", "cc": "DE", "city": "Berlin", "state": "Berlin", "country": "Deutschland", "formattedAddress": ["Hausvogteiplatz 11", "10117 Berlin", "Deutschland"]}, "categories": [{"id": "4bf58dd8d48988d149941735", "name": "Thai Restaurant", "pluralName": "Thai Restaurants", "shortName": "Thai", "icon": {"prefix": "https://ss3.4sqi.net/img/categories_v2/food/thai_", "suffix": ".png"}, "primary": true}], "photos": {"count": 0, "groups": []}}, "referralId": "e-0-4b2fa102f964a52029ed24e3-80"}, {"reasons": {"count": 0, "items": [{"summary": "This spot is popular", "type": "general", "reasonName": "globalInteractionReason"}]}, "venue": {"id": "4cc9350ed147a09328aee5ae", "name": "Tr\u00e4nenpalast", "location": {"address": "Reichstagufer 17", "lat": 52.52085424559891, "lng": 13.387162011117056, "labeledLatLngs": [{"label": "display", "lat": 52.52085424559891, "lng": 13.387162011117056}], "distance": 781, "postalCode": "10117", "cc": "DE", "city": "Berlin", "state": "Berlin", "country": "Deutschland", "formattedAddress": ["Reichstagufer 17", "10117 Berlin", "Deutschland"]}, "categories": [{"id": "4deefb944765f83613cdba6e", "name": "Historic Site", "pluralName": "Historic Sites", "shortName": "Historic Site", "icon": {"prefix": "https://ss3.4sqi.net/img/categories_v2/arts_entertainment/historicsite_", "suffix": ".png"}, "primary": true}], "photos": {"count": 0, "groups": []}}, "referralId": "e-0-4cc9350ed147a09328aee5ae-81"}, {"reasons": {"count": 0, "items": [{"summary": "This spot is popular", "type": "general", "reasonName": "globalInteractionReason"}]}, "venue": {"id": "5ae19855d552c7002cec2065", "name": "Pergamonmuseum. Das Panorama", "location": {"address": "Am Kupfergraben 3-5", "lat": 52.52103886374081, "lng": 13.394454418375725, "labeledLatLngs": [{"label": "display", "lat": 52.52103886374081, "lng": 13.394454418375725}], "distance": 808, "postalCode": "10117", "cc": "DE", "city": "Berlin", "state": "Berlin", "country": "Deutschland", "formattedAddress": ["Am Kupfergraben 3-5", "10117 Berlin", "Deutschland"]}, "categories": [{"id": "4bf58dd8d48988d181941735", "name": "Museum", "pluralName": "Museums", "shortName": "Museum", "icon": {"prefix": "https://ss3.4sqi.net/img/categories_v2/arts_entertainment/museum_", "suffix": ".png"}, "primary": true}], "photos": {"count": 0, "groups": []}}, "referralId": "e-0-5ae19855d552c7002cec2065-82"}, {"reasons": {"count": 0, "items": [{"summary": "This spot is popular", "type": "general", "reasonName": "globalInteractionReason"}]}, "venue": {"id": "4b10f428f964a520f77623e3", "name": "Denkmal f\u00fcr die ermordeten Juden Europas", "location": {"address": "Cora-Berliner-Str. 1", "crossStreet": "Hannah-Arendt-Str.", "lat": 52.51386572739114, "lng": 13.378545935106754, "labeledLatLngs": [{"label": "display", "lat": 52.51386572739114, "lng": 13.378545935106754}], "distance": 820, "postalCode": "10117", "cc": "DE", "neighborhood": "Friedrichstadt", "city": "Berlin", "state": "Berlin", "country": "Deutschland", "formattedAddress": ["Cora-Berliner-Str. 1 (Hannah-Arendt-Str.)", "10117 Berlin", "Deutschland"]}, "categories": [{"id": "4bf58dd8d48988d12d941735", "name": "Monument / Landmark", "pluralName": "Monuments / Landmarks", "shortName": "Landmark", "icon": {"prefix": "https://ss3.4sqi.net/img/categories_v2/building/government_monument_", "suffix": ".png"}, "primary": true}], "photos": {"count": 0, "groups": []}}, "referralId": "e-0-4b10f428f964a520f77623e3-83"}, {"reasons": {"count": 0, "items": [{"summary": "This spot is popular", "type": "general", "reasonName": "globalInteractionReason"}]}, "venue": {"id": "4adcda7ff964a520f34721e3", "name": "Pariser Platz", "location": {"address": "Unter den Linden", "crossStreet": "Wilhelmstr.", "lat": 52.515292486801656, "lng": 13.38004243120501, "labeledLatLngs": [{"label": "display", "lat": 52.515292486801656, "lng": 13.38004243120501}], "distance": 729, "postalCode": "10117", "cc": "DE", "city": "Berlin", "state": "Berlin", "country": "Deutschland", "formattedAddress": ["Unter den Linden (Wilhelmstr.)", "10117 Berlin", "Deutschland"]}, "categories": [{"id": "4bf58dd8d48988d164941735", "name": "Plaza", "pluralName": "Plazas", "shortName": "Plaza", "icon": {"prefix": "https://ss3.4sqi.net/img/categories_v2/parks_outdoors/plaza_", "suffix": ".png"}, "primary": true}], "photos": {"count": 0, "groups": []}}, "referralId": "e-0-4adcda7ff964a520f34721e3-84"}, {"reasons": {"count": 0, "items": [{"summary": "This spot is popular", "type": "general", "reasonName": "globalInteractionReason"}]}, "venue": {"id": "4d42b644787e6a3173e567c8", "name": "Hotel Eurostars Berlin", "location": {"address": "Friedrichstr. 99", "lat": 52.5205114, "lng": 13.38959916, "labeledLatLngs": [{"label": "display", "lat": 52.5205114, "lng": 13.38959916}], "distance": 710, "postalCode": "10117", "cc": "DE", "city": "Berlin", "state": "Berlin", "country": "Deutschland", "formattedAddress": ["Friedrichstr. 99", "10117 Berlin", "Deutschland"]}, "categories": [{"id": "4bf58dd8d48988d1fa931735", "name": "Hotel", "pluralName": "Hotels", "shortName": "Hotel", "icon": {"prefix": "https://ss3.4sqi.net/img/categories_v2/travel/hotel_", "suffix": ".png"}, "primary": true}], "photos": {"count": 0, "groups": []}, "venuePage": {"id": "558862386"}}, "referralId": "e-0-4d42b644787e6a3173e567c8-85"}, {"reasons": {"count": 0, "items": [{"summary": "This spot is popular", "type": "general", "reasonName": "globalInteractionReason"}]}, "venue": {"id": "5529326b498e28d039433338", "name": "High5", "location": {"address": "Leipziger Stra\u00dfe 46/47", "lat": 52.510495330017875, "lng": 13.397393964150979, "labeledLatLngs": [{"label": "display", "lat": 52.510495330017875, "lng": 13.397393964150979}], "distance": 612, "postalCode": "10117", "cc": "DE", "city": "Berlin", "state": "Berlin", "country": "Deutschland", "formattedAddress": ["Leipziger Stra\u00dfe 46/47", "10117 Berlin", "Deutschland"]}, "categories": [{"id": "4bf58dd8d48988d175941735", "name": "Gym / Fitness Center", "pluralName": "Gyms or Fitness Centers", "shortName": "Gym / Fitness", "icon": {"prefix": "https://ss3.4sqi.net/img/categories_v2/building/gym_", "suffix": ".png"}, "primary": true}], "photos": {"count": 0, "groups": []}}, "referralId": "e-0-5529326b498e28d039433338-86"}, {"reasons": {"count": 0, "items": [{"summary": "This spot is popular", "type": "general", "reasonName": "globalInteractionReason"}]}, "venue": {"id": "4adcda83f964a520b24821e3", "name": "Neues Museum", "location": {"address": "Bodestr. 1-3", "crossStreet": "Museumsinsel", "lat": 52.5201576091737, "lng": 13.39783787727356, "labeledLatLngs": [{"label": "display", "lat": 52.5201576091737, "lng": 13.39783787727356}], "distance": 826, "postalCode": "10178", "cc": "DE", "neighborhood": "Museumsinsel", "city": "Berlin", "state": "Berlin", "country": "Deutschland", "formattedAddress": ["Bodestr. 1-3 (Museumsinsel)", "10178 Berlin", "Deutschland"]}, "categories": [{"id": "4bf58dd8d48988d190941735", "name": "History Museum", "pluralName": "History Museums", "shortName": "History Museum", "icon": {"prefix": "https://ss3.4sqi.net/img/categories_v2/arts_entertainment/museum_history_", "suffix": ".png"}, "primary": true}], "photos": {"count": 0, "groups": []}}, "referralId": "e-0-4adcda83f964a520b24821e3-87"}, {"reasons": {"count": 0, "items": [{"summary": "This spot is popular", "type": "general", "reasonName": "globalInteractionReason"}]}, "venue": {"id": "528c91cc11d2f34bf9689cb5", "name": "Ischtar-Tor", "location": {"address": "Am Kupfergraben 5", "lat": 52.520741776446705, "lng": 13.397204678584995, "labeledLatLngs": [{"label": "display", "lat": 52.520741776446705, "lng": 13.397204678584995}], "distance": 857, "postalCode": "10117", "cc": "DE", "city": "Berlin", "state": "Berlin", "country": "Deutschland", "formattedAddress": ["Am Kupfergraben 5", "10117 Berlin", "Deutschland"]}, "categories": [{"id": "4deefb944765f83613cdba6e", "name": "Historic Site", "pluralName": "Historic Sites", "shortName": "Historic Site", "icon": {"prefix": "https://ss3.4sqi.net/img/categories_v2/arts_entertainment/historicsite_", "suffix": ".png"}, "primary": true}], "photos": {"count": 0, "groups": []}}, "referralId": "e-0-528c91cc11d2f34bf9689cb5-88"}, {"reasons": {"count": 0, "items": [{"summary": "This spot is popular", "type": "general", "reasonName": "globalInteractionReason"}]}, "venue": {"id": "58937f152f91cb2559afca18", "name": "enso yoga berlin", "location": {"address": "Krausenstra\u00dfe 28", "lat": 52.509705392117255, "lng": 13.39703360400076, "labeledLatLngs": [{"label": "display", "lat": 52.509705392117255, "lng": 13.39703360400076}], "distance": 658, "postalCode": "10117", "cc": "DE", "city": "Berlin", "state": "Berlin", "country": "Deutschland", "formattedAddress": ["Krausenstra\u00dfe 28", "10117 Berlin", "Deutschland"]}, "categories": [{"id": "4bf58dd8d48988d102941735", "name": "Yoga Studio", "pluralName": "Yoga Studios", "shortName": "Yoga Studio", "icon": {"prefix": "https://ss3.4sqi.net/img/categories_v2/shops/gym_yogastudio_", "suffix": ".png"}, "primary": true}], "photos": {"count": 0, "groups": []}}, "referralId": "e-0-58937f152f91cb2559afca18-89"}, {"reasons": {"count": 0, "items": [{"summary": "This spot is popular", "type": "general", "reasonName": "globalInteractionReason"}]}, "venue": {"id": "50d72f14e4b0cc2e84b9e862", "name": "Caf\u00e9 Ursprung", "location": {"address": "Friedrichstr. 90", "lat": 52.51828937830739, "lng": 13.389474019724089, "labeledLatLngs": [{"label": "display", "lat": 52.51828937830739, "lng": 13.389474019724089}], "distance": 466, "postalCode": "10117", "cc": "DE", "city": "Berlin", "state": "Berlin", "country": "Deutschland", "formattedAddress": ["Friedrichstr. 90", "10117 Berlin", "Deutschland"]}, "categories": [{"id": "4bf58dd8d48988d16d941735", "name": "Caf\u00e9", "pluralName": "Caf\u00e9s", "shortName": "Caf\u00e9", "icon": {"prefix": "https://ss3.4sqi.net/img/categories_v2/food/cafe_", "suffix": ".png"}, "primary": true}], "photos": {"count": 0, "groups": []}}, "referralId": "e-0-50d72f14e4b0cc2e84b9e862-90"}, {"reasons": {"count": 0, "items": [{"summary": "This spot is popular", "type": "general", "reasonName": "globalInteractionReason"}]}, "venue": {"id": "55782f9e498ee3b164cc75f5", "name": "Pax Coffee", "location": {"address": "Oberwallstra\u00dfe 20", "lat": 52.513906, "lng": 13.397219, "labeledLatLngs": [{"label": "display", "lat": 52.513906, "lng": 13.397219}], "distance": 446, "postalCode": "10117", "cc": "DE", "city": "Berlin", "state": "Berlin", "country": "Deutschland", "formattedAddress": ["Oberwallstra\u00dfe 20", "10117 Berlin", "Deutschland"]}, "categories": [{"id": "4bf58dd8d48988d16d941735", "name": "Caf\u00e9", "pluralName": "Caf\u00e9s", "shortName": "Caf\u00e9", "icon": {"prefix": "https://ss3.4sqi.net/img/categories_v2/food/cafe_", "suffix": ".png"}, "primary": true}], "photos": {"count": 0, "groups": []}}, "referralId": "e-0-55782f9e498ee3b164cc75f5-91"}, {"reasons": {"count": 0, "items": [{"summary": "This spot is popular", "type": "general", "reasonName": "globalInteractionReason"}]}, "venue": {"id": "4adcda72f964a5204e4521e3", "name": "Hotel NH Collection Berlin Mitte Friedrichstrasse", "location": {"address": "Friedrichstr. 96", "crossStreet": "Georgenstr.", "lat": 52.51968756858481, "lng": 13.38884174823761, "labeledLatLngs": [{"label": "display", "lat": 52.51968756858481, "lng": 13.38884174823761}], "distance": 627, "postalCode": "10117", "cc": "DE", "neighborhood": "Mitte", "city": "Berlin", "state": "Berlin", "country": "Deutschland", "formattedAddress": ["Friedrichstr. 96 (Georgenstr.)", "10117 Berlin", "Deutschland"]}, "categories": [{"id": "4bf58dd8d48988d1fa931735", "name": "Hotel", "pluralName": "Hotels", "shortName": "Hotel", "icon": {"prefix": "https://ss3.4sqi.net/img/categories_v2/travel/hotel_", "suffix": ".png"}, "primary": true}], "photos": {"count": 0, "groups": []}}, "referralId": "e-0-4adcda72f964a5204e4521e3-92"}, {"reasons": {"count": 0, "items": [{"summary": "This spot is popular", "type": "general", "reasonName": "globalInteractionReason"}]}, "venue": {"id": "4adcda7cf964a520524721e3", "name": "Brandenburger Tor", "location": {"address": "Pariser Platz", "lat": 52.516246979489246, "lng": 13.377785682678223, "labeledLatLngs": [{"label": "display", "lat": 52.516246979489246, "lng": 13.377785682678223}], "distance": 901, "postalCode": "10117", "cc": "DE", "city": "Berlin", "state": "Berlin", "country": "Deutschland", "formattedAddress": ["Pariser Platz", "10117 Berlin", "Deutschland"]}, "categories": [{"id": "4bf58dd8d48988d12d941735", "name": "Monument / Landmark", "pluralName": "Monuments / Landmarks", "shortName": "Landmark", "icon": {"prefix": "https://ss3.4sqi.net/img/categories_v2/building/government_monument_", "suffix": ".png"}, "primary": true}], "photos": {"count": 0, "groups": []}}, "referralId": "e-0-4adcda7cf964a520524721e3-93"}, {"reasons": {"count": 0, "items": [{"summary": "This spot is popular", "type": "general", "reasonName": "globalInteractionReason"}]}, "venue": {"id": "4adcda81f964a520574821e3", "name": "Altes Museum", "location": {"address": "Am Lustgarten 1", "lat": 52.51953741567019, "lng": 13.398803472518921, "labeledLatLngs": [{"label": "display", "lat": 52.51953741567019, "lng": 13.398803472518921}], "distance": 814, "postalCode": "10178", "cc": "DE", "neighborhood": "Museumsinsel", "city": "Berlin", "state": "Berlin", "country": "Deutschland", "formattedAddress": ["Am Lustgarten 1", "10178 Berlin", "Deutschland"]}, "categories": [{"id": "4bf58dd8d48988d190941735", "name": "History Museum", "pluralName": "History Museums", "shortName": "History Museum", "icon": {"prefix": "https://ss3.4sqi.net/img/categories_v2/arts_entertainment/museum_history_", "suffix": ".png"}, "primary": true}], "photos": {"count": 0, "groups": []}}, "referralId": "e-0-4adcda81f964a520574821e3-94"}, {"reasons": {"count": 0, "items": [{"summary": "This spot is popular", "type": "general", "reasonName": "globalInteractionReason"}]}, "venue": {"id": "56042fc7498e6dd359ab7893", "name": "UNIQLO", "location": {"address": "Leipziger Platz 12/13", "lat": 52.5100264, "lng": 13.3798702, "labeledLatLngs": [{"label": "display", "lat": 52.5100264, "lng": 13.3798702}], "distance": 862, "postalCode": "10117", "cc": "DE", "city": "Berlin", "state": "Berlin", "country": "Deutschland", "formattedAddress": ["Leipziger Platz 12/13", "10117 Berlin", "Deutschland"]}, "categories": [{"id": "4bf58dd8d48988d103951735", "name": "Clothing Store", "pluralName": "Clothing Stores", "shortName": "Apparel", "icon": {"prefix": "https://ss3.4sqi.net/img/categories_v2/shops/apparel_", "suffix": ".png"}, "primary": true}], "photos": {"count": 0, "groups": []}, "venuePage": {"id": "556731206"}}, "referralId": "e-0-56042fc7498e6dd359ab7893-95"}, {"reasons": {"count": 0, "items": [{"summary": "This spot is popular", "type": "general", "reasonName": "globalInteractionReason"}]}, "venue": {"id": "4ae44d24f964a520eb9921e3", "name": "Pergamonmuseum", "location": {"address": "Am Kupfergraben 5", "lat": 52.520843, "lng": 13.396395, "labeledLatLngs": [{"label": "display", "lat": 52.520843, "lng": 13.396395}], "distance": 839, "postalCode": "10117", "cc": "DE", "neighborhood": "Museumsinsel", "city": "Berlin", "state": "Berlin", "country": "Deutschland", "formattedAddress": ["Am Kupfergraben 5", "10117 Berlin", "Deutschland"]}, "categories": [{"id": "4bf58dd8d48988d190941735", "name": "History Museum", "pluralName": "History Museums", "shortName": "History Museum", "icon": {"prefix": "https://ss3.4sqi.net/img/categories_v2/arts_entertainment/museum_history_", "suffix": ".png"}, "primary": true}], "photos": {"count": 0, "groups": []}}, "referralId": "e-0-4ae44d24f964a520eb9921e3-96"}, {"reasons": {"count": 0, "items": [{"summary": "This spot is popular", "type": "general", "reasonName": "globalInteractionReason"}]}, "venue": {"id": "4c9619c6f244b1f7fc4c311d", "name": "Hotel Gat Point Charlie", "location": {"address": "Mauerstr. 81", "crossStreet": "Krausenstr.", "lat": 52.50889793775351, "lng": 13.38823873091376, "labeledLatLngs": [{"label": "display", "lat": 52.50889793775351, "lng": 13.38823873091376}], "distance": 607, "postalCode": "10117", "cc": "DE", "city": "Berlin", "state": "Berlin", "country": "Deutschland", "formattedAddress": ["Mauerstr. 81 (Krausenstr.)", "10117 Berlin", "Deutschland"]}, "categories": [{"id": "4bf58dd8d48988d1fa931735", "name": "Hotel", "pluralName": "Hotels", "shortName": "Hotel", "icon": {"prefix": "https://ss3.4sqi.net/img/categories_v2/travel/hotel_", "suffix": ".png"}, "primary": true}], "photos": {"count": 0, "groups": []}}, "referralId": "e-0-4c9619c6f244b1f7fc4c311d-97"}, {"reasons": {"count": 0, "items": [{"summary": "This spot is popular", "type": "general", "reasonName": "globalInteractionReason"}]}, "venue": {"id": "4d01017f1fcef04d77adcdb9", "name": "Motel One Berlin-Spittelmarkt", "location": {"address": "Leipziger Str. 50", "lat": 52.51112196406414, "lng": 13.400956949566037, "labeledLatLngs": [{"label": "display", "lat": 52.51112196406414, "lng": 13.400956949566037}], "distance": 776, "postalCode": "10117", "cc": "DE", "city": "Berlin", "state": "Berlin", "country": "Deutschland", "formattedAddress": ["Leipziger Str. 50", "10117 Berlin", "Deutschland"]}, "categories": [{"id": "4bf58dd8d48988d1fa931735", "name": "Hotel", "pluralName": "Hotels", "shortName": "Hotel", "icon": {"prefix": "https://ss3.4sqi.net/img/categories_v2/travel/hotel_", "suffix": ".png"}, "primary": true}], "photos": {"count": 0, "groups": []}, "venuePage": {"id": "474710753"}}, "referralId": "e-0-4d01017f1fcef04d77adcdb9-98"}, {"reasons": {"count": 0, "items": [{"summary": "This spot is popular", "type": "general", "reasonName": "globalInteractionReason"}]}, "venue": {"id": "4c8289ab647db713b33e09bb", "name": "Baudenkmal Berliner Mauer | Berlin Wall Monument (Baudenkmal Berliner Mauer)", "location": {"address": "Niederkirchnerstr.", "crossStreet": "Wilhelmstr.", "lat": 52.50713170694858, "lng": 13.384437561035156, "labeledLatLngs": [{"label": "display", "lat": 52.50713170694858, "lng": 13.384437561035156}], "distance": 887, "postalCode": "10963", "cc": "DE", "city": "Berlin", "state": "Berlin", "country": "Deutschland", "formattedAddress": ["Niederkirchnerstr. (Wilhelmstr.)", "10963 Berlin", "Deutschland"]}, "categories": [{"id": "4deefb944765f83613cdba6e", "name": "Historic Site", "pluralName": "Historic Sites", "shortName": "Historic Site", "icon": {"prefix": "https://ss3.4sqi.net/img/categories_v2/arts_entertainment/historicsite_", "suffix": ".png"}, "primary": true}], "photos": {"count": 0, "groups": []}}, "referralId": "e-0-4c8289ab647db713b33e09bb-99"}]