[{"reasons": {"count": 0, "items": [{"summary": "This spot is popular", "type": "general", "reasonName": "globalInteractionReason"}]}, "venue": {"id": "4cc4a6f4be40a35dd3ec7f4c", "name": "Nathanja & Heinrich", "location": {"address": "Weichselstr. 44", "lat": 52.48734695430943, "lng": 13.436778927769645, "labeledLatLngs": [{"label": "display", "lat": 52.48734695430943, "lng": 13.436778927769645}], "distance": 214, "postalCode": "12059", "cc": "DE", "city": "Berlin", "state": "Berlin", "country": "Deutschland", "formattedAddress": ["Weichselstr. 44", "12059 Berlin", "Deutschland"]}, "categories": [{"id": "4bf58dd8d48988d116941735", "name": "Bar", "pluralName": "Bars", "shortName": "Bar", "icon": {"prefix": "https://ss3.4sqi.net/img/categories_v2/nightlife/pub_", "suffix": ".png"}, "primary": true}], "photos": {"count": 0, "groups": []}, "venuePage": {"id": "76500925"}}, "referralId": "e-0-4cc4a6f4be40a35dd3ec7f4c-0"}, {"reasons": {"count": 0, "items": [{"summary": "This spot is popular", "type": "general", "reasonName": "globalInteractionReason"}]}, "venue": {"id": "4c65b7a57abde21e76886168", "name": "Vin Aqua Vin", "location": {"address": "Weserstr. 204", "lat": 52.48781118552866, "lng": 13.430537516324165, "labeledLatLngs": [{"label": "display", "lat": 52.48781118552866, "lng": 13.430537516324165}], "distance": 211, "postalCode": "12047", "cc": "DE", "city": "Berlin", "state": "Berlin", "country": "Deutschland", "formattedAddress": ["Weserstr. 204", "12047 Berlin", "Deutschland"]}, "categories": [{"id": "4bf58dd8d48988d119951735", "name": "Wine Shop", "pluralName": "Wine Shops", "shortName": "Wine Shop", "icon": {"prefix": "https://ss3.4sqi.net/img/categories_v2/shops/food_wineshop_", "suffix": ".png"}, "primary": true}], "photos": {"count": 0, "groups": []}}, "referralId": "e-0-4c65b7a57abde21e76886168-1"}, {"reasons": {"count": 0, "items": [{"summary": "This spot is popular", "type": "general", "reasonName": "globalInteractionReason"}]}, "venue": {"id": "54947dfe498e91fedc33ed21", "name": "Beuster Bar", "location": {"address": "Weserstr. 32", "crossStreet": "Weichselstr.", "lat": 52.48607509078735, "lng": 13.43533254583918, "labeledLatLngs": [{"label": "display", "lat": 52.48607509078735, "lng": 13.43533254583918}], "distance": 206, "postalCode": "12045", "cc": "DE", "city": "Berlin", "state": "Berlin", "country": "Deutschland", "formattedAddress": ["Weserstr. 32 (Weichselstr.)", "12045 Berlin", "Deutschland"]}, "categories": [{"id": "4bf58dd8d48988d11e941735", "name": "Cocktail Bar", "pluralName": "Cocktail Bars", "shortName": "Cocktail", "icon": {"prefix": "https://ss3.4sqi.net/img/categories_v2/nightlife/cocktails_", "suffix": ".png"}, "primary": true}], "photos": {"count": 0, "groups": []}}, "referralId": "e-0-54947dfe498e91fedc33ed21-2"}, {"reasons": {"count": 0, "items": [{"summary": "This spot is popular", "type": "general", "reasonName": "globalInteractionReason"}]}, "venue": {"id": "4c0787252e80a59391b275f9", "name": "Croissanterie", "location": {"address": "Pannierstr. 56", "lat": 52.48705720273476, "lng": 13.43113812508318, "labeledLatLngs": [{"label": "display", "lat": 52.48705720273476, "lng": 13.43113812508318}], "distance": 181, "postalCode": "12045", "cc": "DE", "city": "Berlin", "state": "Berlin", "country": "Deutschland", "formattedAddress": ["Pannierstr. 56", "12045 Berlin", "Deutschland"]}, "categories": [{"id": "4bf58dd8d48988d16a941735", "name": "Bakery", "pluralName": "Bakeries", "shortName": "Bakery", "icon": {"prefix": "https://ss3.4sqi.net/img/categories_v2/food/bakery_", "suffix": ".png"}, "primary": true}], "photos": {"count": 0, "groups": []}}, "referralId": "e-0-4c0787252e80a59391b275f9-3"}, {"reasons": {"count": 0, "items": [{"summary": "This spot is popular", "type": "general", "reasonName": "globalInteractionReason"}]}, "venue": {"id": "50cdf709e4b046175cc99d86", "name": "two and two", "location": {"address": "Pannierstr. 6", "lat": 52.48671275741426, "lng": 13.430849898498758, "labeledLatLngs": [{"label": "display", "lat": 52.48671275741426, "lng": 13.430849898498758}], "distance": 214, "postalCode": "12047", "cc": "DE", "city": "Berlin", "state": "Berlin", "country": "Deutschland", "formattedAddress": ["Pannierstr. 6", "12047 Berlin", "Deutschland"]}, "categories": [{"id": "4bf58dd8d48988d1e0931735", "name": "Coffee Shop", "pluralName": "Coffee Shops", "shortName": "Coffee Shop", "icon": {"prefix": "https://ss3.4sqi.net/img/categories_v2/food/coffeeshop_", "suffix": ".png"}, "primary": true}], "photos": {"count": 0, "groups": []}}, "referralId": "e-0-50cdf709e4b046175cc99d86-4"}, {"reasons": {"count": 0, "items": [{"summary": "This spot is popular", "type": "general", "reasonName": "globalInteractionReason"}]}, "venue": {"id": "596f12919fca56559d3c0a79", "name": "Motif Wein", "location": {"address": "Weserstr. 189", "lat": 52.48621551663885, "lng": 13.435176736944603, "labeledLatLngs": [{"label": "display", "lat": 52.48621551663885, "lng": 13.435176736944603}], "distance": 187, "postalCode": "12045", "cc": "DE", "neighborhood": "Reuterkiez", "city": "Berlin", "state": "Berlin", "country": "Deutschland", "formattedAddress": ["Weserstr. 189", "12045 Berlin", "Deutschland"]}, "categories": [{"id": "4bf58dd8d48988d119951735", "name": "Wine Shop", "pluralName": "Wine Shops", "shortName": "Wine Shop", "icon": {"prefix": "https://ss3.4sqi.net/img/categories_v2/shops/food_wineshop_", "suffix": ".png"}, "primary": true}], "photos": {"count": 0, "groups": []}}, "referralId": "e-0-596f12919fca56559d3c0a79-5"}, {"reasons": {"count": 0, "items": [{"summary": "This spot is popular", "type": "general", "reasonName": "globalInteractionReason"}]}, "venue": {"id": "5141bd62e4b01ee5505840c1", "name": "Jungbusch", "location": {"address": "Weserstr. 16", "crossStreet": "Pannierstr.", "lat": 52.48759209647586, "lng": 13.43122640545345, "labeledLatLngs": [{"label": "display", "lat": 52.48759209647586, "lng": 13.43122640545345}], "distance": 164, "postalCode": "12047", "cc": "DE", "city": "Berlin", "state": "Berlin", "country": "Deutschland", "formattedAddress": ["Weserstr. 16 (Pannierstr.)", "12047 Berlin", "Deutschland"]}, "categories": [{"id": "4bf58dd8d48988d116941735", "name": "Bar", "pluralName": "Bars", "shortName": "Bar", "icon": {"prefix": "https://ss3.4sqi.net/img/categories_v2/nightlife/pub_", "suffix": ".png"}, "primary": true}], "photos": {"count": 0, "groups": []}}, "referralId": "e-0-5141bd62e4b01ee5505840c1-6"}, {"reasons": {"count": 0, "items": [{"summary": "This spot is popular", "type": "general", "reasonName": "globalInteractionReason"}]}, "venue": {"id": "4da44c7922a5f04db7383555", "name": "Al Andalos", "location": {"address": "Sonnenallee 40", "lat": 52.48573516197659, "lng": 13.431296437630069, "labeledLatLngs": [{"label": "display", "lat": 52.48573516197659, "lng": 13.431296437630069}], "distance": 263, "postalCode": "12047", "cc": "DE", "city": "Berlin", "state": "Berlin", "country": "Deutschland", "formattedAddress": ["Sonnenallee 40", "12047 Berlin", "Deutschland"]}, "categories": [{"id": "4bf58dd8d48988d10b941735", "name": "Falafel Restaurant", "pluralName": "Falafel Restaurants", "shortName": "Falafel", "icon": {"prefix": "https://ss3.4sqi.net/img/categories_v2/food/falafel_", "suffix": ".png"}, "primary": true}], "photos": {"count": 0, "groups": []}}, "referralId": "e-0-4da44c7922a5f04db7383555-7"}, {"reasons": {"count": 0, "items": [{"summary": "This spot is popular", "type": "general", "reasonName": "globalInteractionReason"}]}, "venue": {"id": "4fe1c467e4b0ec3854e2afc1", "name": "Caf\u00e9 Espera", "location": {"address": "Sonnenallee 35", "crossStreet": "Pannierstr.", "lat": 52.48603163119862, "lng": 13.430606561820138, "labeledLatLngs": [{"label": "display", "lat": 52.48603163119862, "lng": 13.430606561820138}], "distance": 271, "postalCode": "12045", "cc": "DE", "city": "Berlin", "state": "Berlin", "country": "Deutschland", "formattedAddress": ["Sonnenallee 35 (Pannierstr.)", "12045 Berlin", "Deutschland"]}, "categories": [{"id": "4bf58dd8d48988d1e0931735", "name": "Coffee Shop", "pluralName": "Coffee Shops", "shortName": "Coffee Shop", "icon": {"prefix": "https://ss3.4sqi.net/img/categories_v2/food/coffeeshop_", "suffix": ".png"}, "primary": true}], "photos": {"count": 0, "groups": []}}, "referralId": "e-0-4fe1c467e4b0ec3854e2afc1-8"}, {"reasons": {"count": 0, "items": [{"summary": "This spot is popular", "type": "general", "reasonName": "globalInteractionReason"}]}, "venue": {"id": "54fc4bbb498eb438259ae48e", "name": "Dots", "location": {"address": "Weserstr. 191", "lat": 52.486378631227396, "lng": 13.434567644415887, "labeledLatLngs": [{"label": "display", "lat": 52.486378631227396, "lng": 13.434567644415887}], "distance": 151, "postalCode": "10245", "cc": "DE", "city": "Berlin", "state": "Berlin", "country": "Deutschland", "formattedAddress": ["Weserstr. 191", "10245 Berlin", "Deutschland"]}, "categories": [{"id": "4bf58dd8d48988d1e0931735", "name": "Coffee Shop", "pluralName": "Coffee Shops", "shortName": "Coffee Shop", "icon": {"prefix": "https://ss3.4sqi.net/img/categories_v2/food/coffeeshop_", "suffix": ".png"}, "primary": true}], "photos": {"count": 0, "groups": []}}, "referralId": "e-0-54fc4bbb498eb438259ae48e-9"}, {"reasons": {"count": 0, "items": [{"summary": "This spot is popular", "type": "general", "reasonName": "globalInteractionReason"}]}, "venue": {"id": "53a80c25498e746b7afc8ef7", "name": "Falafel Jakoub", "location": {"address": "Weserstra\u00dfe 14", "lat": 52.487574, "lng": 13.430696, "labeledLatLngs": [{"label": "display", "lat": 52.487574, "lng": 13.430696}], "distance": 200, "postalCode": "12045", "cc": "DE", "city": "Berlin", "state": "Berlin", "country": "Deutschland", "formattedAddress": ["Weserstra\u00dfe 14", "12045 Berlin", "Deutschland"]}, "categories": [{"id": "4bf58dd8d48988d10b941735", "name": "Falafel Restaurant", "pluralName": "Falafel Restaurants", "shortName": "Falafel", "icon": {"prefix": "https://ss3.4sqi.net/img/categories_v2/food/falafel_", "suffix": ".png"}, "primary": true}], "photos": {"count": 0, "groups": []}}, "referralId": "e-0-53a80c25498e746b7afc8ef7-10"}, {"reasons": {"count": 0, "items": [{"summary": "This spot is popular", "type": "general", "reasonName": "globalInteractionReason"}]}, "venue": {"id": "51bdadb3498e8d6f8080f1a7", "name": "Barettino", "location": {"address": "Reuterstra\u00dfe 59", "crossStreet": "Weserstra\u00dfe", "lat": 52.487862271811025, "lng": 13.429088563777132, "labeledLatLngs": [{"label": "display", "lat": 52.487862271811025, "lng": 13.429088563777132}], "distance": 310, "postalCode": "12047", "cc": "DE", "neighborhood": "Reuterkiez", "city": "Berlin", "state": "Berlin", "country": "Deutschland", "formattedAddress": ["Reuterstra\u00dfe 59 (Weserstra\u00dfe)", "12047 Berlin", "Deutschland"]}, "categories": [{"id": "4bf58dd8d48988d1e0931735", "name": "Coffee Shop", "pluralName": "Coffee Shops", "shortName": "Coffee Shop", "icon": {"prefix": "https://ss3.4sqi.net/img/categories_v2/food/coffeeshop_", "suffix": ".png"}, "primary": true}], "photos": {"count": 0, "groups": []}}, "referralId": "e-0-51bdadb3498e8d6f8080f1a7-11"}, {"reasons": {"count": 0, "items": [{"summary": "This spot is popular", "type": "general", "reasonName": "globalInteractionReason"}]}, "venue": {"id": "4c4d7b739932e21e9a3940cc", "name": "Azzam", "location": {"address": "Sonnenallee 54", "lat": 52.484956, "lng": 13.432942, "labeledLatLngs": [{"label": "display", "lat": 52.484956, "lng": 13.432942}], "distance": 300, "postalCode": "12045", "cc": "DE", "city": "Berlin", "state": "Berlin", "country": "Deutschland", "formattedAddress": ["Sonnenallee 54", "12045 Berlin", "Deutschland"]}, "categories": [{"id": "4bf58dd8d48988d115941735", "name": "Middle Eastern Restaurant", "pluralName": "Middle Eastern Restaurants", "shortName": "Middle Eastern", "icon": {"prefix": "https://ss3.4sqi.net/img/categories_v2/food/middleeastern_", "suffix": ".png"}, "primary": true}], "photos": {"count": 0, "groups": []}}, "referralId": "e-0-4c4d7b739932e21e9a3940cc-12"}, {"reasons": {"count": 0, "items": [{"summary": "This spot is popular", "type": "general", "reasonName": "globalInteractionReason"}]}, "venue": {"id": "5618df7d498e89360d919fc6", "name": "CAMON Coffee", "location": {"address": "Sonnenallee 27", "lat": 52.486457277525204, "lng": 13.429397444207641, "labeledLatLngs": [{"label": "display", "lat": 52.486457277525204, "lng": 13.429397444207641}], "distance": 315, "postalCode": "12047", "cc": "DE", "neighborhood": "Reuterkiez", "city": "Berlin", "state": "Berlin", "country": "Deutschland", "formattedAddress": ["Sonnenallee 27", "12047 Berlin", "Deutschland"]}, "categories": [{"id": "4bf58dd8d48988d1e0931735", "name": "Coffee Shop", "pluralName": "Coffee Shops", "shortName": "Coffee Shop", "icon": {"prefix": "https://ss3.4sqi.net/img/categories_v2/food/coffeeshop_", "suffix": ".png"}, "primary": true}], "photos": {"count": 0, "groups": []}}, "referralId": "e-0-5618df7d498e89360d919fc6-13"}, {"reasons": {"count": 0, "items": [{"summary": "This spot is popular", "type": "general", "reasonName": "globalInteractionReason"}]}, "venue": {"id": "4adcda7af964a520de4621e3", "name": "SilverFuture", "location": {"address": "Weserstr. 206", "lat": 52.48797319037544, "lng": 13.430043463863086, "labeledLatLngs": [{"label": "display", "lat": 52.48797319037544, "lng": 13.430043463863086}], "distance": 247, "postalCode": "12047", "cc": "DE", "city": "Berlin", "state": "Berlin", "country": "Deutschland", "formattedAddress": ["Weserstr. 206", "12047 Berlin", "Deutschland"]}, "categories": [{"id": "4bf58dd8d48988d1d8941735", "name": "Gay Bar", "pluralName": "Gay Bars", "shortName": "Gay Bar", "icon": {"prefix": "https://ss3.4sqi.net/img/categories_v2/nightlife/gaybar_", "suffix": ".png"}, "primary": true}], "photos": {"count": 0, "groups": []}}, "referralId": "e-0-4adcda7af964a520de4621e3-14"}, {"reasons": {"count": 0, "items": [{"summary": "This spot is popular", "type": "general", "reasonName": "globalInteractionReason"}]}, "venue": {"id": "5995c2e4a795bd0cd28cc096", "name": "Kaduka", "location": {"address": "Weserstra\u00dfe 207", "lat": 52.488115, "lng": 13.430048, "labeledLatLngs": [{"label": "display", "lat": 52.488115, "lng": 13.430048}], "distance": 250, "postalCode": "12047", "cc": "DE", "neighborhood": "Reuterkiez", "city": "Berlin", "state": "Berlin", "country": "Deutschland", "formattedAddress": ["Weserstra\u00dfe 207", "12047 Berlin", "Deutschland"]}, "categories": [{"id": "4bf58dd8d48988d116941735", "name": "Bar", "pluralName": "Bars", "shortName": "Bar", "icon": {"prefix": "https://ss3.4sqi.net/img/categories_v2/nightlife/pub_", "suffix": ".png"}, "primary": true}], "photos": {"count": 0, "groups": []}}, "referralId": "e-0-5995c2e4a795bd0cd28cc096-15"}, {"reasons": {"count": 0, "items": [{"summary": "This spot is popular", "type": "general", "reasonName": "globalInteractionReason"}]}, "venue": {"id": "4c3df96cb8b4be9a3f7ccbef", "name": "Berlin Burger International", "location": {"address": "Pannierstr. 5", "lat": 52.486519, "lng": 13.430731, "labeledLatLngs": [{"label": "display", "lat": 52.486519, "lng": 13.430731}], "distance": 232, "postalCode": "12047", "cc": "DE", "neighborhood": "Reuterkiez", "city": "Berlin", "state": "Berlin", "country": "Deutschland", "formattedAddress": ["Pannierstr. 5", "12047 Berlin", "Deutschland"]}, "categories": [{"id": "4bf58dd8d48988d16c941735", "name": "Burger Joint", "pluralName": "Burger Joints", "shortName": "Burgers", "icon": {"prefix": "https://ss3.4sqi.net/img/categories_v2/food/burger_", "suffix": ".png"}, "primary": true}], "photos": {"count": 0, "groups": []}}, "referralId": "e-0-4c3df96cb8b4be9a3f7ccbef-16"}, {"reasons": {"count": 0, "items": [{"summary": "This spot is popular", "type": "general", "reasonName": "globalInteractionReason"}]}, "venue": {"id": "4fdcfc43e4b05197cd77a00c", "name": "Vater", "location": {"address": "Reuterstr. 27", "crossStreet": "Sonnenallee", "lat": 52.48677036855618, "lng": 13.428812221937408, "labeledLatLngs": [{"label": "display", "lat": 52.48677036855618, "lng": 13.428812221937408}], "distance": 341, "postalCode": "12047", "cc": "DE", "city": "Berlin", "state": "Berlin", "country": "Deutschland", "formattedAddress": ["Reuterstr. 27 (Sonnenallee)", "12047 Berlin", "Deutschland"]}, "categories": [{"id": "4bf58dd8d48988d116941735", "name": "Bar", "pluralName": "Bars", "shortName": "Bar", "icon": {"prefix": "https://ss3.4sqi.net/img/categories_v2/nightlife/pub_", "suffix": ".png"}, "primary": true}], "photos": {"count": 0, "groups": []}}, "referralId": "e-0-4fdcfc43e4b05197cd77a00c-17"}, {"reasons": {"count": 0, "items": [{"summary": "This spot is popular", "type": "general", "reasonName": "globalInteractionReason"}]}, "venue": {"id": "526ac1e111d27b2a996ec57a", "name": "Kn\u00f6delwirtschaft", "location": {"address": "Fuldastrasse 33", "lat": 52.486654, "lng": 13.439442, "labeledLatLngs": [{"label": "display", "lat": 52.486654, "lng": 13.439442}], "distance": 407, "postalCode": "12045", "cc": "DE", "neighborhood": "Reuterkiez", "city": "Berlin", "state": "Berlin", "country": "Deutschland", "formattedAddress": ["Fuldastrasse 33", "12045 Berlin", "Deutschland"]}, "categories": [{"id": "4bf58dd8d48988d108941735", "name": "Dumpling Restaurant", "pluralName": "Dumpling Restaurants", "shortName": "Dumplings", "icon": {"prefix": "https://ss3.4sqi.net/img/categories_v2/food/dumplings_", "suffix": ".png"}, "primary": true}], "photos": {"count": 0, "groups": []}}, "referralId": "e-0-526ac1e111d27b2a996ec57a-18"}, {"reasons": {"count": 0, "items": [{"summary": "This spot is popular", "type": "general", "reasonName": "globalInteractionReason"}]}, "venue": {"id": "4d18e34ce190721e6f342521", "name": "F\u00f6llerei", "location": {"address": "Weichselstr. 30", "lat": 52.48757148381002, "lng": 13.437315756069628, "labeledLatLngs": [{"label": "display", "lat": 52.48757148381002, "lng": 13.437315756069628}], "distance": 248, "postalCode": "12045", "cc": "DE", "city": "Berlin", "state": "Berlin", "country": "Deutschland", "formattedAddress": ["Weichselstr. 30", "12045 Berlin", "Deutschland"]}, "categories": [{"id": "4bf58dd8d48988d10d941735", "name": "German Restaurant", "pluralName": "German Restaurants", "shortName": "German", "icon": {"prefix": "https://ss3.4sqi.net/img/categories_v2/food/german_", "suffix": ".png"}, "primary": true}], "photos": {"count": 0, "groups": []}}, "referralId": "e-0-4d18e34ce190721e6f342521-19"}, {"reasons": {"count": 0, "items": [{"summary": "This spot is popular", "type": "general", "reasonName": "globalInteractionReason"}]}, "venue": {"id": "5a579aadb2958f07a912d805", "name": "Style Stallone", "location": {"address": "Reuterstr. 57", "crossStreet": "Weserstr.", "lat": 52.48805926371022, "lng": 13.428806662559508, "labeledLatLngs": [{"label": "display", "lat": 52.48805926371022, "lng": 13.428806662559508}], "distance": 331, "postalCode": "12047", "cc": "DE", "neighborhood": "Reuterkiez", "city": "Berlin", "state": "Berlin", "country": "Deutschland", "formattedAddress": ["Reuterstr. 57 (Weserstr.)", "12047 Berlin", "Deutschland"]}, "categories": [{"id": "4bf58dd8d48988d1c5941735", "name": "Sandwich Place", "pluralName": "Sandwich Places", "shortName": "Sandwiches", "icon": {"prefix": "https://ss3.4sqi.net/img/categories_v2/food/deli_", "suffix": ".png"}, "primary": true}], "photos": {"count": 0, "groups": []}}, "referralId": "e-0-5a579aadb2958f07a912d805-20"}, {"reasons": {"count": 0, "items": [{"summary": "This spot is popular", "type": "general", "reasonName": "globalInteractionReason"}]}, "venue": {"id": "4b71aae4f964a520d1542de3", "name": "TiER", "location": {"address": "Weserstr. 42", "crossStreet": "Fuldastr.", "lat": 52.48495340000144, "lng": 13.437549744594374, "labeledLatLngs": [{"label": "display", "lat": 52.48495340000144, "lng": 13.437549744594374}], "distance": 397, "postalCode": "12045", "cc": "DE", "city": "Berlin", "state": "Berlin", "country": "Deutschland", "formattedAddress": ["Weserstr. 42 (Fuldastr.)", "12045 Berlin", "Deutschland"]}, "categories": [{"id": "4bf58dd8d48988d11e941735", "name": "Cocktail Bar", "pluralName": "Cocktail Bars", "shortName": "Cocktail", "icon": {"prefix": "https://ss3.4sqi.net/img/categories_v2/nightlife/cocktails_", "suffix": ".png"}, "primary": true}], "photos": {"count": 0, "groups": []}, "venuePage": {"id": "33134902"}}, "referralId": "e-0-4b71aae4f964a520d1542de3-21"}, {"reasons": {"count": 0, "items": [{"summary": "This spot is popular", "type": "general", "reasonName": "globalInteractionReason"}]}, "venue": {"id": "4e19d72052b123a586e3e0a3", "name": "Sahara Imbiss", "location": {"address": "Reuterstr. 56", "lat": 52.488362375223325, "lng": 13.42875975681633, "labeledLatLngs": [{"label": "display", "lat": 52.488362375223325, "lng": 13.42875975681633}], "distance": 341, "postalCode": "12047", "cc": "DE", "city": "Berlin", "state": "Berlin", "country": "Deutschland", "formattedAddress": ["Reuterstr. 56", "12047 Berlin", "Deutschland"]}, "categories": [{"id": "4bf58dd8d48988d1c8941735", "name": "African Restaurant", "pluralName": "African Restaurants", "shortName": "African", "icon": {"prefix": "https://ss3.4sqi.net/img/categories_v2/food/african_", "suffix": ".png"}, "primary": true}], "photos": {"count": 0, "groups": []}}, "referralId": "e-0-4e19d72052b123a586e3e0a3-22"}, {"reasons": {"count": 0, "items": [{"summary": "This spot is popular", "type": "general", "reasonName": "globalInteractionReason"}]}, "venue": {"id": "539368bc498e7b5d5b8b4fd7", "name": "IL KINO", "location": {"address": "Nansenstr. 22", "crossStreet": "Maybachufer", "lat": 52.49163582724672, "lng": 13.432972976382707, "labeledLatLngs": [{"label": "display", "lat": 52.49163582724672, "lng": 13.432972976382707}], "distance": 449, "postalCode": "12047", "cc": "DE", "city": "Berlin", "state": "Berlin", "country": "Deutschland", "formattedAddress": ["Nansenstr. 22 (Maybachufer)", "12047 Berlin", "Deutschland"]}, "categories": [{"id": "4bf58dd8d48988d17e941735", "name": "Indie Movie Theater", "pluralName": "Indie Movie Theaters", "shortName": "Indie Movies", "icon": {"prefix": "https://ss3.4sqi.net/img/categories_v2/arts_entertainment/movietheater_", "suffix": ".png"}, "primary": true}], "photos": {"count": 0, "groups": []}}, "referralId": "e-0-539368bc498e7b5d5b8b4fd7-23"}, {"reasons": {"count": 0, "items": [{"summary": "This spot is popular", "type": "general", "reasonName": "globalInteractionReason"}]}, "venue": {"id": "56019a11498e453737b87fb4", "name": "Kauz & Kiebitz", "location": {"address": "Reuterstr. 47", "crossStreet": "Lenaustr.", "lat": 52.49010080236701, "lng": 13.42879593372345, "labeledLatLngs": [{"label": "display", "lat": 52.49010080236701, "lng": 13.42879593372345}], "distance": 429, "postalCode": "12047", "cc": "DE", "city": "Berlin", "state": "Berlin", "country": "Deutschland", "formattedAddress": ["Reuterstr. 47 (Lenaustr.)", "12047 Berlin", "Deutschland"]}, "categories": [{"id": "4bf58dd8d48988d116941735", "name": "Bar", "pluralName": "Bars", "shortName": "Bar", "icon": {"prefix": "https://ss3.4sqi.net/img/categories_v2/nightlife/pub_", "suffix": ".png"}, "primary": true}], "photos": {"count": 0, "groups": []}, "venuePage": {"id": "151901659"}}, "referralId": "e-0-56019a11498e453737b87fb4-24"}, {"reasons": {"count": 0, "items": [{"summary": "This spot is popular", "type": "general", "reasonName": "globalInteractionReason"}]}, "venue": {"id": "5aa19d94c824ae34d4f21cef", "name": "W Pizza", "location": {"address": "Fuldastr. 31", "crossStreet": "Weichselplatz", "lat": 52.48691591181872, "lng": 13.439900324151909, "labeledLatLngs": [{"label": "display", "lat": 52.48691591181872, "lng": 13.439900324151909}], "distance": 431, "postalCode": "12045", "cc": "DE", "city": "Berlin", "state": "Berlin", "country": "Deutschland", "formattedAddress": ["Fuldastr. 31 (Weichselplatz)", "12045 Berlin", "Deutschland"]}, "categories": [{"id": "4bf58dd8d48988d1ca941735", "name": "Pizza Place", "pluralName": "Pizza Places", "shortName": "Pizza", "icon": {"prefix": "https://ss3.4sqi.net/img/categories_v2/food/pizza_", "suffix": ".png"}, "primary": true}], "photos": {"count": 0, "groups": []}}, "referralId": "e-0-5aa19d94c824ae34d4f21cef-25"}, {"reasons": {"count": 0, "items": [{"summary": "This spot is popular", "type": "general", "reasonName": "globalInteractionReason"}]}, "venue": {"id": "537680d6498e82a2811855b7", "name": "Dschungel", "location": {"address": "Friedelstr. 12", "lat": 52.489248072596396, "lng": 13.427733281469342, "labeledLatLngs": [{"label": "display", "lat": 52.489248072596396, "lng": 13.427733281469342}], "distance": 439, "postalCode": "12047", "cc": "DE", "city": "Berlin", "state": "Berlin", "country": "Deutschland", "formattedAddress": ["Friedelstr. 12", "12047 Berlin", "Deutschland"]}, "categories": [{"id": "4bf58dd8d48988d116941735", "name": "Bar", "pluralName": "Bars", "shortName": "Bar", "icon": {"prefix": "https://ss3.4sqi.net/img/categories_v2/nightlife/pub_", "suffix": ".png"}, "primary": true}], "photos": {"count": 0, "groups": []}}, "referralId": "e-0-537680d6498e82a2811855b7-26"}, {"reasons": {"count": 0, "items": [{"summary": "This spot is popular", "type": "general", "reasonName": "globalInteractionReason"}]}, "venue": {"id": "58fbd9d4a423622722ea16a7", "name": "Truffle Pig Cocktail Bar", "location": {"address": "Reuterstra\u00dfe 47", "lat": 52.490061, "lng": 13.428611, "labeledLatLngs": [{"label": "display", "lat": 52.490061, "lng": 13.428611}], "distance": 436, "postalCode": "12047", "cc": "DE", "city": "Berlin", "state": "Berlin", "country": "Deutschland", "formattedAddress": ["Reuterstra\u00dfe 47", "12047 Berlin", "Deutschland"]}, "categories": [{"id": "4bf58dd8d48988d11e941735", "name": "Cocktail Bar", "pluralName": "Cocktail Bars", "shortName": "Cocktail", "icon": {"prefix": "https://ss3.4sqi.net/img/categories_v2/nightlife/cocktails_", "suffix": ".png"}, "primary": true}], "photos": {"count": 0, "groups": []}}, "referralId": "e-0-58fbd9d4a423622722ea16a7-27"}, {"reasons": {"count": 0, "items": [{"summary": "This spot is popular", "type": "general", "reasonName": "globalInteractionReason"}]}, "venue": {"id": "4e7e15768b8195460576e203", "name": "Nudelbude", "location": {"address": "Weichselstr. 64", "lat": 52.484264420812124, "lng": 13.432944575923711, "labeledLatLngs": [{"label": "display", "lat": 52.484264420812124, "lng": 13.432944575923711}], "distance": 376, "postalCode": "12043", "cc": "DE", "city": "Berlin", "state": "Berlin", "country": "Deutschland", "formattedAddress": ["Weichselstr. 64", "12043 Berlin", "Deutschland"]}, "categories": [{"id": "4bf58dd8d48988d110941735", "name": "Italian Restaurant", "pluralName": "Italian Restaurants", "shortName": "Italian", "icon": {"prefix": "https://ss3.4sqi.net/img/categories_v2/food/italian_", "suffix": ".png"}, "primary": true}], "photos": {"count": 0, "groups": []}}, "referralId": "e-0-4e7e15768b8195460576e203-28"}, {"reasons": {"count": 0, "items": [{"summary": "This spot is popular", "type": "general", "reasonName": "globalInteractionReason"}]}, "venue": {"id": "52da57eb11d289d9041e87ab", "name": "Roamers", "location": {"address": "Pannierstr. 64", "lat": 52.48543195769766, "lng": 13.429414431378694, "labeledLatLngs": [{"label": "display", "lat": 52.48543195769766, "lng": 13.429414431378694}], "distance": 376, "postalCode": "12047", "cc": "DE", "city": "Berlin", "state": "Berlin", "country": "Deutschland", "formattedAddress": ["Pannierstr. 64", "12047 Berlin", "Deutschland"]}, "categories": [{"id": "4bf58dd8d48988d1e0931735", "name": "Coffee Shop", "pluralName": "Coffee Shops", "shortName": "Coffee Shop", "icon": {"prefix": "https://ss3.4sqi.net/img/categories_v2/food/coffeeshop_", "suffix": ".png"}, "primary": true}], "photos": {"count": 0, "groups": []}}, "referralId": "e-0-52da57eb11d289d9041e87ab-29"}, {"reasons": {"count": 0, "items": [{"summary": "This spot is popular", "type": "general", "reasonName": "globalInteractionReason"}]}, "venue": {"id": "540afe74498e77fa823a120d", "name": "Repeater", "location": {"address": "Pannierstra\u00dfe 45", "crossStreet": "Framstra\u00dfe", "lat": 52.48905043101504, "lng": 13.433035943741507, "labeledLatLngs": [{"label": "display", "lat": 52.48905043101504, "lng": 13.433035943741507}], "distance": 164, "cc": "DE", "city": "Berlin", "state": "Berlin", "country": "Deutschland", "formattedAddress": ["Pannierstra\u00dfe 45 (Framstra\u00dfe)", "Berlin", "Deutschland"]}, "categories": [{"id": "4bf58dd8d48988d101951735", "name": "Thrift / Vintage Store", "pluralName": "Thrift / Vintage Stores", "shortName": "Thrift / Vintage", "icon": {"prefix": "https://ss3.4sqi.net/img/categories_v2/shops/default_", "suffix": ".png"}, "primary": true}], "photos": {"count": 0, "groups": []}}, "referralId": "e-0-540afe74498e77fa823a120d-30"}, {"reasons": {"count": 0, "items": [{"summary": "This spot is popular", "type": "general", "reasonName": "globalInteractionReason"}]}, "venue": {"id": "4c4d9711f53d0f47fc2c3fa5", "name": "Indian Dhaba Mira", "location": {"address": "Pannierstr. 40", "lat": 52.4900201599532, "lng": 13.43403739916021, "labeledLatLngs": [{"label": "display", "lat": 52.4900201599532, "lng": 13.43403739916021}], "distance": 268, "postalCode": "12047", "cc": "DE", "city": "Berlin", "state": "Berlin", "country": "Deutschland", "formattedAddress": ["Pannierstr. 40", "12047 Berlin", "Deutschland"]}, "categories": [{"id": "4bf58dd8d48988d10f941735", "name": "Indian Restaurant", "pluralName": "Indian Restaurants", "shortName": "Indian", "icon": {"prefix": "https://ss3.4sqi.net/img/categories_v2/food/indian_", "suffix": ".png"}, "primary": true}], "photos": {"count": 0, "groups": []}}, "referralId": "e-0-4c4d9711f53d0f47fc2c3fa5-31"}, {"reasons": {"count": 0, "items": [{"summary": "This spot is popular", "type": "general", "reasonName": "globalInteractionReason"}]}, "venue": {"id": "4bc2f443abf495211814c393", "name": "RISA Chicken", "location": {"address": "Sonnenallee 26", "lat": 52.48657938263443, "lng": 13.428894327314888, "labeledLatLngs": [{"label": "display", "lat": 52.48657938263443, "lng": 13.428894327314888}], "distance": 342, "postalCode": "12427", "cc": "DE", "city": "Berlin", "state": "Berlin", "country": "Deutschland", "formattedAddress": ["Sonnenallee 26", "12427 Berlin", "Deutschland"]}, "categories": [{"id": "4d4ae6fc7a7b7dea34424761", "name": "Fried Chicken Joint", "pluralName": "Fried Chicken Joints", "shortName": "Fried Chicken", "icon": {"prefix": "https://ss3.4sqi.net/img/categories_v2/food/friedchicken_", "suffix": ".png"}, "primary": true}], "photos": {"count": 0, "groups": []}}, "referralId": "e-0-4bc2f443abf495211814c393-32"}, {"reasons": {"count": 0, "items": [{"summary": "This spot is popular", "type": "general", "reasonName": "globalInteractionReason"}]}, "venue": {"id": "4e3d8c53d22d102e854338eb", "name": "Sadhu 2", "location": {"address": "Panierstr. 54", "lat": 52.48770432, "lng": 13.43133189, "labeledLatLngs": [{"label": "display", "lat": 52.48770432, "lng": 13.43133189}], "distance": 157, "postalCode": "12047", "cc": "DE", "city": "Berlin", "state": "Berlin", "country": "Deutschland", "formattedAddress": ["Panierstr. 54", "12047 Berlin", "Deutschland"]}, "categories": [{"id": "52e81612bcbc57f1066b79f8", "name": "Pakistani Restaurant", "pluralName": "Pakistani Restaurants", "shortName": "Pakistani", "icon": {"prefix": "https://ss3.4sqi.net/img/categories_v2/food/default_", "suffix": ".png"}, "primary": true}], "photos": {"count": 0, "groups": []}}, "referralId": "e-0-4e3d8c53d22d102e854338eb-33"}, {"reasons": {"count": 0, "items": [{"summary": "This spot is popular", "type": "general", "reasonName": "globalInteractionReason"}]}, "venue": {"id": "571ba72e498e97476dd4ec1f", "name": "Holy Flat", "location": {"address": "Lenaustr. 10", "lat": 52.490134, "lng": 13.427201, "labeledLatLngs": [{"label": "display", "lat": 52.490134, "lng": 13.427201}], "distance": 518, "postalCode": "12047", "cc": "DE", "city": "Berlin", "state": "Berlin", "country": "Deutschland", "formattedAddress": ["Lenaustr. 10", "12047 Berlin", "Deutschland"]}, "categories": [{"id": "4bf58dd8d48988d1d3941735", "name": "Vegetarian / Vegan Restaurant", "pluralName": "Vegetarian / Vegan Restaurants", "shortName": "Vegetarian / Vegan", "icon": {"prefix": "https://ss3.4sqi.net/img/categories_v2/food/vegetarian_", "suffix": ".png"}, "primary": true}], "photos": {"count": 0, "groups": []}, "venuePage": {"id": "498245490"}}, "referralId": "e-0-571ba72e498e97476dd4ec1f-34"}, {"reasons": {"count": 0, "items": [{"summary": "This spot is popular", "type": "general", "reasonName": "globalInteractionReason"}]}, "venue": {"id": "50a809bce4b0445d666a497a", "name": "Peppis K\u00e4se Lager", "location": {"address": "Weichselstr. 65", "lat": 52.484166410417856, "lng": 13.432802886198603, "labeledLatLngs": [{"label": "display", "lat": 52.484166410417856, "lng": 13.432802886198603}], "distance": 388, "postalCode": "12043", "cc": "DE", "city": "Berlin", "state": "Berlin", "country": "Deutschland", "formattedAddress": ["Weichselstr. 65", "12043 Berlin", "Deutschland"]}, "categories": [{"id": "4bf58dd8d48988d11e951735", "name": "Cheese Shop", "pluralName": "Cheese Shops", "shortName": "Cheese Shop", "icon": {"prefix": "https://ss3.4sqi.net/img/categories_v2/shops/food_cheese_", "suffix": ".png"}, "primary": true}], "photos": {"count": 0, "groups": []}}, "referralId": "e-0-50a809bce4b0445d666a497a-35"}, {"reasons": {"count": 0, "items": [{"summary": "This spot is popular", "type": "general", "reasonName": "globalInteractionReason"}]}, "venue": {"id": "4bbcf4290780952198fdd991", "name": "SoulCat", "location": {"address": "Pannierstr. 53", "lat": 52.48792468513237, "lng": 13.432005770231948, "labeledLatLngs": [{"label": "display", "lat": 52.48792468513237, "lng": 13.432005770231948}], "distance": 116, "postalCode": "12047", "cc": "DE", "city": "Berlin", "state": "Berlin", "country": "Deutschland", "formattedAddress": ["Pannierstr. 53", "12047 Berlin", "Deutschland"]}, "categories": [{"id": "4bf58dd8d48988d116941735", "name": "Bar", "pluralName": "Bars", "shortName": "Bar", "icon": {"prefix": "https://ss3.4sqi.net/img/categories_v2/nightlife/pub_", "suffix": ".png"}, "primary": true}], "photos": {"count": 0, "groups": []}}, "referralId": "e-0-4bbcf4290780952198fdd991-36"}, {"reasons": {"count": 0, "items": [{"summary": "This spot is popular", "type": "general", "reasonName": "globalInteractionReason"}]}, "venue": {"id": "561bebfd498e206396f53e59", "name": "Lager Lager", "location": {"address": "Pfl\u00fcgerstr. 68", "lat": 52.4914524228706, "lng": 13.428622740208365, "labeledLatLngs": [{"label": "display", "lat": 52.4914524228706, "lng": 13.428622740208365}], "distance": 545, "postalCode": "12047", "cc": "DE", "city": "Berlin", "state": "Berlin", "country": "Deutschland", "formattedAddress": ["Pfl\u00fcgerstr. 68", "12047 Berlin", "Deutschland"]}, "categories": [{"id": "5370f356bcbc57f1066c94c2", "name": "Beer Store", "pluralName": "Beer Stores", "shortName": "Beer Store", "icon": {"prefix": "https://ss3.4sqi.net/img/categories_v2/nightlife/beergarden_", "suffix": ".png"}, "primary": true}], "photos": {"count": 0, "groups": []}}, "referralId": "e-0-561bebfd498e206396f53e59-37"}, {"reasons": {"count": 0, "items": [{"summary": "This spot is popular", "type": "general", "reasonName": "globalInteractionReason"}]}, "venue": {"id": "5cf2561666f3cd002c2df75d", "name": "Mucha Muchacha", "location": {"address": "Pfl\u00fcgerstr. 19", "crossStreet": "Nansenstr.", "lat": 52.49058020719738, "lng": 13.431588650273625, "labeledLatLngs": [{"label": "display", "lat": 52.49058020719738, "lng": 13.431588650273625}], "distance": 357, "postalCode": "12047", "cc": "DE", "city": "Berlin", "state": "Berlin", "country": "Deutschland", "formattedAddress": ["Pfl\u00fcgerstr. 19 (Nansenstr.)", "12047 Berlin", "Deutschland"]}, "categories": [{"id": "4bf58dd8d48988d1c1941735", "name": "Mexican Restaurant", "pluralName": "Mexican Restaurants", "shortName": "Mexican", "icon": {"prefix": "https://ss3.4sqi.net/img/categories_v2/food/mexican_", "suffix": ".png"}, "primary": true}], "photos": {"count": 0, "groups": []}}, "referralId": "e-0-5cf2561666f3cd002c2df75d-38"}, {"reasons": {"count": 0, "items": [{"summary": "This spot is popular", "type": "general", "reasonName": "globalInteractionReason"}]}, "venue": {"id": "4e99a92129c274e1f93b247c", "name": "G\u00f6zleme Restaurant", "location": {"address": "Karl-Marx-Stra\u00dfe 35", "lat": 52.48409600157351, "lng": 13.429356304818436, "labeledLatLngs": [{"label": "display", "lat": 52.48409600157351, "lng": 13.429356304818436}], "distance": 488, "cc": "DE", "city": "Berlin", "state": "Berlin", "country": "Deutschland", "formattedAddress": ["Karl-Marx-Stra\u00dfe 35", "Berlin", "Deutschland"]}, "categories": [{"id": "4f04af1f2fb6e1c99f3db0bb", "name": "Turkish Restaurant", "pluralName": "Turkish Restaurants", "shortName": "Turkish", "icon": {"prefix": "https://ss3.4sqi.net/img/categories_v2/food/turkish_", "suffix": ".png"}, "primary": true}], "photos": {"count": 0, "groups": []}}, "referralId": "e-0-4e99a92129c274e1f93b247c-39"}, {"reasons": {"count": 0, "items": [{"summary": "This spot is popular", "type": "general", "reasonName": "globalInteractionReason"}]}, "venue": {"id": "579a79f2498e32737e25dab0", "name": "CODA", "location": {"address": "Friedelstr. 47", "lat": 52.49008641524158, "lng": 13.427598118442422, "labeledLatLngs": [{"label": "display", "lat": 52.49008641524158, "lng": 13.427598118442422}], "distance": 493, "postalCode": "12047", "cc": "DE", "city": "Berlin", "state": "Berlin", "country": "Deutschland", "formattedAddress": ["Friedelstr. 47", "12047 Berlin", "Deutschland"]}, "categories": [{"id": "56aa371be4b08b9a8d573538", "name": "Theme Restaurant", "pluralName": "Theme Restaurants", "shortName": "Theme Restaurant", "icon": {"prefix": "https://ss3.4sqi.net/img/categories_v2/food/default_", "suffix": ".png"}, "primary": true}], "photos": {"count": 0, "groups": []}}, "referralId": "e-0-579a79f2498e32737e25dab0-40"}, {"reasons": {"count": 0, "items": [{"summary": "This spot is popular", "type": "general", "reasonName": "globalInteractionReason"}]}, "venue": {"id": "4c753299604a3704e5eb8149", "name": "Pavillon am Ufer", "location": {"address": "Paul-Lincke-Ufer 4", "lat": 52.49166917576547, "lng": 13.435406297125612, "labeledLatLngs": [{"label": "display", "lat": 52.49166917576547, "lng": 13.435406297125612}], "distance": 466, "postalCode": "10999", "cc": "DE", "city": "Berlin", "state": "Berlin", "country": "Deutschland", "formattedAddress": ["Paul-Lincke-Ufer 4", "10999 Berlin", "Deutschland"]}, "categories": [{"id": "4bf58dd8d48988d1c7941735", "name": "Snack Place", "pluralName": "Snack Places", "shortName": "Snacks", "icon": {"prefix": "https://ss3.4sqi.net/img/categories_v2/food/snacks_", "suffix": ".png"}, "primary": true}], "photos": {"count": 0, "groups": []}}, "referralId": "e-0-4c753299604a3704e5eb8149-41"}, {"reasons": {"count": 0, "items": [{"summary": "This spot is popular", "type": "general", "reasonName": "globalInteractionReason"}]}, "venue": {"id": "4adcda79f964a520bb4621e3", "name": "\u00c4", "location": {"address": "Weserstr. 40", "lat": 52.485106735199366, "lng": 13.437436604583509, "labeledLatLngs": [{"label": "display", "lat": 52.485106735199366, "lng": 13.437436604583509}], "distance": 379, "postalCode": "12045", "cc": "DE", "city": "Berlin", "state": "Berlin", "country": "Deutschland", "formattedAddress": ["Weserstr. 40", "12045 Berlin", "Deutschland"]}, "categories": [{"id": "4bf58dd8d48988d118941735", "name": "Dive Bar", "pluralName": "Dive Bars", "shortName": "Dive Bar", "icon": {"prefix": "https://ss3.4sqi.net/img/categories_v2/nightlife/divebar_", "suffix": ".png"}, "primary": true}], "photos": {"count": 0, "groups": []}}, "referralId": "e-0-4adcda79f964a520bb4621e3-42"}, {"reasons": {"count": 0, "items": [{"summary": "This spot is popular", "type": "general", "reasonName": "globalInteractionReason"}]}, "venue": {"id": "4eb28819f9f43874814e80fe", "name": "Bully's Bakery", "location": {"address": "Friedelstr. 7", "crossStreet": "Weserstr.", "lat": 52.48832692687704, "lng": 13.428114602491275, "labeledLatLngs": [{"label": "display", "lat": 52.48832692687704, "lng": 13.428114602491275}], "distance": 383, "postalCode": "12047", "cc": "DE", "city": "Berlin", "state": "Berlin", "country": "Deutschland", "formattedAddress": ["Friedelstr. 7 (Weserstr.)", "12047 Berlin", "Deutschland"]}, "categories": [{"id": "4bf58dd8d48988d1e0931735", "name": "Coffee Shop", "pluralName": "Coffee Shops", "shortName": "Coffee Shop", "icon": {"prefix": "https://ss3.4sqi.net/img/categories_v2/food/coffeeshop_", "suffix": ".png"}, "primary": true}], "photos": {"count": 0, "groups": []}, "venuePage": {"id": "77920829"}}, "referralId": "e-0-4eb28819f9f43874814e80fe-43"}, {"reasons": {"count": 0, "items": [{"summary": "This spot is popular", "type": "general", "reasonName": "globalInteractionReason"}]}, "venue": {"id": "4c37721e93db0f47d1cc1f92", "name": "Ratzeputz", "location": {"address": "Weserstr. 182-183", "crossStreet": "Fuldastr.", "lat": 52.485278926100385, "lng": 13.437143823953551, "labeledLatLngs": [{"label": "display", "lat": 52.485278926100385, "lng": 13.437143823953551}], "distance": 352, "postalCode": "12045", "cc": "DE", "city": "Berlin", "state": "Berlin", "country": "Deutschland", "formattedAddress": ["Weserstr. 182-183 (Fuldastr.)", "12045 Berlin", "Deutschland"]}, "categories": [{"id": "4bf58dd8d48988d116941735", "name": "Bar", "pluralName": "Bars", "shortName": "Bar", "icon": {"prefix": "https://ss3.4sqi.net/img/categories_v2/nightlife/pub_", "suffix": ".png"}, "primary": true}], "photos": {"count": 0, "groups": []}}, "referralId": "e-0-4c37721e93db0f47d1cc1f92-44"}, {"reasons": {"count": 0, "items": [{"summary": "This spot is popular", "type": "general", "reasonName": "globalInteractionReason"}]}, "venue": {"id": "5304930a11d254621af09be2", "name": "eins44 Kantine Neuk\u00f6lln", "location": {"address": "Elbestr. 28/29", "crossStreet": "Weserstr.", "lat": 52.485255362417014, "lng": 13.439657817160553, "labeledLatLngs": [{"label": "display", "lat": 52.485255362417014, "lng": 13.439657817160553}], "distance": 485, "postalCode": "12045", "cc": "DE", "city": "Berlin", "state": "Berlin", "country": "Deutschland", "formattedAddress": ["Elbestr. 28/29 (Weserstr.)", "12045 Berlin", "Deutschland"]}, "categories": [{"id": "4bf58dd8d48988d10d941735", "name": "German Restaurant", "pluralName": "German Restaurants", "shortName": "German", "icon": {"prefix": "https://ss3.4sqi.net/img/categories_v2/food/german_", "suffix": ".png"}, "primary": true}], "photos": {"count": 0, "groups": []}, "venuePage": {"id": "83209245"}}, "referralId": "e-0-5304930a11d254621af09be2-45"}, {"reasons": {"count": 0, "items": [{"summary": "This spot is popular", "type": "general", "reasonName": "globalInteractionReason"}]}, "venue": {"id": "5738b27738fad9b0bc323ffe", "name": "Jaja Naked Wine - Cave and Bar", "location": {"address": "Weichselstr. 7", "lat": 52.484213, "lng": 13.433147, "labeledLatLngs": [{"label": "display", "lat": 52.484213, "lng": 13.433147}], "distance": 380, "postalCode": "12043", "cc": "DE", "neighborhood": "Reuterkiez", "city": "Berlin", "state": "Berlin", "country": "Deutschland", "formattedAddress": ["Weichselstr. 7", "12043 Berlin", "Deutschland"]}, "categories": [{"id": "4bf58dd8d48988d123941735", "name": "Wine Bar", "pluralName": "Wine Bars", "shortName": "Wine Bar", "icon": {"prefix": "https://ss3.4sqi.net/img/categories_v2/food/winery_", "suffix": ".png"}, "primary": true}], "photos": {"count": 0, "groups": []}}, "referralId": "e-0-5738b27738fad9b0bc323ffe-46"}, {"reasons": {"count": 0, "items": [{"summary": "This spot is popular", "type": "general", "reasonName": "globalInteractionReason"}]}, "venue": {"id": "57220e63498e421c4572f552", "name": "BICHOU", "location": {"address": "Sch\u00f6nstedtstr. 14", "lat": 52.482467242880354, "lng": 13.436506649594563, "labeledLatLngs": [{"label": "display", "lat": 52.482467242880354, "lng": 13.436506649594563}], "distance": 605, "postalCode": "12043", "cc": "DE", "neighborhood": "Reuterkiez", "city": "Berlin", "state": "Berlin", "country": "Deutschland", "formattedAddress": ["Sch\u00f6nstedtstr. 14", "12043 Berlin", "Deutschland"]}, "categories": [{"id": "52e81612bcbc57f1066b79f1", "name": "Bistro", "pluralName": "Bistros", "shortName": "Bistro", "icon": {"prefix": "https://ss3.4sqi.net/img/categories_v2/food/default_", "suffix": ".png"}, "primary": true}], "photos": {"count": 0, "groups": []}, "venuePage": {"id": "479874921"}}, "referralId": "e-0-57220e63498e421c4572f552-47"}, {"reasons": {"count": 0, "items": [{"summary": "This spot is popular", "type": "general", "reasonName": "globalInteractionReason"}]}, "venue": {"id": "53e8d36b498e56839a9967ff", "name": "UY Studio", "location": {"address": "Pfl\u00fcgerstrasse 11", "lat": 52.49135181042774, "lng": 13.428425788879395, "labeledLatLngs": [{"label": "display", "lat": 52.49135181042774, "lng": 13.428425788879395}], "distance": 545, "postalCode": "12047", "cc": "DE", "neighborhood": "Neuk\u00f6lln, Berlin", "city": "Berlin", "state": "Berlin", "country": "Deutschland", "formattedAddress": ["Pfl\u00fcgerstrasse 11", "12047 Berlin", "Deutschland"]}, "categories": [{"id": "4bf58dd8d48988d106951735", "name": "Men's Store", "pluralName": "Men's Stores", "shortName": "Men's Store", "icon": {"prefix": "https://ss3.4sqi.net/img/categories_v2/shops/apparel_men_", "suffix": ".png"}, "primary": true}], "photos": {"count": 0, "groups": []}, "venuePage": {"id": "485125925"}}, "referralId": "e-0-53e8d36b498e56839a9967ff-48"}, {"reasons": {"count": 0, "items": [{"summary": "This spot is popular", "type": "general", "reasonName": "globalInteractionReason"}]}, "venue": {"id": "5b2fc0ca6fd626002c2172cc", "name": "Das Krokodil", "location": {"address": "Weserstra\u00dfe 19", "lat": 52.487015, "lng": 13.432712, "labeledLatLngs": [{"label": "display", "lat": 52.487015, "lng": 13.432712}], "distance": 92, "postalCode": "12045", "cc": "DE", "city": "Berlin", "state": "Berlin", "country": "Deutschland", "formattedAddress": ["Weserstra\u00dfe 19", "12045 Berlin", "Deutschland"]}, "categories": [{"id": "4bf58dd8d48988d116941735", "name": "Bar", "pluralName": "Bars", "shortName": "Bar", "icon": {"prefix": "https://ss3.4sqi.net/img/categories_v2/nightlife/pub_", "suffix": ".png"}, "primary": true}], "photos": {"count": 0, "groups": []}}, "referralId": "e-0-5b2fc0ca6fd626002c2172cc-49"}, {"reasons": {"count": 0, "items": [{"summary": "This spot is popular", "type": "general", "reasonName": "globalInteractionReason"}]}, "venue": {"id": "5172aa01e4b0ffeb8bde5a59", "name": "Missis Miller", "location": {"address": "Weichselstr. 35", "lat": 52.488730133840875, "lng": 13.439044970689638, "labeledLatLngs": [{"label": "display", "lat": 52.488730133840875, "lng": 13.439044970689638}], "distance": 386, "postalCode": "12045", "cc": "DE", "city": "Berlin", "state": "Berlin", "country": "Deutschland", "formattedAddress": ["Weichselstr. 35", "12045 Berlin", "Deutschland"]}, "categories": [{"id": "4bf58dd8d48988d16d941735", "name": "Caf\u00e9", "pluralName": "Caf\u00e9s", "shortName": "Caf\u00e9", "icon": {"prefix": "https://ss3.4sqi.net/img/categories_v2/food/cafe_", "suffix": ".png"}, "primary": true}], "photos": {"count": 0, "groups": []}}, "referralId": "e-0-5172aa01e4b0ffeb8bde5a59-50"}, {"reasons": {"count": 0, "items": [{"summary": "This spot is popular", "type": "general", "reasonName": "globalInteractionReason"}]}, "venue": {"id": "4e218c97b61cdcf1ecbe46d8", "name": "Myxa Caf\u00e9", "location": {"address": "Lenaustr. 22", "lat": 52.49019903713692, "lng": 13.42674436161043, "labeledLatLngs": [{"label": "display", "lat": 52.49019903713692, "lng": 13.42674436161043}], "distance": 548, "postalCode": "12047", "cc": "DE", "city": "Berlin", "state": "Berlin", "country": "Deutschland", "formattedAddress": ["Lenaustr. 22", "12047 Berlin", "Deutschland"]}, "categories": [{"id": "4bf58dd8d48988d16d941735", "name": "Caf\u00e9", "pluralName": "Caf\u00e9s", "shortName": "Caf\u00e9", "icon": {"prefix": "https://ss3.4sqi.net/img/categories_v2/food/cafe_", "suffix": ".png"}, "primary": true}], "photos": {"count": 0, "groups": []}, "venuePage": {"id": "33403108"}}, "referralId": "e-0-4e218c97b61cdcf1ecbe46d8-51"}, {"reasons": {"count": 0, "items": [{"summary": "This spot is popular", "type": "general", "reasonName": "globalInteractionReason"}]}, "venue": {"id": "4db86f5a8154ce84dc12f88a", "name": "Fuks", "location": {"address": "Hobrechtstr. 64", "lat": 52.48979032524282, "lng": 13.426403062228646, "labeledLatLngs": [{"label": "display", "lat": 52.48979032524282, "lng": 13.426403062228646}], "distance": 547, "postalCode": "12047", "cc": "DE", "city": "Berlin", "state": "Berlin", "country": "Deutschland", "formattedAddress": ["Hobrechtstr. 64", "12047 Berlin", "Deutschland"]}, "categories": [{"id": "4bf58dd8d48988d116941735", "name": "Bar", "pluralName": "Bars", "shortName": "Bar", "icon": {"prefix": "https://ss3.4sqi.net/img/categories_v2/nightlife/pub_", "suffix": ".png"}, "primary": true}], "photos": {"count": 0, "groups": []}}, "referralId": "e-0-4db86f5a8154ce84dc12f88a-52"}, {"reasons": {"count": 0, "items": [{"summary": "This spot is popular", "type": "general", "reasonName": "globalInteractionReason"}]}, "venue": {"id": "4d970fc8af3d236a401d19c7", "name": "Bouleplatz am Ufer", "location": {"address": "Paul-Lincke-Ufer 11-13", "lat": 52.49262659208524, "lng": 13.432283350551362, "labeledLatLngs": [{"label": "display", "lat": 52.49262659208524, "lng": 13.432283350551362}], "distance": 564, "postalCode": "10999", "cc": "DE", "neighborhood": "Kreuzberg", "city": "Berlin", "state": "Berlin", "country": "Deutschland", "formattedAddress": ["Paul-Lincke-Ufer 11-13", "10999 Berlin", "Deutschland"]}, "categories": [{"id": "4bf58dd8d48988d164941735", "name": "Plaza", "pluralName": "Plazas", "shortName": "Plaza", "icon": {"prefix": "https://ss3.4sqi.net/img/categories_v2/parks_outdoors/plaza_", "suffix": ".png"}, "primary": true}], "photos": {"count": 0, "groups": []}}, "referralId": "e-0-4d970fc8af3d236a401d19c7-53"}, {"reasons": {"count": 0, "items": [{"summary": "This spot is popular", "type": "general", "reasonName": "globalInteractionReason"}]}, "venue": {"id": "5278e37c11d2363ca1173e30", "name": "Peace Yoga Berlin", "location": {"address": "Glogauer Stra\u00dfe 19", "crossStreet": "Paul-Lincke Ufer", "lat": 52.491944935934846, "lng": 13.436567388910188, "labeledLatLngs": [{"label": "display", "lat": 52.491944935934846, "lng": 13.436567388910188}], "distance": 520, "postalCode": "10999", "cc": "DE", "city": "Berlin", "state": "Berlin", "country": "Deutschland", "formattedAddress": ["Glogauer Stra\u00dfe 19 (Paul-Lincke Ufer)", "10999 Berlin", "Deutschland"]}, "categories": [{"id": "4bf58dd8d48988d102941735", "name": "Yoga Studio", "pluralName": "Yoga Studios", "shortName": "Yoga Studio", "icon": {"prefix": "https://ss3.4sqi.net/img/categories_v2/shops/gym_yogastudio_", "suffix": ".png"}, "primary": true}], "photos": {"count": 0, "groups": []}, "venuePage": {"id": "70962781"}}, "referralId": "e-0-5278e37c11d2363ca1173e30-54"}, {"reasons": {"count": 0, "items": [{"summary": "This spot is popular", "type": "general", "reasonName": "globalInteractionReason"}]}, "venue": {"id": "4b200090f964a520fb2b24e3", "name": "Broschek", "location": {"address": "Weichselstr. 6", "lat": 52.48415184245284, "lng": 13.432774434116919, "labeledLatLngs": [{"label": "display", "lat": 52.48415184245284, "lng": 13.432774434116919}], "distance": 390, "postalCode": "12043", "cc": "DE", "city": "Berlin", "state": "Berlin", "country": "Deutschland", "formattedAddress": ["Weichselstr. 6", "12043 Berlin", "Deutschland"]}, "categories": [{"id": "4bf58dd8d48988d16d941735", "name": "Caf\u00e9", "pluralName": "Caf\u00e9s", "shortName": "Caf\u00e9", "icon": {"prefix": "https://ss3.4sqi.net/img/categories_v2/food/cafe_", "suffix": ".png"}, "primary": true}], "photos": {"count": 0, "groups": []}}, "referralId": "e-0-4b200090f964a520fb2b24e3-55"}, {"reasons": {"count": 0, "items": [{"summary": "This spot is popular", "type": "general", "reasonName": "globalInteractionReason"}]}, "venue": {"id": "51bb5e86498e3e2a6276f20f", "name": "Klunkerkranich", "location": {"address": "Karl-Marx-Str. 66", "lat": 52.48209623936856, "lng": 13.431419613103948, "labeledLatLngs": [{"label": "display", "lat": 52.48209623936856, "lng": 13.431419613103948}], "distance": 633, "postalCode": "12043", "cc": "DE", "neighborhood": "Karl-Marx-Stra\u00dfe", "city": "Berlin", "state": "Berlin", "country": "Deutschland", "formattedAddress": ["Karl-Marx-Str. 66", "12043 Berlin", "Deutschland"]}, "categories": [{"id": "4bf58dd8d48988d117941735", "name": "Beer Garden", "pluralName": "Beer Gardens", "shortName": "Beer Garden", "icon": {"prefix": "https://ss3.4sqi.net/img/categories_v2/nightlife/beergarden_", "suffix": ".png"}, "primary": true}], "photos": {"count": 0, "groups": []}}, "referralId": "e-0-51bb5e86498e3e2a6276f20f-56"}, {"reasons": {"count": 0, "items": [{"summary": "This spot is popular", "type": "general", "reasonName": "globalInteractionReason"}]}, "venue": {"id": "54ef9f92498e0b5daf642003", "name": "\u00c4 Stube", "location": {"lat": 52.48507939186846, "lng": 13.437358129791011, "labeledLatLngs": [{"label": "display", "lat": 52.48507939186846, "lng": 13.437358129791011}], "distance": 378, "cc": "DE", "city": "Berlin", "state": "Berlin", "country": "Deutschland", "formattedAddress": ["Berlin", "Deutschland"]}, "categories": [{"id": "4bf58dd8d48988d11b941735", "name": "Pub", "pluralName": "Pubs", "shortName": "Pub", "icon": {"prefix": "https://ss3.4sqi.net/img/categories_v2/nightlife/pub_", "suffix": ".png"}, "primary": true}], "photos": {"count": 0, "groups": []}}, "referralId": "e-0-54ef9f92498e0b5daf642003-57"}, {"reasons": {"count": 0, "items": [{"summary": "This spot is popular", "type": "general", "reasonName": "globalInteractionReason"}]}, "venue": {"id": "59b3e9342a7ab606987025c1", "name": "Kaffeebar Jacobi", "location": {"address": "Karl-Marx-Str. 4", "lat": 52.485631, "lng": 13.425266, "labeledLatLngs": [{"label": "display", "lat": 52.485631, "lng": 13.425266}], "distance": 609, "cc": "DE", "neighborhood": "Schillerkiez", "city": "Berlin", "state": "Berlin", "country": "Deutschland", "formattedAddress": ["Karl-Marx-Str. 4", "Berlin", "Deutschland"]}, "categories": [{"id": "4bf58dd8d48988d1e0931735", "name": "Coffee Shop", "pluralName": "Coffee Shops", "shortName": "Coffee Shop", "icon": {"prefix": "https://ss3.4sqi.net/img/categories_v2/food/coffeeshop_", "suffix": ".png"}, "primary": true}], "photos": {"count": 0, "groups": []}}, "referralId": "e-0-59b3e9342a7ab606987025c1-58"}, {"reasons": {"count": 0, "items": [{"summary": "This spot is popular", "type": "general", "reasonName": "globalInteractionReason"}]}, "venue": {"id": "51dc4bb8498e54c9c943ce9a", "name": "Oblomov", "location": {"address": "Lenaustr. 7", "crossStreet": "Hobrechtstr.", "lat": 52.49004527376926, "lng": 13.426140546798706, "labeledLatLngs": [{"label": "display", "lat": 52.49004527376926, "lng": 13.426140546798706}], "distance": 575, "postalCode": "12047", "cc": "DE", "city": "Berlin", "state": "Berlin", "country": "Deutschland", "formattedAddress": ["Lenaustr. 7 (Hobrechtstr.)", "12047 Berlin", "Deutschland"]}, "categories": [{"id": "4bf58dd8d48988d116941735", "name": "Bar", "pluralName": "Bars", "shortName": "Bar", "icon": {"prefix": "https://ss3.4sqi.net/img/categories_v2/nightlife/pub_", "suffix": ".png"}, "primary": true}], "photos": {"count": 0, "groups": []}, "venuePage": {"id": "67156442"}}, "referralId": "e-0-51dc4bb8498e54c9c943ce9a-59"}, {"reasons": {"count": 0, "items": [{"summary": "This spot is popular", "type": "general", "reasonName": "globalInteractionReason"}]}, "venue": {"id": "4d68091ca88a6ea8c3aeea72", "name": "Das Gift", "location": {"address": "Donaustr. 119", "crossStreet": "Weichselstr.", "lat": 52.483975377241926, "lng": 13.432448198517852, "labeledLatLngs": [{"label": "display", "lat": 52.483975377241926, "lng": 13.432448198517852}], "distance": 413, "postalCode": "12043", "cc": "DE", "city": "Berlin", "state": "Berlin", "country": "Deutschland", "formattedAddress": ["Donaustr. 119 (Weichselstr.)", "12043 Berlin", "Deutschland"]}, "categories": [{"id": "4bf58dd8d48988d118941735", "name": "Dive Bar", "pluralName": "Dive Bars", "shortName": "Dive Bar", "icon": {"prefix": "https://ss3.4sqi.net/img/categories_v2/nightlife/divebar_", "suffix": ".png"}, "primary": true}], "photos": {"count": 0, "groups": []}}, "referralId": "e-0-4d68091ca88a6ea8c3aeea72-60"}, {"reasons": {"count": 0, "items": [{"summary": "This spot is popular", "type": "general", "reasonName": "globalInteractionReason"}]}, "venue": {"id": "5c324c8916fa04002c0908f6", "name": "Paolo Pinkel", "location": {"address": "Karl-Marx-Str. 55", "crossStreet": "Weichselstr.", "lat": 52.483261322839816, "lng": 13.431721497356014, "labeledLatLngs": [{"label": "display", "lat": 52.483261322839816, "lng": 13.431721497356014}], "distance": 502, "postalCode": "12043", "cc": "DE", "city": "Berlin", "state": "Berlin", "country": "Deutschland", "formattedAddress": ["Karl-Marx-Str. 55 (Weichselstr.)", "12043 Berlin", "Deutschland"]}, "categories": [{"id": "52e81612bcbc57f1066b79f1", "name": "Bistro", "pluralName": "Bistros", "shortName": "Bistro", "icon": {"prefix": "https://ss3.4sqi.net/img/categories_v2/food/default_", "suffix": ".png"}, "primary": true}], "photos": {"count": 0, "groups": []}}, "referralId": "e-0-5c324c8916fa04002c0908f6-61"}, {"reasons": {"count": 0, "items": [{"summary": "This spot is popular", "type": "general", "reasonName": "globalInteractionReason"}]}, "venue": {"id": "50c2f8f6e4b0e9bc06ba4da5", "name": "The Cat's Pajamas", "location": {"address": "Urbanstr. 84", "lat": 52.48840772978707, "lng": 13.423951223174031, "labeledLatLngs": [{"label": "display", "lat": 52.48840772978707, "lng": 13.423951223174031}], "distance": 663, "postalCode": "10967", "cc": "DE", "city": "Berlin", "state": "Berlin", "country": "Deutschland", "formattedAddress": ["Urbanstr. 84", "10967 Berlin", "Deutschland"]}, "categories": [{"id": "4bf58dd8d48988d1ee931735", "name": "Hostel", "pluralName": "Hostels", "shortName": "Hostel", "icon": {"prefix": "https://ss3.4sqi.net/img/categories_v2/travel/hostel_", "suffix": ".png"}, "primary": true}], "photos": {"count": 0, "groups": []}}, "referralId": "e-0-50c2f8f6e4b0e9bc06ba4da5-62"}, {"reasons": {"count": 0, "items": [{"summary": "This spot is popular", "type": "general", "reasonName": "globalInteractionReason"}]}, "venue": {"id": "57652617cd10499ca0f5531e", "name": "Chutnify", "location": {"address": "Pfl\u00fcgerstr. 25", "lat": 52.4900560010407, "lng": 13.433438269009566, "labeledLatLngs": [{"label": "display", "lat": 52.4900560010407, "lng": 13.433438269009566}], "distance": 271, "postalCode": "12047", "cc": "DE", "city": "Berlin", "state": "Berlin", "country": "Deutschland", "formattedAddress": ["Pfl\u00fcgerstr. 25", "12047 Berlin", "Deutschland"]}, "categories": [{"id": "54135bf5e4b08f3d2429dfde", "name": "South Indian Restaurant", "pluralName": "South Indian Restaurants", "shortName": "South Indian", "icon": {"prefix": "https://ss3.4sqi.net/img/categories_v2/food/default_", "suffix": ".png"}, "primary": true}], "photos": {"count": 0, "groups": []}}, "referralId": "e-0-57652617cd10499ca0f5531e-63"}, {"reasons": {"count": 0, "items": [{"summary": "This spot is popular", "type": "general", "reasonName": "globalInteractionReason"}]}, "venue": {"id": "4b50c108f964a520fc3027e3", "name": "Fr\u00e4ulein Frost", "location": {"address": "Friedelstr. 39", "lat": 52.49234150232347, "lng": 13.42798372959863, "labeledLatLngs": [{"label": "display", "lat": 52.49234150232347, "lng": 13.42798372959863}], "distance": 650, "postalCode": "12047", "cc": "DE", "city": "Berlin", "state": "Berlin", "country": "Deutschland", "formattedAddress": ["Friedelstr. 39", "12047 Berlin", "Deutschland"]}, "categories": [{"id": "4bf58dd8d48988d1c9941735", "name": "Ice Cream Shop", "pluralName": "Ice Cream Shops", "shortName": "Ice Cream", "icon": {"prefix": "https://ss3.4sqi.net/img/categories_v2/food/icecream_", "suffix": ".png"}, "primary": true}], "photos": {"count": 0, "groups": []}}, "referralId": "e-0-4b50c108f964a520fc3027e3-64"}, {"reasons": {"count": 0, "items": [{"summary": "This spot is popular", "type": "general", "reasonName": "globalInteractionReason"}]}, "venue": {"id": "51864416498ec9a9caf533c4", "name": "Al Pasha", "location": {"address": "Sonnenallee 77", "lat": 52.48359892217908, "lng": 13.436370938896145, "labeledLatLngs": [{"label": "display", "lat": 52.48359892217908, "lng": 13.436370938896145}], "distance": 484, "cc": "DE", "neighborhood": "Reuterkiez", "city": "Berlin", "state": "Berlin", "country": "Deutschland", "formattedAddress": ["Sonnenallee 77", "Berlin", "Deutschland"]}, "categories": [{"id": "58daa1558bbb0b01f18ec1cd", "name": "Lebanese Restaurant", "pluralName": "Lebanese Restaurants", "shortName": "Lebanese", "icon": {"prefix": "https://ss3.4sqi.net/img/categories_v2/food/middleeastern_", "suffix": ".png"}, "primary": true}], "photos": {"count": 0, "groups": []}}, "referralId": "e-0-51864416498ec9a9caf533c4-65"}, {"reasons": {"count": 0, "items": [{"summary": "This spot is popular", "type": "general", "reasonName": "globalInteractionReason"}]}, "venue": {"id": "5515ba58498e626740d4f760", "name": "Alaska", "location": {"address": "Reuterstr. 85", "lat": 52.48287516048382, "lng": 13.42896253366634, "labeledLatLngs": [{"label": "display", "lat": 52.48287516048382, "lng": 13.42896253366634}], "distance": 616, "cc": "DE", "city": "Berlin", "state": "Berlin", "country": "Deutschland", "formattedAddress": ["Reuterstr. 85", "Berlin", "Deutschland"]}, "categories": [{"id": "4bf58dd8d48988d1d3941735", "name": "Vegetarian / Vegan Restaurant", "pluralName": "Vegetarian / Vegan Restaurants", "shortName": "Vegetarian / Vegan", "icon": {"prefix": "https://ss3.4sqi.net/img/categories_v2/food/vegetarian_", "suffix": ".png"}, "primary": true}], "photos": {"count": 0, "groups": []}}, "referralId": "e-0-5515ba58498e626740d4f760-66"}, {"reasons": {"count": 0, "items": [{"summary": "This spot is popular", "type": "general", "reasonName": "globalInteractionReason"}]}, "venue": {"id": "53add4a5498e7b9f40ca2997", "name": "Donau 115", "location": {"address": "Donaustr. 115", "lat": 52.483507, "lng": 13.433543, "labeledLatLngs": [{"label": "display", "lat": 52.483507, "lng": 13.433543}], "distance": 457, "postalCode": "12043", "cc": "DE", "city": "Berlin", "state": "Berlin", "country": "Deutschland", "formattedAddress": ["Donaustr. 115", "12043 Berlin", "Deutschland"]}, "categories": [{"id": "4bf58dd8d48988d1e7931735", "name": "Jazz Club", "pluralName": "Jazz Clubs", "shortName": "Jazz Club", "icon": {"prefix": "https://ss3.4sqi.net/img/categories_v2/arts_entertainment/musicvenue_jazzclub_", "suffix": ".png"}, "primary": true}], "photos": {"count": 0, "groups": []}}, "referralId": "e-0-53add4a5498e7b9f40ca2997-67"}, {"reasons": {"count": 0, "items": [{"summary": "This spot is popular", "type": "general", "reasonName": "globalInteractionReason"}]}, "venue": {"id": "4bd89e6d11dcc9287f11f733", "name": "Tabibito", "location": {"address": "Karl-Marx-Str. 56", "lat": 52.482965, "lng": 13.431507, "labeledLatLngs": [{"label": "display", "lat": 52.482965, "lng": 13.431507}], "distance": 538, "postalCode": "12043", "cc": "DE", "neighborhood": "Donaukiez", "city": "Berlin", "state": "Berlin", "country": "Deutschland", "formattedAddress": ["Karl-Marx-Str. 56", "12043 Berlin", "Deutschland"]}, "categories": [{"id": "4bf58dd8d48988d1d2941735", "name": "Sushi Restaurant", "pluralName": "Sushi Restaurants", "shortName": "Sushi", "icon": {"prefix": "https://ss3.4sqi.net/img/categories_v2/food/sushi_", "suffix": ".png"}, "primary": true}], "photos": {"count": 0, "groups": []}}, "referralId": "e-0-4bd89e6d11dcc9287f11f733-68"}, {"reasons": {"count": 0, "items": [{"summary": "This spot is popular", "type": "general", "reasonName": "globalInteractionReason"}]}, "venue": {"id": "5762cb90498e3b6a9247ed37", "name": "bRICK", "location": {"address": "Lenaustr. 1", "crossStreet": "Kottbusser Damm", "lat": 52.489939, "lng": 13.424577, "labeledLatLngs": [{"label": "display", "lat": 52.489939, "lng": 13.424577}], "distance": 666, "postalCode": "12047", "cc": "DE", "neighborhood": "Reuterkiez", "city": "Berlin", "state": "Berlin", "country": "Deutschland", "formattedAddress": ["Lenaustr. 1 (Kottbusser Damm)", "12047 Berlin", "Deutschland"]}, "categories": [{"id": "4bf58dd8d48988d16d941735", "name": "Caf\u00e9", "pluralName": "Caf\u00e9s", "shortName": "Caf\u00e9", "icon": {"prefix": "https://ss3.4sqi.net/img/categories_v2/food/cafe_", "suffix": ".png"}, "primary": true}], "photos": {"count": 0, "groups": []}, "venuePage": {"id": "459649104"}}, "referralId": "e-0-5762cb90498e3b6a9247ed37-69"}, {"reasons": {"count": 0, "items": [{"summary": "This spot is popular", "type": "general", "reasonName": "globalInteractionReason"}]}, "venue": {"id": "4adcda7af964a520ea4621e3", "name": "mama bar", "location": {"address": "Hobrechtstr. 61", "lat": 52.490549245668554, "lng": 13.426230628865502, "labeledLatLngs": [{"label": "display", "lat": 52.490549245668554, "lng": 13.426230628865502}], "distance": 599, "postalCode": "12047", "cc": "DE", "city": "Berlin", "state": "Berlin", "country": "Deutschland", "formattedAddress": ["Hobrechtstr. 61", "12047 Berlin", "Deutschland"]}, "categories": [{"id": "4bf58dd8d48988d116941735", "name": "Bar", "pluralName": "Bars", "shortName": "Bar", "icon": {"prefix": "https://ss3.4sqi.net/img/categories_v2/nightlife/pub_", "suffix": ".png"}, "primary": true}], "photos": {"count": 0, "groups": []}}, "referralId": "e-0-4adcda7af964a520ea4621e3-70"}, {"reasons": {"count": 0, "items": [{"summary": "This spot is popular", "type": "general", "reasonName": "globalInteractionReason"}]}, "venue": {"id": "5b92e3d3180b91002cb51ecb", "name": "Gazzo", "location": {"address": "Hobrechtstr. 57", "lat": 52.49116, "lng": 13.425857, "labeledLatLngs": [{"label": "display", "lat": 52.49116, "lng": 13.425857}], "distance": 658, "postalCode": "12047", "cc": "DE", "city": "Berlin", "state": "Berlin", "country": "Deutschland", "formattedAddress": ["Hobrechtstr. 57", "12047 Berlin", "Deutschland"]}, "categories": [{"id": "4bf58dd8d48988d1ca941735", "name": "Pizza Place", "pluralName": "Pizza Places", "shortName": "Pizza", "icon": {"prefix": "https://ss3.4sqi.net/img/categories_v2/food/pizza_", "suffix": ".png"}, "primary": true}], "photos": {"count": 0, "groups": []}}, "referralId": "e-0-5b92e3d3180b91002cb51ecb-71"}, {"reasons": {"count": 0, "items": [{"summary": "This spot is popular", "type": "general", "reasonName": "globalInteractionReason"}]}, "venue": {"id": "4e67ac3bc65be127ef0332eb", "name": "T\u00fcrkiyem Grill", "location": {"address": "Karl-Marx-Str. 30", "lat": 52.484272, "lng": 13.428505, "labeledLatLngs": [{"label": "display", "lat": 52.484272, "lng": 13.428505}], "distance": 510, "postalCode": "12043", "cc": "DE", "city": "Berlin", "state": "Berlin", "country": "Deutschland", "formattedAddress": ["Karl-Marx-Str. 30", "12043 Berlin", "Deutschland"]}, "categories": [{"id": "4f04af1f2fb6e1c99f3db0bb", "name": "Turkish Restaurant", "pluralName": "Turkish Restaurants", "shortName": "Turkish", "icon": {"prefix": "https://ss3.4sqi.net/img/categories_v2/food/turkish_", "suffix": ".png"}, "primary": true}], "photos": {"count": 0, "groups": []}}, "referralId": "e-0-4e67ac3bc65be127ef0332eb-72"}, {"reasons": {"count": 0, "items": [{"summary": "This spot is popular", "type": "general", "reasonName": "globalInteractionReason"}]}, "venue": {"id": "4d504397dcce224b1654d61b", "name": "Weichselplatz", "location": {"address": "Weichselplatz", "crossStreet": "Weichselstr.", "lat": 52.48803313140116, "lng": 13.439197540283203, "labeledLatLngs": [{"label": "display", "lat": 52.48803313140116, "lng": 13.439197540283203}], "distance": 379, "postalCode": "12045", "cc": "DE", "city": "Berlin", "state": "Berlin", "country": "Deutschland", "formattedAddress": ["Weichselplatz (Weichselstr.)", "12045 Berlin", "Deutschland"]}, "categories": [{"id": "4bf58dd8d48988d163941735", "name": "Park", "pluralName": "Parks", "shortName": "Park", "icon": {"prefix": "https://ss3.4sqi.net/img/categories_v2/parks_outdoors/park_", "suffix": ".png"}, "primary": true}], "photos": {"count": 0, "groups": []}}, "referralId": "e-0-4d504397dcce224b1654d61b-73"}, {"reasons": {"count": 0, "items": [{"summary": "This spot is popular", "type": "general", "reasonName": "globalInteractionReason"}]}, "venue": {"id": "57e56c3b498e8c7413ceec03", "name": "Crazy Bastard Sauce", "location": {"address": "Weserstr. 168", "lat": 52.48356705853624, "lng": 13.44064934198851, "labeledLatLngs": [{"label": "display", "lat": 52.48356705853624, "lng": 13.44064934198851}], "distance": 654, "postalCode": "12045", "cc": "DE", "city": "Berlin", "state": "Berlin", "country": "Deutschland", "formattedAddress": ["Weserstr. 168", "12045 Berlin", "Deutschland"]}, "categories": [{"id": "52e81612bcbc57f1066b79f1", "name": "Bistro", "pluralName": "Bistros", "shortName": "Bistro", "icon": {"prefix": "https://ss3.4sqi.net/img/categories_v2/food/default_", "suffix": ".png"}, "primary": true}], "photos": {"count": 0, "groups": []}}, "referralId": "e-0-57e56c3b498e8c7413ceec03-74"}, {"reasons": {"count": 0, "items": [{"summary": "This spot is popular", "type": "general", "reasonName": "globalInteractionReason"}]}, "venue": {"id": "59121f7bc21cb12eb99b158e", "name": "Life Berlin", "location": {"address": "Maybachufer 39", "crossStreet": "Nansenstr.", "lat": 52.491878642334974, "lng": 13.433209737075074, "labeledLatLngs": [{"label": "display", "lat": 52.491878642334974, "lng": 13.433209737075074}], "distance": 474, "postalCode": "12047", "cc": "DE", "city": "Berlin", "state": "Berlin", "country": "Deutschland", "formattedAddress": ["Maybachufer 39 (Nansenstr.)", "12047 Berlin", "Deutschland"]}, "categories": [{"id": "4bf58dd8d48988d111941735", "name": "Japanese Restaurant", "pluralName": "Japanese Restaurants", "shortName": "Japanese", "icon": {"prefix": "https://ss3.4sqi.net/img/categories_v2/food/japanese_", "suffix": ".png"}, "primary": true}], "photos": {"count": 0, "groups": []}}, "referralId": "e-0-59121f7bc21cb12eb99b158e-75"}, {"reasons": {"count": 0, "items": [{"summary": "This spot is popular", "type": "general", "reasonName": "globalInteractionReason"}]}, "venue": {"id": "4db82521fa8c377d83b7e93b", "name": "Five Elephant", "location": {"address": "Reichenberger Str. 101", "crossStreet": "Glogauer Str.", "lat": 52.49332943821452, "lng": 13.438029659465533, "labeledLatLngs": [{"label": "display", "lat": 52.49332943821452, "lng": 13.438029659465533}], "distance": 701, "postalCode": "10999", "cc": "DE", "city": "Berlin", "state": "Berlin", "country": "Deutschland", "formattedAddress": ["Reichenberger Str. 101 (Glogauer Str.)", "10999 Berlin", "Deutschland"]}, "categories": [{"id": "4bf58dd8d48988d1e0931735", "name": "Coffee Shop", "pluralName": "Coffee Shops", "shortName": "Coffee Shop", "icon": {"prefix": "https://ss3.4sqi.net/img/categories_v2/food/coffeeshop_", "suffix": ".png"}, "primary": true}], "photos": {"count": 0, "groups": []}}, "referralId": "e-0-4db82521fa8c377d83b7e93b-76"}, {"reasons": {"count": 0, "items": [{"summary": "This spot is popular", "type": "general", "reasonName": "globalInteractionReason"}]}, "venue": {"id": "4d122c511f95236ae00e3c06", "name": "Hao Cai Lei Asien-Supermarkt", "location": {"address": "Karl-Marx-Str. 15", "crossStreet": "Hobrechtstr.", "lat": 52.4853707768876, "lng": 13.426801329139547, "labeledLatLngs": [{"label": "display", "lat": 52.4853707768876, "lng": 13.426801329139547}], "distance": 527, "postalCode": "12043", "cc": "DE", "city": "Berlin", "state": "Berlin", "country": "Deutschland", "formattedAddress": ["Karl-Marx-Str. 15 (Hobrechtstr.)", "12043 Berlin", "Deutschland"]}, "categories": [{"id": "4bf58dd8d48988d118951735", "name": "Grocery Store", "pluralName": "Grocery Stores", "shortName": "Grocery Store", "icon": {"prefix": "https://ss3.4sqi.net/img/categories_v2/shops/food_grocery_", "suffix": ".png"}, "primary": true}], "photos": {"count": 0, "groups": []}}, "referralId": "e-0-4d122c511f95236ae00e3c06-77"}, {"reasons": {"count": 0, "items": [{"summary": "This spot is popular", "type": "general", "reasonName": "globalInteractionReason"}]}, "venue": {"id": "4c1bc0778b3aa59317bb975f", "name": "Cooler Platz am Kanal", "location": {"lat": 52.4913296394866, "lng": 13.439886797635054, "labeledLatLngs": [{"label": "display", "lat": 52.4913296394866, "lng": 13.439886797635054}], "distance": 591, "cc": "DE", "city": "Berlin", "state": "Berlin", "country": "Deutschland", "formattedAddress": ["Berlin", "Deutschland"]}, "categories": [{"id": "4d954b16a243a5684b65b473", "name": "Rest Area", "pluralName": "Rest Areas", "shortName": "Rest Areas", "icon": {"prefix": "https://ss3.4sqi.net/img/categories_v2/travel/restarea_", "suffix": ".png"}, "primary": true}], "photos": {"count": 0, "groups": []}}, "referralId": "e-0-4c1bc0778b3aa59317bb975f-78"}, {"reasons": {"count": 0, "items": [{"summary": "This spot is popular", "type": "general", "reasonName": "globalInteractionReason"}]}, "venue": {"id": "4ec846a9d3e3e131f33ee56d", "name": "Geist im Glas", "location": {"address": "Lenaustr. 27", "crossStreet": "Kottbusser Damm", "lat": 52.49007823624112, "lng": 13.424884327426549, "labeledLatLngs": [{"label": "display", "lat": 52.49007823624112, "lng": 13.424884327426549}], "distance": 653, "postalCode": "12047", "cc": "DE", "neighborhood": "Reuterkiez", "city": "Berlin", "state": "Berlin", "country": "Deutschland", "formattedAddress": ["Lenaustr. 27 (Kottbusser Damm)", "12047 Berlin", "Deutschland"]}, "categories": [{"id": "4bf58dd8d48988d11e941735", "name": "Cocktail Bar", "pluralName": "Cocktail Bars", "shortName": "Cocktail", "icon": {"prefix": "https://ss3.4sqi.net/img/categories_v2/nightlife/cocktails_", "suffix": ".png"}, "primary": true}], "photos": {"count": 0, "groups": []}}, "referralId": "e-0-4ec846a9d3e3e131f33ee56d-79"}, {"reasons": {"count": 0, "items": [{"summary": "This spot is popular", "type": "general", "reasonName": "globalInteractionReason"}]}, "venue": {"id": "556a2b4b498e9ace7d599c25", "name": "Weserkrug", "location": {"address": "Weserstr. 53", "lat": 52.483508741370706, "lng": 13.440356254577635, "labeledLatLngs": [{"label": "display", "lat": 52.483508741370706, "lng": 13.440356254577635}], "distance": 645, "postalCode": "12045", "cc": "DE", "city": "Berlin", "state": "Berlin", "country": "Deutschland", "formattedAddress": ["Weserstr. 53", "12045 Berlin", "Deutschland"]}, "categories": [{"id": "4bf58dd8d48988d116941735", "name": "Bar", "pluralName": "Bars", "shortName": "Bar", "icon": {"prefix": "https://ss3.4sqi.net/img/categories_v2/nightlife/pub_", "suffix": ".png"}, "primary": true}], "photos": {"count": 0, "groups": []}}, "referralId": "e-0-556a2b4b498e9ace7d599c25-80"}, {"reasons": {"count": 0, "items": [{"summary": "This spot is popular", "type": "general", "reasonName": "globalInteractionReason"}]}, "venue": {"id": "4dd276db6365cd4836e36195", "name": "Katie's Blue Cat", "location": {"address": "Friedelstr. 31", "lat": 52.49297512815172, "lng": 13.428254127502441, "labeledLatLngs": [{"label": "display", "lat": 52.49297512815172, "lng": 13.428254127502441}], "distance": 699, "postalCode": "12047", "cc": "DE", "city": "Berlin", "state": "Berlin", "country": "Deutschland", "formattedAddress": ["Friedelstr. 31", "12047 Berlin", "Deutschland"]}, "categories": [{"id": "4bf58dd8d48988d1e0931735", "name": "Coffee Shop", "pluralName": "Coffee Shops", "shortName": "Coffee Shop", "icon": {"prefix": "https://ss3.4sqi.net/img/categories_v2/food/coffeeshop_", "suffix": ".png"}, "primary": true}], "photos": {"count": 0, "groups": []}}, "referralId": "e-0-4dd276db6365cd4836e36195-81"}, {"reasons": {"count": 0, "items": [{"summary": "This spot is popular", "type": "general", "reasonName": "globalInteractionReason"}]}, "venue": {"id": "4b445744f964a520fff325e3", "name": "Neues Off", "location": {"address": "Hermannstr. 20", "lat": 52.483398611045594, "lng": 13.424713921964203, "labeledLatLngs": [{"label": "display", "lat": 52.483398611045594, "lng": 13.424713921964203}], "distance": 766, "postalCode": "12049", "cc": "DE", "city": "Berlin", "state": "Berlin", "country": "Deutschland", "formattedAddress": ["Hermannstr. 20", "12049 Berlin", "Deutschland"]}, "categories": [{"id": "4bf58dd8d48988d17e941735", "name": "Indie Movie Theater", "pluralName": "Indie Movie Theaters", "shortName": "Indie Movies", "icon": {"prefix": "https://ss3.4sqi.net/img/categories_v2/arts_entertainment/movietheater_", "suffix": ".png"}, "primary": true}], "photos": {"count": 0, "groups": []}}, "referralId": "e-0-4b445744f964a520fff325e3-82"}, {"reasons": {"count": 0, "items": [{"summary": "This spot is popular", "type": "general", "reasonName": "globalInteractionReason"}]}, "venue": {"id": "557042b1498ee344be27bc35", "name": "Stella Takeaway + Casual Catering", "location": {"address": "Weserstr 166", "lat": 52.48342466528559, "lng": 13.441073674952667, "labeledLatLngs": [{"label": "display", "lat": 52.48342466528559, "lng": 13.441073674952667}], "distance": 686, "postalCode": "12045", "cc": "DE", "city": "Berlin", "state": "Berlin", "country": "Deutschland", "formattedAddress": ["Weserstr 166", "12045 Berlin", "Deutschland"]}, "categories": [{"id": "4bf58dd8d48988d1f9941735", "name": "Food & Drink Shop", "pluralName": "Food & Drink Shops", "shortName": "Food & Drink", "icon": {"prefix": "https://ss3.4sqi.net/img/categories_v2/shops/foodanddrink_", "suffix": ".png"}, "primary": true}], "photos": {"count": 0, "groups": []}}, "referralId": "e-0-557042b1498ee344be27bc35-83"}, {"reasons": {"count": 0, "items": [{"summary": "This spot is popular", "type": "general", "reasonName": "globalInteractionReason"}]}, "venue": {"id": "4e2ac478b0fbc2edac19e0ab", "name": "Kindl-Stuben", "location": {"address": "Sonnenallee 92", "lat": 52.482588017044954, "lng": 13.438291572332927, "labeledLatLngs": [{"label": "display", "lat": 52.482588017044954, "lng": 13.438291572332927}], "distance": 642, "postalCode": "12045", "cc": "DE", "city": "Berlin", "state": "Berlin", "country": "Deutschland", "formattedAddress": ["Sonnenallee 92", "12045 Berlin", "Deutschland"]}, "categories": [{"id": "4bf58dd8d48988d10d941735", "name": "German Restaurant", "pluralName": "German Restaurants", "shortName": "German", "icon": {"prefix": "https://ss3.4sqi.net/img/categories_v2/food/german_", "suffix": ".png"}, "primary": true}], "photos": {"count": 0, "groups": []}}, "referralId": "e-0-4e2ac478b0fbc2edac19e0ab-84"}, {"reasons": {"count": 0, "items": [{"summary": "This spot is popular", "type": "general", "reasonName": "globalInteractionReason"}]}, "venue": {"id": "4f760bbde4b00af693a91d50", "name": "Kalle Klein", "location": {"address": "Harzerstr.119", "crossStreet": "Lohm\u00fchlenstr.", "lat": 52.489602074554874, "lng": 13.440141251263642, "labeledLatLngs": [{"label": "display", "lat": 52.489602074554874, "lng": 13.440141251263642}], "distance": 492, "postalCode": "12435", "cc": "DE", "city": "Berlin", "state": "Berlin", "country": "Deutschland", "formattedAddress": ["Harzerstr.119 (Lohm\u00fchlenstr.)", "12435 Berlin", "Deutschland"]}, "categories": [{"id": "4bf58dd8d48988d1c4941735", "name": "Restaurant", "pluralName": "Restaurants", "shortName": "Restaurant", "icon": {"prefix": "https://ss3.4sqi.net/img/categories_v2/food/default_", "suffix": ".png"}, "primary": true}], "photos": {"count": 0, "groups": []}}, "referralId": "e-0-4f760bbde4b00af693a91d50-85"}, {"reasons": {"count": 0, "items": [{"summary": "This spot is popular", "type": "general", "reasonName": "globalInteractionReason"}]}, "venue": {"id": "575ed8a9498e7940cc7f272f", "name": "Konditorei Damaskus", "location": {"address": "Sonnenallee 93", "lat": 52.48256133724326, "lng": 13.438805937767029, "labeledLatLngs": [{"label": "display", "lat": 52.48256133724326, "lng": 13.438805937767029}], "distance": 662, "postalCode": "12045", "cc": "DE", "city": "Berlin", "state": "Berlin", "country": "Deutschland", "formattedAddress": ["Sonnenallee 93", "12045 Berlin", "Deutschland"]}, "categories": [{"id": "5744ccdfe4b0c0459246b4e2", "name": "Pastry Shop", "pluralName": "Pastry Shops", "shortName": "Pastry", "icon": {"prefix": "https://ss3.4sqi.net/img/categories_v2/food/dessert_", "suffix": ".png"}, "primary": true}], "photos": {"count": 0, "groups": []}}, "referralId": "e-0-575ed8a9498e7940cc7f272f-86"}, {"reasons": {"count": 0, "items": [{"summary": "This spot is popular", "type": "general", "reasonName": "globalInteractionReason"}]}, "venue": {"id": "5b3b72c5de3bbf0039db8887", "name": "La Malo", "location": {"address": "Flughafenstr. 25", "crossStreet": "Isarstrasse", "lat": 52.48151, "lng": 13.430677, "labeledLatLngs": [{"label": "display", "lat": 52.48151, "lng": 13.430677}], "distance": 709, "postalCode": "12053", "cc": "DE", "city": "Berlin", "state": "Berlin", "country": "Deutschland", "formattedAddress": ["Flughafenstr. 25 (Isarstrasse)", "12053 Berlin", "Deutschland"]}, "categories": [{"id": "4bf58dd8d48988d1c4941735", "name": "Restaurant", "pluralName": "Restaurants", "shortName": "Restaurant", "icon": {"prefix": "https://ss3.4sqi.net/img/categories_v2/food/default_", "suffix": ".png"}, "primary": true}], "photos": {"count": 0, "groups": []}}, "referralId": "e-0-5b3b72c5de3bbf0039db8887-87"}, {"reasons": {"count": 0, "items": [{"summary": "This spot is popular", "type": "general", "reasonName": "globalInteractionReason"}]}, "venue": {"id": "5a37e34ef427de60fcd4aa2b", "name": "Le Brot", "location": {"address": "Fuldastr. 54", "lat": 52.48344671055487, "lng": 13.43536830180993, "labeledLatLngs": [{"label": "display", "lat": 52.48344671055487, "lng": 13.43536830180993}], "distance": 478, "postalCode": "12043", "cc": "DE", "city": "Berlin", "state": "Berlin", "country": "Deutschland", "formattedAddress": ["Fuldastr. 54", "12043 Berlin", "Deutschland"]}, "categories": [{"id": "4bf58dd8d48988d16a941735", "name": "Bakery", "pluralName": "Bakeries", "shortName": "Bakery", "icon": {"prefix": "https://ss3.4sqi.net/img/categories_v2/food/bakery_", "suffix": ".png"}, "primary": true}], "photos": {"count": 0, "groups": []}}, "referralId": "e-0-5a37e34ef427de60fcd4aa2b-88"}, {"reasons": {"count": 0, "items": [{"summary": "This spot is popular", "type": "general", "reasonName": "globalInteractionReason"}]}, "venue": {"id": "4fb11c2de4b0b84e1d8a20f0", "name": "Baklavac\u0131 \u015eeng\u00fclo\u011flu", "location": {"address": "Kottbusser Damm 32", "lat": 52.489023961462884, "lng": 13.424523102617481, "labeledLatLngs": [{"label": "display", "lat": 52.489023961462884, "lng": 13.424523102617481}], "distance": 637, "postalCode": "10967", "cc": "DE", "city": "Berlin", "state": "Berlin", "country": "Deutschland", "formattedAddress": ["Kottbusser Damm 32", "10967 Berlin", "Deutschland"]}, "categories": [{"id": "4bf58dd8d48988d1d0941735", "name": "Dessert Shop", "pluralName": "Dessert Shops", "shortName": "Desserts", "icon": {"prefix": "https://ss3.4sqi.net/img/categories_v2/food/dessert_", "suffix": ".png"}, "primary": true}], "photos": {"count": 0, "groups": []}}, "referralId": "e-0-4fb11c2de4b0b84e1d8a20f0-89"}, {"reasons": {"count": 0, "items": [{"summary": "This spot is popular", "type": "general", "reasonName": "globalInteractionReason"}]}, "venue": {"id": "52e7a437498e8c11d51e65c6", "name": "La Bolognina", "location": {"address": "Donaustrasse 107", "lat": 52.48241216588175, "lng": 13.435651487321257, "labeledLatLngs": [{"label": "display", "lat": 52.48241216588175, "lng": 13.435651487321257}], "distance": 595, "postalCode": "12043", "cc": "DE", "neighborhood": "Donaukiez", "city": "Berlin", "state": "Berlin", "country": "Deutschland", "formattedAddress": ["Donaustrasse 107", "12043 Berlin", "Deutschland"]}, "categories": [{"id": "4bf58dd8d48988d110941735", "name": "Italian Restaurant", "pluralName": "Italian Restaurants", "shortName": "Italian", "icon": {"prefix": "https://ss3.4sqi.net/img/categories_v2/food/italian_", "suffix": ".png"}, "primary": true}], "photos": {"count": 0, "groups": []}}, "referralId": "e-0-52e7a437498e8c11d51e65c6-90"}, {"reasons": {"count": 0, "items": [{"summary": "This spot is popular", "type": "general", "reasonName": "globalInteractionReason"}]}, "venue": {"id": "518d6921498ed584ec546d79", "name": "Mendy & Edeltraut", "location": {"lat": 52.48483386269403, "lng": 13.43790357598979, "labeledLatLngs": [{"label": "display", "lat": 52.48483386269403, "lng": 13.43790357598979}], "distance": 423, "cc": "DE", "city": "Berlin", "state": "Berlin", "country": "Deutschland", "formattedAddress": ["Berlin", "Deutschland"]}, "categories": [{"id": "4bf58dd8d48988d116941735", "name": "Bar", "pluralName": "Bars", "shortName": "Bar", "icon": {"prefix": "https://ss3.4sqi.net/img/categories_v2/nightlife/pub_", "suffix": ".png"}, "primary": true}], "photos": {"count": 0, "groups": []}}, "referralId": "e-0-518d6921498ed584ec546d79-91"}, {"reasons": {"count": 0, "items": [{"summary": "This spot is popular", "type": "general", "reasonName": "globalInteractionReason"}]}, "venue": {"id": "56c859ce498e4246a80cdaf0", "name": "Populus Coffee", "location": {"address": "Maybachufer 20", "crossStreet": "B\u00fcrknerstr.", "lat": 52.493718, "lng": 13.427157, "labeledLatLngs": [{"label": "display", "lat": 52.493718, "lng": 13.427157}], "distance": 808, "postalCode": "12045", "cc": "DE", "neighborhood": "Reuterkiez", "city": "Berlin", "state": "Berlin", "country": "Deutschland", "formattedAddress": ["Maybachufer 20 (B\u00fcrknerstr.)", "12045 Berlin", "Deutschland"]}, "categories": [{"id": "4bf58dd8d48988d1e0931735", "name": "Coffee Shop", "pluralName": "Coffee Shops", "shortName": "Coffee Shop", "icon": {"prefix": "https://ss3.4sqi.net/img/categories_v2/food/coffeeshop_", "suffix": ".png"}, "primary": true}], "photos": {"count": 0, "groups": []}, "venuePage": {"id": "559162275"}}, "referralId": "e-0-56c859ce498e4246a80cdaf0-92"}, {"reasons": {"count": 0, "items": [{"summary": "This spot is popular", "type": "general", "reasonName": "globalInteractionReason"}]}, "venue": {"id": "4adcda8bf964a520f44921e3", "name": "Moviemento", "location": {"address": "Kottbusser Damm 22", "lat": 52.49047834243085, "lng": 13.423563140071089, "labeledLatLngs": [{"label": "display", "lat": 52.49047834243085, "lng": 13.423563140071089}], "distance": 753, "postalCode": "10967", "cc": "DE", "city": "Berlin", "state": "Berlin", "country": "Deutschland", "formattedAddress": ["Kottbusser Damm 22", "10967 Berlin", "Deutschland"]}, "categories": [{"id": "4bf58dd8d48988d17e941735", "name": "Indie Movie Theater", "pluralName": "Indie Movie Theaters", "shortName": "Indie Movies", "icon": {"prefix": "https://ss3.4sqi.net/img/categories_v2/arts_entertainment/movietheater_", "suffix": ".png"}, "primary": true}], "photos": {"count": 0, "groups": []}}, "referralId": "e-0-4adcda8bf964a520f44921e3-93"}, {"reasons": {"count": 0, "items": [{"summary": "This spot is popular", "type": "general", "reasonName": "globalInteractionReason"}]}, "venue": {"id": "53e62dd6498e7c5b4fb01155", "name": "the good store", "location": {"address": "Pannierstr. 31", "lat": 52.49073234849844, "lng": 13.43479996365245, "labeledLatLngs": [{"label": "display", "lat": 52.49073234849844, "lng": 13.43479996365245}], "distance": 355, "cc": "DE", "city": "Berlin", "state": "Berlin", "country": "Deutschland", "formattedAddress": ["Pannierstr. 31", "Berlin", "Deutschland"]}, "categories": [{"id": "4bf58dd8d48988d103951735", "name": "Clothing Store", "pluralName": "Clothing Stores", "shortName": "Apparel", "icon": {"prefix": "https://ss3.4sqi.net/img/categories_v2/shops/apparel_", "suffix": ".png"}, "primary": true}], "photos": {"count": 0, "groups": []}}, "referralId": "e-0-53e62dd6498e7c5b4fb01155-94"}, {"reasons": {"count": 0, "items": [{"summary": "This spot is popular", "type": "general", "reasonName": "globalInteractionReason"}]}, "venue": {"id": "5550c8a1498ea4ff673951ff", "name": "WOLF", "location": {"address": "Weserstra\u00dfe 59", "lat": 52.48290035056045, "lng": 13.441838727774554, "labeledLatLngs": [{"label": "display", "lat": 52.48290035056045, "lng": 13.441838727774554}], "distance": 764, "postalCode": "12045", "cc": "DE", "neighborhood": "Reuterkiez", "city": "Berlin", "state": "Berlin", "country": "Deutschland", "formattedAddress": ["Weserstra\u00dfe 59", "12045 Berlin", "Deutschland"]}, "categories": [{"id": "4bf58dd8d48988d17f941735", "name": "Movie Theater", "pluralName": "Movie Theaters", "shortName": "Movie Theater", "icon": {"prefix": "https://ss3.4sqi.net/img/categories_v2/arts_entertainment/movietheater_", "suffix": ".png"}, "primary": true}], "photos": {"count": 0, "groups": []}}, "referralId": "e-0-5550c8a1498ea4ff673951ff-95"}, {"reasons": {"count": 0, "items": [{"summary": "This spot is popular", "type": "general", "reasonName": "globalInteractionReason"}]}, "venue": {"id": "5176b692e4b088d7533326a3", "name": "Sahara Imbiss", "location": {"address": "Wildenbruchstr. 85", "lat": 52.483254414816805, "lng": 13.442168028778424, "labeledLatLngs": [{"label": "display", "lat": 52.483254414816805, "lng": 13.442168028778424}], "distance": 754, "postalCode": "12059", "cc": "DE", "city": "Berlin", "state": "Berlin", "country": "Deutschland", "formattedAddress": ["Wildenbruchstr. 85", "12059 Berlin", "Deutschland"]}, "categories": [{"id": "4bf58dd8d48988d1c8941735", "name": "African Restaurant", "pluralName": "African Restaurants", "shortName": "African", "icon": {"prefix": "https://ss3.4sqi.net/img/categories_v2/food/african_", "suffix": ".png"}, "primary": true}], "photos": {"count": 0, "groups": []}}, "referralId": "e-0-5176b692e4b088d7533326a3-96"}, {"reasons": {"count": 0, "items": [{"summary": "This spot is popular", "type": "general", "reasonName": "globalInteractionReason"}]}, "venue": {"id": "5b59be3dacb00b0039966cb3", "name": "Companion Tea & Coffee", "location": {"address": "Weserstra\u00dfe 166", "lat": 52.48331723887731, "lng": 13.441134981212718, "labeledLatLngs": [{"label": "display", "lat": 52.48331723887731, "lng": 13.441134981212718}], "distance": 697, "cc": "DE", "city": "Berlin", "state": "Berlin", "country": "Deutschland", "formattedAddress": ["Weserstra\u00dfe 166", "Berlin", "Deutschland"]}, "categories": [{"id": "4bf58dd8d48988d1e0931735", "name": "Coffee Shop", "pluralName": "Coffee Shops", "shortName": "Coffee Shop", "icon": {"prefix": "https://ss3.4sqi.net/img/categories_v2/food/coffeeshop_", "suffix": ".png"}, "primary": true}], "photos": {"count": 0, "groups": []}}, "referralId": "e-0-5b59be3dacb00b0039966cb3-97"}, {"reasons": {"count": 0, "items": [{"summary": "This spot is popular", "type": "general", "reasonName": "globalInteractionReason"}]}, "venue": {"id": "563a5d2dcd1016a2eed89107", "name": "Pizzeria Alte Forno", "location": {"address": "Sonnenalle", "crossStreet": "Hobrechtstra\u00dfe", "lat": 52.48707095404086, "lng": 13.427029410071814, "labeledLatLngs": [{"label": "display", "lat": 52.48707095404086, "lng": 13.427029410071814}], "distance": 452, "postalCode": "12043", "cc": "DE", "city": "Berlin", "state": "Berlin", "country": "Deutschland", "formattedAddress": ["Sonnenalle (Hobrechtstra\u00dfe)", "12043 Berlin", "Deutschland"]}, "categories": [{"id": "4bf58dd8d48988d110941735", "name": "Italian Restaurant", "pluralName": "Italian Restaurants", "shortName": "Italian", "icon": {"prefix": "https://ss3.4sqi.net/img/categories_v2/food/italian_", "suffix": ".png"}, "primary": true}], "photos": {"count": 0, "groups": []}}, "referralId": "e-0-563a5d2dcd1016a2eed89107-98"}, {"reasons": {"count": 0, "items": [{"summary": "This spot is popular", "type": "general", "reasonName": "globalInteractionReason"}]}, "venue": {"id": "4befd49dc601a593d303c3d1", "name": "Nowkoelln Flowmarkt", "location": {"address": "Maybachufer", "lat": 52.492640759250115, "lng": 13.43091675620902, "labeledLatLngs": [{"label": "display", "lat": 52.492640759250115, "lng": 13.43091675620902}], "distance": 588, "postalCode": "12047", "cc": "DE", "city": "Berlin", "state": "Berlin", "country": "Deutschland", "formattedAddress": ["Maybachufer", "12047 Berlin", "Deutschland"]}, "categories": [{"id": "4bf58dd8d48988d1f7941735", "name": "Flea Market", "pluralName": "Flea Markets", "shortName": "Flea Market", "icon": {"prefix": "https://ss3.4sqi.net/img/categories_v2/shops/fleamarket_", "suffix": ".png"}, "primary": true}], "photos": {"count": 0, "groups": []}}, "referralId": "e-0-4befd49dc601a593d303c3d1-99"}]