[{"reasons": {"count": 0, "items": [{"summary": "This spot is popular", "type": "general", "reasonName": "globalInteractionReason"}]}, "venue": {"id": "4b6443b9f964a52033a72ae3", "name": "Bouldergarten", "location": {"address": "Thiemannstr 1, Tor 4, 2.Hinterhof", "lat": 52.47947, "lng": 13.451368, "labeledLatLngs": [{"label": "display", "lat": 52.47947, "lng": 13.451368}], "distance": 242, "postalCode": "12059", "cc": "DE", "city": "Berlin", "state": "Berlin", "country": "Deutschland", "formattedAddress": ["Thiemannstr 1, Tor 4, 2.Hinterhof", "12059 Berlin", "Deutschland"]}, "categories": [{"id": "503289d391d4c4b30a586d6a", "name": "Climbing Gym", "pluralName": "Climbing Gyms", "shortName": "Climbing Gym", "icon": {"prefix": "https://ss3.4sqi.net/img/categories_v2/building/gym_", "suffix": ".png"}, "primary": true}], "photos": {"count": 0, "groups": []}}, "referralId": "e-0-4b6443b9f964a52033a72ae3-0"}, {"reasons": {"count": 0, "items": [{"summary": "This spot is popular", "type": "general", "reasonName": "globalInteractionReason"}]}, "venue": {"id": "55f00b3d498e0631d05c33b2", "name": "Comedy Caf\u00e9 Berlin", "location": {"address": "Roseggerstr. 17", "crossStreet": "Weserstr.", "lat": 52.480254812930724, "lng": 13.446879386901855, "labeledLatLngs": [{"label": "display", "lat": 52.480254812930724, "lng": 13.446879386901855}], "distance": 265, "postalCode": "12059", "cc": "DE", "city": "Berlin", "state": "Berlin", "country": "Deutschland", "formattedAddress": ["Roseggerstr. 17 (Weserstr.)", "12059 Berlin", "Deutschland"]}, "categories": [{"id": "4bf58dd8d48988d18e941735", "name": "Comedy Club", "pluralName": "Comedy Clubs", "shortName": "Comedy Club", "icon": {"prefix": "https://ss3.4sqi.net/img/categories_v2/arts_entertainment/comedyclub_", "suffix": ".png"}, "primary": true}], "photos": {"count": 0, "groups": []}, "venuePage": {"id": "144260848"}}, "referralId": "e-0-55f00b3d498e0631d05c33b2-1"}, {"reasons": {"count": 0, "items": [{"summary": "This spot is popular", "type": "general", "reasonName": "globalInteractionReason"}]}, "venue": {"id": "568d61a2498e7df8e535bba6", "name": "Begur", "location": {"address": "Weigandufer 36", "crossStreet": "Treptower Str", "lat": 52.480937, "lng": 13.451923, "labeledLatLngs": [{"label": "display", "lat": 52.480937, "lng": 13.451923}], "distance": 388, "postalCode": "12059", "cc": "DE", "city": "Berlin", "state": "Berlin", "country": "Deutschland", "formattedAddress": ["Weigandufer 36 (Treptower Str)", "12059 Berlin", "Deutschland"]}, "categories": [{"id": "4bf58dd8d48988d150941735", "name": "Spanish Restaurant", "pluralName": "Spanish Restaurants", "shortName": "Spanish", "icon": {"prefix": "https://ss3.4sqi.net/img/categories_v2/food/spanish_", "suffix": ".png"}, "primary": true}], "photos": {"count": 0, "groups": []}}, "referralId": "e-0-568d61a2498e7df8e535bba6-2"}, {"reasons": {"count": 0, "items": [{"summary": "This spot is popular", "type": "general", "reasonName": "globalInteractionReason"}]}, "venue": {"id": "4cf7f072dc40a35d05245054", "name": "Mae Charoen", "location": {"address": "Sonnenallee 134", "crossStreet": "Geygerstr.", "lat": 52.47970186394123, "lng": 13.444004335520644, "labeledLatLngs": [{"label": "display", "lat": 52.47970186394123, "lng": 13.444004335520644}], "distance": 357, "postalCode": "12059", "cc": "DE", "city": "Berlin", "state": "Berlin", "country": "Deutschland", "formattedAddress": ["Sonnenallee 134 (Geygerstr.)", "12059 Berlin", "Deutschland"]}, "categories": [{"id": "4bf58dd8d48988d149941735", "name": "Thai Restaurant", "pluralName": "Thai Restaurants", "shortName": "Thai", "icon": {"prefix": "https://ss3.4sqi.net/img/categories_v2/food/thai_", "suffix": ".png"}, "primary": true}], "photos": {"count": 0, "groups": []}}, "referralId": "e-0-4cf7f072dc40a35d05245054-3"}, {"reasons": {"count": 0, "items": [{"summary": "This spot is popular", "type": "general", "reasonName": "globalInteractionReason"}]}, "venue": {"id": "54e10a6a498e2dc6fb1a965e", "name": "Rotbart", "location": {"address": "B\u00f6hmische Str. 43", "lat": 52.4741492705725, "lng": 13.449253552968257, "labeledLatLngs": [{"label": "display", "lat": 52.4741492705725, "lng": 13.449253552968257}], "distance": 442, "postalCode": "12055", "cc": "DE", "city": "Berlin", "state": "Berlin", "country": "Deutschland", "formattedAddress": ["B\u00f6hmische Str. 43", "12055 Berlin", "Deutschland"]}, "categories": [{"id": "4bf58dd8d48988d116941735", "name": "Bar", "pluralName": "Bars", "shortName": "Bar", "icon": {"prefix": "https://ss3.4sqi.net/img/categories_v2/nightlife/pub_", "suffix": ".png"}, "primary": true}], "photos": {"count": 0, "groups": []}, "venuePage": {"id": "395407294"}}, "referralId": "e-0-54e10a6a498e2dc6fb1a965e-4"}, {"reasons": {"count": 0, "items": [{"summary": "This spot is popular", "type": "general", "reasonName": "globalInteractionReason"}]}, "venue": {"id": "4c430451e26920a115d460e7", "name": "Dritter Raum", "location": {"address": "Hertzbergstra\u00dfe 14", "lat": 52.477134, "lng": 13.448106, "labeledLatLngs": [{"label": "display", "lat": 52.477134, "lng": 13.448106}], "distance": 112, "postalCode": "12055", "cc": "DE", "city": "Berlin", "state": "Berlin", "country": "Deutschland", "formattedAddress": ["Hertzbergstra\u00dfe 14", "12055 Berlin", "Deutschland"]}, "categories": [{"id": "4bf58dd8d48988d16d941735", "name": "Caf\u00e9", "pluralName": "Caf\u00e9s", "shortName": "Caf\u00e9", "icon": {"prefix": "https://ss3.4sqi.net/img/categories_v2/food/cafe_", "suffix": ".png"}, "primary": true}], "photos": {"count": 0, "groups": []}}, "referralId": "e-0-4c430451e26920a115d460e7-5"}, {"reasons": {"count": 0, "items": [{"summary": "This spot is popular", "type": "general", "reasonName": "globalInteractionReason"}]}, "venue": {"id": "4c17d966834e2d7fa3fd2780", "name": "Richardplatz", "location": {"address": "Richardplatz", "crossStreet": "Richardstr.", "lat": 52.474051, "lng": 13.445404, "labeledLatLngs": [{"label": "display", "lat": 52.474051, "lng": 13.445404}], "distance": 500, "postalCode": "12055", "cc": "DE", "city": "Berlin", "state": "Berlin", "country": "Deutschland", "formattedAddress": ["Richardplatz (Richardstr.)", "12055 Berlin", "Deutschland"]}, "categories": [{"id": "4bf58dd8d48988d164941735", "name": "Plaza", "pluralName": "Plazas", "shortName": "Plaza", "icon": {"prefix": "https://ss3.4sqi.net/img/categories_v2/parks_outdoors/plaza_", "suffix": ".png"}, "primary": true}], "photos": {"count": 0, "groups": []}}, "referralId": "e-0-4c17d966834e2d7fa3fd2780-6"}, {"reasons": {"count": 0, "items": [{"summary": "This spot is popular", "type": "general", "reasonName": "globalInteractionReason"}]}, "venue": {"id": "5a397f23c6666622a0d7dfb0", "name": "Paulinski Palme", "location": {"address": "Richardstr. 76", "lat": 52.474957639356376, "lng": 13.444590003205292, "labeledLatLngs": [{"label": "display", "lat": 52.474957639356376, "lng": 13.444590003205292}], "distance": 442, "cc": "DE", "neighborhood": "B\u00f6hmisch-Rixdorf", "city": "Berlin", "state": "Berlin", "country": "Deutschland", "formattedAddress": ["Richardstr. 76", "Berlin", "Deutschland"]}, "categories": [{"id": "4bf58dd8d48988d123941735", "name": "Wine Bar", "pluralName": "Wine Bars", "shortName": "Wine Bar", "icon": {"prefix": "https://ss3.4sqi.net/img/categories_v2/food/winery_", "suffix": ".png"}, "primary": true}], "photos": {"count": 0, "groups": []}}, "referralId": "e-0-5a397f23c6666622a0d7dfb0-7"}, {"reasons": {"count": 0, "items": [{"summary": "This spot is popular", "type": "general", "reasonName": "globalInteractionReason"}]}, "venue": {"id": "59600485123a19106a74b87f", "name": "Herr Lindemann", "location": {"address": "Richardplatz 16", "lat": 52.473923, "lng": 13.444992, "labeledLatLngs": [{"label": "display", "lat": 52.473923, "lng": 13.444992}], "distance": 525, "postalCode": "12055", "cc": "DE", "neighborhood": "B\u00f6hmisch-Rixdorf", "city": "Berlin", "state": "Berlin", "country": "Deutschland", "formattedAddress": ["Richardplatz 16", "12055 Berlin", "Deutschland"]}, "categories": [{"id": "4bf58dd8d48988d11e941735", "name": "Cocktail Bar", "pluralName": "Cocktail Bars", "shortName": "Cocktail", "icon": {"prefix": "https://ss3.4sqi.net/img/categories_v2/nightlife/cocktails_", "suffix": ".png"}, "primary": true}], "photos": {"count": 0, "groups": []}, "venuePage": {"id": "563673500"}}, "referralId": "e-0-59600485123a19106a74b87f-8"}, {"reasons": {"count": 0, "items": [{"summary": "This spot is popular", "type": "general", "reasonName": "globalInteractionReason"}]}, "venue": {"id": "59f9baea8c812a14a8bf4ad7", "name": "Holy Coffee", "location": {"address": "Sonnenallee 132", "crossStreet": "Geygerstr.", "lat": 52.479833459184675, "lng": 13.443649838260455, "labeledLatLngs": [{"label": "display", "lat": 52.479833459184675, "lng": 13.443649838260455}], "distance": 385, "postalCode": "12059", "cc": "DE", "neighborhood": "Neuk\u00f6lln", "city": "Berlin", "state": "Berlin", "country": "Deutschland", "formattedAddress": ["Sonnenallee 132 (Geygerstr.)", "12059 Berlin", "Deutschland"]}, "categories": [{"id": "4bf58dd8d48988d1e0931735", "name": "Coffee Shop", "pluralName": "Coffee Shops", "shortName": "Coffee Shop", "icon": {"prefix": "https://ss3.4sqi.net/img/categories_v2/food/coffeeshop_", "suffix": ".png"}, "primary": true}], "photos": {"count": 0, "groups": []}}, "referralId": "e-0-59f9baea8c812a14a8bf4ad7-9"}, {"reasons": {"count": 0, "items": [{"summary": "This spot is popular", "type": "general", "reasonName": "globalInteractionReason"}]}, "venue": {"id": "5905e024a6fe4d0aa5c3e165", "name": "Eis de Rix", "location": {"address": "B\u00f6hmische Str. 48", "lat": 52.47324957385636, "lng": 13.448776677939097, "labeledLatLngs": [{"label": "display", "lat": 52.47324957385636, "lng": 13.448776677939097}], "distance": 540, "postalCode": "12055", "cc": "DE", "city": "Berlin", "state": "Berlin", "country": "Deutschland", "formattedAddress": ["B\u00f6hmische Str. 48", "12055 Berlin", "Deutschland"]}, "categories": [{"id": "4bf58dd8d48988d1c9941735", "name": "Ice Cream Shop", "pluralName": "Ice Cream Shops", "shortName": "Ice Cream", "icon": {"prefix": "https://ss3.4sqi.net/img/categories_v2/food/icecream_", "suffix": ".png"}, "primary": true}], "photos": {"count": 0, "groups": []}}, "referralId": "e-0-5905e024a6fe4d0aa5c3e165-10"}, {"reasons": {"count": 0, "items": [{"summary": "This spot is popular", "type": "general", "reasonName": "globalInteractionReason"}]}, "venue": {"id": "549d71b1498e498dac698541", "name": "Zuckerbaby", "location": {"address": "Richardplatz 21", "lat": 52.47406674663551, "lng": 13.447139247387375, "labeledLatLngs": [{"label": "display", "lat": 52.47406674663551, "lng": 13.447139247387375}], "distance": 460, "postalCode": "12055", "cc": "DE", "city": "Berlin", "state": "Berlin", "country": "Deutschland", "formattedAddress": ["Richardplatz 21", "12055 Berlin", "Deutschland"]}, "categories": [{"id": "4bf58dd8d48988d16d941735", "name": "Caf\u00e9", "pluralName": "Caf\u00e9s", "shortName": "Caf\u00e9", "icon": {"prefix": "https://ss3.4sqi.net/img/categories_v2/food/cafe_", "suffix": ".png"}, "primary": true}], "photos": {"count": 0, "groups": []}}, "referralId": "e-0-549d71b1498e498dac698541-11"}, {"reasons": {"count": 0, "items": [{"summary": "This spot is popular", "type": "general", "reasonName": "globalInteractionReason"}]}, "venue": {"id": "5b2e831c724750002c4e7540", "name": "Zosse", "location": {"address": "Richardstrasse 37", "lat": 52.474918, "lng": 13.443632, "labeledLatLngs": [{"label": "display", "lat": 52.474918, "lng": 13.443632}], "distance": 488, "postalCode": "12055", "cc": "DE", "neighborhood": "Karl-Marx-Stra\u00dfe", "city": "Berlin", "state": "Berlin", "country": "Deutschland", "formattedAddress": ["Richardstrasse 37", "12055 Berlin", "Deutschland"]}, "categories": [{"id": "4bf58dd8d48988d155941735", "name": "Gastropub", "pluralName": "Gastropubs", "shortName": "Gastropub", "icon": {"prefix": "https://ss3.4sqi.net/img/categories_v2/food/gastropub_", "suffix": ".png"}, "primary": true}], "photos": {"count": 0, "groups": []}}, "referralId": "e-0-5b2e831c724750002c4e7540-12"}, {"reasons": {"count": 0, "items": [{"summary": "This spot is popular", "type": "general", "reasonName": "globalInteractionReason"}]}, "venue": {"id": "50b66cd2e4b0bc146bb4280c", "name": "Alter Roter L\u00f6we Rein", "location": {"address": "Richardstr. 31", "lat": 52.47576451922523, "lng": 13.443177572017891, "labeledLatLngs": [{"label": "display", "lat": 52.47576451922523, "lng": 13.443177572017891}], "distance": 449, "postalCode": "12043", "cc": "DE", "city": "Berlin", "state": "Berlin", "country": "Deutschland", "formattedAddress": ["Richardstr. 31", "12043 Berlin", "Deutschland"]}, "categories": [{"id": "4bf58dd8d48988d116941735", "name": "Bar", "pluralName": "Bars", "shortName": "Bar", "icon": {"prefix": "https://ss3.4sqi.net/img/categories_v2/nightlife/pub_", "suffix": ".png"}, "primary": true}], "photos": {"count": 0, "groups": []}}, "referralId": "e-0-50b66cd2e4b0bc146bb4280c-13"}, {"reasons": {"count": 0, "items": [{"summary": "This spot is popular", "type": "general", "reasonName": "globalInteractionReason"}]}, "venue": {"id": "568ff6b4498e9b759e819bcd", "name": "Caf\u00e9 Trinkaus", "location": {"address": "Roseggerstr. 43", "lat": 52.4789134, "lng": 13.4445034, "labeledLatLngs": [{"label": "display", "lat": 52.4789134, "lng": 13.4445034}], "distance": 290, "postalCode": "12043", "cc": "DE", "city": "Berlin", "state": "Berlin", "country": "Deutschland", "formattedAddress": ["Roseggerstr. 43", "12043 Berlin", "Deutschland"]}, "categories": [{"id": "4bf58dd8d48988d16d941735", "name": "Caf\u00e9", "pluralName": "Caf\u00e9s", "shortName": "Caf\u00e9", "icon": {"prefix": "https://ss3.4sqi.net/img/categories_v2/food/cafe_", "suffix": ".png"}, "primary": true}], "photos": {"count": 0, "groups": []}}, "referralId": "e-0-568ff6b4498e9b759e819bcd-14"}, {"reasons": {"count": 0, "items": [{"summary": "This spot is popular", "type": "general", "reasonName": "globalInteractionReason"}]}, "venue": {"id": "51447b44e4b0ec73205fbe05", "name": "P\u00eale-M\u00eale", "location": {"address": "Innstr. 26", "lat": 52.479504589221584, "lng": 13.441588028737131, "labeledLatLngs": [{"label": "display", "lat": 52.479504589221584, "lng": 13.441588028737131}], "distance": 499, "postalCode": "12043", "cc": "DE", "city": "Berlin", "state": "Berlin", "country": "Deutschland", "formattedAddress": ["Innstr. 26", "12043 Berlin", "Deutschland"]}, "categories": [{"id": "4bf58dd8d48988d1d3941735", "name": "Vegetarian / Vegan Restaurant", "pluralName": "Vegetarian / Vegan Restaurants", "shortName": "Vegetarian / Vegan", "icon": {"prefix": "https://ss3.4sqi.net/img/categories_v2/food/vegetarian_", "suffix": ".png"}, "primary": true}], "photos": {"count": 0, "groups": []}}, "referralId": "e-0-51447b44e4b0ec73205fbe05-15"}, {"reasons": {"count": 0, "items": [{"summary": "This spot is popular", "type": "general", "reasonName": "globalInteractionReason"}]}, "venue": {"id": "5217309f498e84315daee9cb", "name": "Caf\u00e9 Botanico", "location": {"address": "Richardstr. 100", "lat": 52.47731595457574, "lng": 13.441248048118089, "labeledLatLngs": [{"label": "display", "lat": 52.47731595457574, "lng": 13.441248048118089}], "distance": 504, "postalCode": "12043", "cc": "DE", "city": "Berlin", "state": "Berlin", "country": "Deutschland", "formattedAddress": ["Richardstr. 100", "12043 Berlin", "Deutschland"]}, "categories": [{"id": "4bf58dd8d48988d16d941735", "name": "Caf\u00e9", "pluralName": "Caf\u00e9s", "shortName": "Caf\u00e9", "icon": {"prefix": "https://ss3.4sqi.net/img/categories_v2/food/cafe_", "suffix": ".png"}, "primary": true}], "photos": {"count": 0, "groups": []}}, "referralId": "e-0-5217309f498e84315daee9cb-16"}, {"reasons": {"count": 0, "items": [{"summary": "This spot is popular", "type": "general", "reasonName": "globalInteractionReason"}]}, "venue": {"id": "504a0033e4b0fae9a726b820", "name": "SAVVY Contemporary", "location": {"address": "Richardstr. 20", "lat": 52.47684168244228, "lng": 13.44120383015267, "labeledLatLngs": [{"label": "display", "lat": 52.47684168244228, "lng": 13.44120383015267}], "distance": 519, "postalCode": "12055", "cc": "DE", "city": "Berlin", "state": "Berlin", "country": "Deutschland", "formattedAddress": ["Richardstr. 20", "12055 Berlin", "Deutschland"]}, "categories": [{"id": "4bf58dd8d48988d1e2931735", "name": "Art Gallery", "pluralName": "Art Galleries", "shortName": "Art Gallery", "icon": {"prefix": "https://ss3.4sqi.net/img/categories_v2/arts_entertainment/artgallery_", "suffix": ".png"}, "primary": true}], "photos": {"count": 0, "groups": []}}, "referralId": "e-0-504a0033e4b0fae9a726b820-17"}, {"reasons": {"count": 0, "items": [{"summary": "This spot is popular", "type": "general", "reasonName": "globalInteractionReason"}]}, "venue": {"id": "520a8c6dbce6229b434e417e", "name": "Du Beast", "location": {"address": "Innstr. 4", "lat": 52.482412, "lng": 13.445145, "labeledLatLngs": [{"label": "display", "lat": 52.482412, "lng": 13.445145}], "distance": 532, "postalCode": "12045", "cc": "DE", "city": "Berlin", "state": "Berlin", "country": "Deutschland", "formattedAddress": ["Innstr. 4", "12045 Berlin", "Deutschland"]}, "categories": [{"id": "4bf58dd8d48988d116941735", "name": "Bar", "pluralName": "Bars", "shortName": "Bar", "icon": {"prefix": "https://ss3.4sqi.net/img/categories_v2/nightlife/pub_", "suffix": ".png"}, "primary": true}], "photos": {"count": 0, "groups": []}, "venuePage": {"id": "81405306"}}, "referralId": "e-0-520a8c6dbce6229b434e417e-18"}, {"reasons": {"count": 0, "items": [{"summary": "This spot is popular", "type": "general", "reasonName": "globalInteractionReason"}]}, "venue": {"id": "4b0ea86df964a5205f5923e3", "name": "Heimathafen Neuk\u00f6lln", "location": {"address": "Karl-Marx-Str. 141", "lat": 52.47694577044968, "lng": 13.439722525814265, "labeledLatLngs": [{"label": "display", "lat": 52.47694577044968, "lng": 13.439722525814265}], "distance": 614, "postalCode": "12043", "cc": "DE", "city": "Berlin", "state": "Berlin", "country": "Deutschland", "formattedAddress": ["Karl-Marx-Str. 141", "12043 Berlin", "Deutschland"]}, "categories": [{"id": "4bf58dd8d48988d135941735", "name": "Indie Theater", "pluralName": "Indie Theaters", "shortName": "Indie", "icon": {"prefix": "https://ss3.4sqi.net/img/categories_v2/arts_entertainment/performingarts_theater_", "suffix": ".png"}, "primary": true}], "photos": {"count": 0, "groups": []}}, "referralId": "e-0-4b0ea86df964a5205f5923e3-19"}, {"reasons": {"count": 0, "items": [{"summary": "This spot is popular", "type": "general", "reasonName": "globalInteractionReason"}]}, "venue": {"id": "4b50efa8f964a520723927e3", "name": "B-Lage", "location": {"address": "Mareschstr. 1", "crossStreet": "Schudomastr.", "lat": 52.47381086526746, "lng": 13.451008248650014, "labeledLatLngs": [{"label": "display", "lat": 52.47381086526746, "lng": 13.451008248650014}], "distance": 505, "postalCode": "12055", "cc": "DE", "city": "Berlin", "state": "Berlin", "country": "Deutschland", "formattedAddress": ["Mareschstr. 1 (Schudomastr.)", "12055 Berlin", "Deutschland"]}, "categories": [{"id": "4bf58dd8d48988d116941735", "name": "Bar", "pluralName": "Bars", "shortName": "Bar", "icon": {"prefix": "https://ss3.4sqi.net/img/categories_v2/nightlife/pub_", "suffix": ".png"}, "primary": true}], "photos": {"count": 0, "groups": []}}, "referralId": "e-0-4b50efa8f964a520723927e3-20"}, {"reasons": {"count": 0, "items": [{"summary": "This spot is popular", "type": "general", "reasonName": "globalInteractionReason"}]}, "venue": {"id": "54327512498e648f00ca0f3b", "name": "Caffeggiando", "location": {"address": "Anzengruberstr. 19", "lat": 52.48067603707893, "lng": 13.440000066387604, "labeledLatLngs": [{"label": "display", "lat": 52.48067603707893, "lng": 13.440000066387604}], "distance": 648, "postalCode": "12043", "cc": "DE", "city": "Berlin", "state": "Berlin", "country": "Deutschland", "formattedAddress": ["Anzengruberstr. 19", "12043 Berlin", "Deutschland"]}, "categories": [{"id": "4bf58dd8d48988d1e0931735", "name": "Coffee Shop", "pluralName": "Coffee Shops", "shortName": "Coffee Shop", "icon": {"prefix": "https://ss3.4sqi.net/img/categories_v2/food/coffeeshop_", "suffix": ".png"}, "primary": true}], "photos": {"count": 0, "groups": []}}, "referralId": "e-0-54327512498e648f00ca0f3b-21"}, {"reasons": {"count": 0, "items": [{"summary": "This spot is popular", "type": "general", "reasonName": "globalInteractionReason"}]}, "venue": {"id": "4d9712c6a2c654813bdbce53", "name": "Comenius-Garten", "location": {"address": "Richardstr. 35", "crossStreet": "Karl-Marx-Platz", "lat": 52.47504467762332, "lng": 13.442802429199219, "labeledLatLngs": [{"label": "display", "lat": 52.47504467762332, "lng": 13.442802429199219}], "distance": 519, "postalCode": "12043", "cc": "DE", "city": "Berlin", "state": "Berlin", "country": "Deutschland", "formattedAddress": ["Richardstr. 35 (Karl-Marx-Platz)", "12043 Berlin", "Deutschland"]}, "categories": [{"id": "4bf58dd8d48988d15a941735", "name": "Garden", "pluralName": "Gardens", "shortName": "Garden", "icon": {"prefix": "https://ss3.4sqi.net/img/categories_v2/parks_outdoors/garden_", "suffix": ".png"}, "primary": true}], "photos": {"count": 0, "groups": []}}, "referralId": "e-0-4d9712c6a2c654813bdbce53-22"}, {"reasons": {"count": 0, "items": [{"summary": "This spot is popular", "type": "general", "reasonName": "globalInteractionReason"}]}, "venue": {"id": "50f972bce4b0c9038863a278", "name": "Dr. Pogo Veganladen", "location": {"address": "Karl-Marx-Platz 24", "lat": 52.47391871763757, "lng": 13.443196944649117, "labeledLatLngs": [{"label": "display", "lat": 52.47391871763757, "lng": 13.443196944649117}], "distance": 592, "postalCode": "12043", "cc": "DE", "city": "Berlin", "state": "Berlin", "country": "Deutschland", "formattedAddress": ["Karl-Marx-Platz 24", "12043 Berlin", "Deutschland"]}, "categories": [{"id": "52f2ab2ebcbc57f1066b8b45", "name": "Organic Grocery", "pluralName": "Organic Groceries", "shortName": "Organic Grocery", "icon": {"prefix": "https://ss3.4sqi.net/img/categories_v2/shops/food_grocery_", "suffix": ".png"}, "primary": true}], "photos": {"count": 0, "groups": []}}, "referralId": "e-0-50f972bce4b0c9038863a278-23"}, {"reasons": {"count": 0, "items": [{"summary": "This spot is popular", "type": "general", "reasonName": "globalInteractionReason"}]}, "venue": {"id": "4adcda7ef964a520be4721e3", "name": "Stadtbad Neuk\u00f6lln", "location": {"address": "Ganghoferstr. 3", "lat": 52.479245262119015, "lng": 13.439937829971313, "labeledLatLngs": [{"label": "display", "lat": 52.479245262119015, "lng": 13.439937829971313}], "distance": 599, "postalCode": "12043", "cc": "DE", "city": "Berlin", "state": "Berlin", "country": "Deutschland", "formattedAddress": ["Ganghoferstr. 3", "12043 Berlin", "Deutschland"]}, "categories": [{"id": "4bf58dd8d48988d15e941735", "name": "Pool", "pluralName": "Pools", "shortName": "Pool", "icon": {"prefix": "https://ss3.4sqi.net/img/categories_v2/parks_outdoors/pool_", "suffix": ".png"}, "primary": true}], "photos": {"count": 0, "groups": []}}, "referralId": "e-0-4adcda7ef964a520be4721e3-24"}, {"reasons": {"count": 0, "items": [{"summary": "This spot is popular", "type": "general", "reasonName": "globalInteractionReason"}]}, "venue": {"id": "4b771b51f964a5201c7e2ee3", "name": "Passage Kino", "location": {"address": "Karl-Marx-Str. 131", "lat": 52.477532904422084, "lng": 13.439125090358829, "labeledLatLngs": [{"label": "display", "lat": 52.477532904422084, "lng": 13.439125090358829}], "distance": 644, "postalCode": "12043", "cc": "DE", "city": "Berlin", "state": "Berlin", "country": "Deutschland", "formattedAddress": ["Karl-Marx-Str. 131", "12043 Berlin", "Deutschland"]}, "categories": [{"id": "4bf58dd8d48988d17e941735", "name": "Indie Movie Theater", "pluralName": "Indie Movie Theaters", "shortName": "Indie Movies", "icon": {"prefix": "https://ss3.4sqi.net/img/categories_v2/arts_entertainment/movietheater_", "suffix": ".png"}, "primary": true}], "photos": {"count": 0, "groups": []}}, "referralId": "e-0-4b771b51f964a5201c7e2ee3-25"}, {"reasons": {"count": 0, "items": [{"summary": "This spot is popular", "type": "general", "reasonName": "globalInteractionReason"}]}, "venue": {"id": "571b5777498eba1f339da072", "name": "Hallmann & Klee", "location": {"address": "B\u00f6hmische Str. 13", "lat": 52.47387511864995, "lng": 13.449516591524423, "labeledLatLngs": [{"label": "display", "lat": 52.47387511864995, "lng": 13.449516591524423}], "distance": 475, "postalCode": "12055", "cc": "DE", "city": "Berlin", "state": "Berlin", "country": "Deutschland", "formattedAddress": ["B\u00f6hmische Str. 13", "12055 Berlin", "Deutschland"]}, "categories": [{"id": "4bf58dd8d48988d143941735", "name": "Breakfast Spot", "pluralName": "Breakfast Spots", "shortName": "Breakfast", "icon": {"prefix": "https://ss3.4sqi.net/img/categories_v2/food/breakfast_", "suffix": ".png"}, "primary": true}], "photos": {"count": 0, "groups": []}}, "referralId": "e-0-571b5777498eba1f339da072-26"}, {"reasons": {"count": 0, "items": [{"summary": "This spot is popular", "type": "general", "reasonName": "globalInteractionReason"}]}, "venue": {"id": "553f327a498ef304d458806a", "name": "Hugo Ball", "location": {"address": "Saalestr. 38", "crossStreet": "Siegfried-Aufh\u00e4user-Platz", "lat": 52.472613, "lng": 13.45484, "labeledLatLngs": [{"label": "display", "lat": 52.472613, "lng": 13.45484}], "distance": 744, "postalCode": "12055", "cc": "DE", "city": "Berlin", "state": "Berlin", "country": "Deutschland", "formattedAddress": ["Saalestr. 38 (Siegfried-Aufh\u00e4user-Platz)", "12055 Berlin", "Deutschland"]}, "categories": [{"id": "52e81612bcbc57f1066b79f1", "name": "Bistro", "pluralName": "Bistros", "shortName": "Bistro", "icon": {"prefix": "https://ss3.4sqi.net/img/categories_v2/food/default_", "suffix": ".png"}, "primary": true}], "photos": {"count": 0, "groups": []}}, "referralId": "e-0-553f327a498ef304d458806a-27"}, {"reasons": {"count": 0, "items": [{"summary": "This spot is popular", "type": "general", "reasonName": "globalInteractionReason"}]}, "venue": {"id": "5550c8a1498ea4ff673951ff", "name": "WOLF", "location": {"address": "Weserstra\u00dfe 59", "lat": 52.48290035056045, "lng": 13.441838727774554, "labeledLatLngs": [{"label": "display", "lat": 52.48290035056045, "lng": 13.441838727774554}], "distance": 702, "postalCode": "12045", "cc": "DE", "neighborhood": "Reuterkiez", "city": "Berlin", "state": "Berlin", "country": "Deutschland", "formattedAddress": ["Weserstra\u00dfe 59", "12045 Berlin", "Deutschland"]}, "categories": [{"id": "4bf58dd8d48988d17f941735", "name": "Movie Theater", "pluralName": "Movie Theaters", "shortName": "Movie Theater", "icon": {"prefix": "https://ss3.4sqi.net/img/categories_v2/arts_entertainment/movietheater_", "suffix": ".png"}, "primary": true}], "photos": {"count": 0, "groups": []}}, "referralId": "e-0-5550c8a1498ea4ff673951ff-28"}, {"reasons": {"count": 0, "items": [{"summary": "This spot is popular", "type": "general", "reasonName": "globalInteractionReason"}]}, "venue": {"id": "4d039544a26854810d9fb2bd", "name": "Geschwister Nothaft", "location": {"address": "Schwarzastr. 9", "lat": 52.472679, "lng": 13.454639, "labeledLatLngs": [{"label": "display", "lat": 52.472679, "lng": 13.454639}], "distance": 730, "postalCode": "12055", "cc": "DE", "city": "Berlin", "state": "Berlin", "country": "Deutschland", "formattedAddress": ["Schwarzastr. 9", "12055 Berlin", "Deutschland"]}, "categories": [{"id": "4bf58dd8d48988d1e0931735", "name": "Coffee Shop", "pluralName": "Coffee Shops", "shortName": "Coffee Shop", "icon": {"prefix": "https://ss3.4sqi.net/img/categories_v2/food/coffeeshop_", "suffix": ".png"}, "primary": true}], "photos": {"count": 0, "groups": []}, "venuePage": {"id": "404620307"}}, "referralId": "e-0-4d039544a26854810d9fb2bd-29"}, {"reasons": {"count": 0, "items": [{"summary": "This spot is popular", "type": "general", "reasonName": "globalInteractionReason"}]}, "venue": {"id": "4bddb0abf5eab713a60b2ef8", "name": "Minigolf und Pit-Pat am Hertzbergplatz", "location": {"address": "Sonnenallee 165", "crossStreet": "Treptower stra\u00dfe", "lat": 52.47790314420611, "lng": 13.448756564915188, "labeledLatLngs": [{"label": "display", "lat": 52.47790314420611, "lng": 13.448756564915188}], "distance": 25, "cc": "DE", "city": "Berlin", "state": "Berlin", "country": "Deutschland", "formattedAddress": ["Sonnenallee 165 (Treptower stra\u00dfe)", "Berlin", "Deutschland"]}, "categories": [{"id": "52e81612bcbc57f1066b79eb", "name": "Mini Golf", "pluralName": "Mini Golf Courses", "shortName": "Mini Golf", "icon": {"prefix": "https://ss3.4sqi.net/img/categories_v2/parks_outdoors/golfcourse_", "suffix": ".png"}, "primary": true}], "photos": {"count": 0, "groups": []}}, "referralId": "e-0-4bddb0abf5eab713a60b2ef8-30"}, {"reasons": {"count": 0, "items": [{"summary": "This spot is popular", "type": "general", "reasonName": "globalInteractionReason"}]}, "venue": {"id": "5259adfd498e8d8c6524c701", "name": "Velvet", "location": {"address": "Ganghofer Str. 1", "lat": 52.47907882608319, "lng": 13.438421123549753, "labeledLatLngs": [{"label": "display", "lat": 52.47907882608319, "lng": 13.438421123549753}], "distance": 697, "postalCode": "12043", "cc": "DE", "city": "Berlin", "state": "Berlin", "country": "Deutschland", "formattedAddress": ["Ganghofer Str. 1", "12043 Berlin", "Deutschland"]}, "categories": [{"id": "4bf58dd8d48988d11e941735", "name": "Cocktail Bar", "pluralName": "Cocktail Bars", "shortName": "Cocktail", "icon": {"prefix": "https://ss3.4sqi.net/img/categories_v2/nightlife/cocktails_", "suffix": ".png"}, "primary": true}], "photos": {"count": 0, "groups": []}}, "referralId": "e-0-5259adfd498e8d8c6524c701-31"}, {"reasons": {"count": 0, "items": [{"summary": "This spot is popular", "type": "general", "reasonName": "globalInteractionReason"}]}, "venue": {"id": "5c82bbc1f1fdaf002cf065da", "name": "Loveburger", "location": {"address": "Treptower Stra\u00dfe 90", "lat": 52.479015, "lng": 13.449099, "labeledLatLngs": [{"label": "display", "lat": 52.479015, "lng": 13.449099}], "distance": 107, "postalCode": "12059", "cc": "DE", "city": "Berlin", "state": "Berlin", "country": "Deutschland", "formattedAddress": ["Treptower Stra\u00dfe 90", "12059 Berlin", "Deutschland"]}, "categories": [{"id": "4bf58dd8d48988d16c941735", "name": "Burger Joint", "pluralName": "Burger Joints", "shortName": "Burgers", "icon": {"prefix": "https://ss3.4sqi.net/img/categories_v2/food/burger_", "suffix": ".png"}, "primary": true}], "photos": {"count": 0, "groups": []}}, "referralId": "e-0-5c82bbc1f1fdaf002cf065da-32"}, {"reasons": {"count": 0, "items": [{"summary": "This spot is popular", "type": "general", "reasonName": "globalInteractionReason"}]}, "venue": {"id": "4c82c05bd92ea09333074e72", "name": "Sameheads", "location": {"address": "Richardstr. 10", "crossStreet": "Berthelsdorfer Str.", "lat": 52.47801357422616, "lng": 13.439512698331281, "labeledLatLngs": [{"label": "display", "lat": 52.47801357422616, "lng": 13.439512698331281}], "distance": 614, "postalCode": "12043", "cc": "DE", "city": "Berlin", "state": "Berlin", "country": "Deutschland", "formattedAddress": ["Richardstr. 10 (Berthelsdorfer Str.)", "12043 Berlin", "Deutschland"]}, "categories": [{"id": "4bf58dd8d48988d116941735", "name": "Bar", "pluralName": "Bars", "shortName": "Bar", "icon": {"prefix": "https://ss3.4sqi.net/img/categories_v2/nightlife/pub_", "suffix": ".png"}, "primary": true}], "photos": {"count": 0, "groups": []}}, "referralId": "e-0-4c82c05bd92ea09333074e72-33"}, {"reasons": {"count": 0, "items": [{"summary": "This spot is popular", "type": "general", "reasonName": "globalInteractionReason"}]}, "venue": {"id": "526b9c4e11d2ef13bf80f997", "name": "Prachtwerk", "location": {"address": "Ganghoferstr. 2", "lat": 52.47907980698503, "lng": 13.438402686454733, "labeledLatLngs": [{"label": "display", "lat": 52.47907980698503, "lng": 13.438402686454733}], "distance": 698, "postalCode": "12043", "cc": "DE", "city": "Berlin", "state": "Berlin", "country": "Deutschland", "formattedAddress": ["Ganghoferstr. 2", "12043 Berlin", "Deutschland"]}, "categories": [{"id": "4bf58dd8d48988d16d941735", "name": "Caf\u00e9", "pluralName": "Caf\u00e9s", "shortName": "Caf\u00e9", "icon": {"prefix": "https://ss3.4sqi.net/img/categories_v2/food/cafe_", "suffix": ".png"}, "primary": true}], "photos": {"count": 0, "groups": []}}, "referralId": "e-0-526b9c4e11d2ef13bf80f997-34"}, {"reasons": {"count": 0, "items": [{"summary": "This spot is popular", "type": "general", "reasonName": "globalInteractionReason"}]}, "venue": {"id": "5176b692e4b088d7533326a3", "name": "Sahara Imbiss", "location": {"address": "Wildenbruchstr. 85", "lat": 52.483254414816805, "lng": 13.442168028778424, "labeledLatLngs": [{"label": "display", "lat": 52.483254414816805, "lng": 13.442168028778424}], "distance": 719, "postalCode": "12059", "cc": "DE", "city": "Berlin", "state": "Berlin", "country": "Deutschland", "formattedAddress": ["Wildenbruchstr. 85", "12059 Berlin", "Deutschland"]}, "categories": [{"id": "4bf58dd8d48988d1c8941735", "name": "African Restaurant", "pluralName": "African Restaurants", "shortName": "African", "icon": {"prefix": "https://ss3.4sqi.net/img/categories_v2/food/african_", "suffix": ".png"}, "primary": true}], "photos": {"count": 0, "groups": []}}, "referralId": "e-0-5176b692e4b088d7533326a3-35"}, {"reasons": {"count": 0, "items": [{"summary": "This spot is popular", "type": "general", "reasonName": "globalInteractionReason"}]}, "venue": {"id": "594fce081bc70421e14376c2", "name": "hom", "location": {"address": "Wildenbruchplatz 5", "lat": 52.483472, "lng": 13.444547, "labeledLatLngs": [{"label": "display", "lat": 52.483472, "lng": 13.444547}], "distance": 656, "postalCode": "12045", "cc": "DE", "city": "Berlin", "state": "Berlin", "country": "Deutschland", "formattedAddress": ["Wildenbruchplatz 5", "12045 Berlin", "Deutschland"]}, "categories": [{"id": "4bf58dd8d48988d16d941735", "name": "Caf\u00e9", "pluralName": "Caf\u00e9s", "shortName": "Caf\u00e9", "icon": {"prefix": "https://ss3.4sqi.net/img/categories_v2/food/cafe_", "suffix": ".png"}, "primary": true}], "photos": {"count": 0, "groups": []}}, "referralId": "e-0-594fce081bc70421e14376c2-36"}, {"reasons": {"count": 0, "items": [{"summary": "This spot is popular", "type": "general", "reasonName": "globalInteractionReason"}]}, "venue": {"id": "5a4802adea1e4412308bc0f0", "name": "arkaoda Berlin", "location": {"address": "Karl-Marx-Platz 16", "lat": 52.47393756943134, "lng": 13.442535968207551, "labeledLatLngs": [{"label": "display", "lat": 52.47393756943134, "lng": 13.442535968207551}], "distance": 619, "postalCode": "12043", "cc": "DE", "city": "Berlin", "state": "Berlin", "country": "Deutschland", "formattedAddress": ["Karl-Marx-Platz 16", "12043 Berlin", "Deutschland"]}, "categories": [{"id": "4bf58dd8d48988d11f941735", "name": "Nightclub", "pluralName": "Nightclubs", "shortName": "Nightclub", "icon": {"prefix": "https://ss3.4sqi.net/img/categories_v2/nightlife/nightclub_", "suffix": ".png"}, "primary": true}], "photos": {"count": 0, "groups": []}}, "referralId": "e-0-5a4802adea1e4412308bc0f0-37"}, {"reasons": {"count": 0, "items": [{"summary": "This spot is popular", "type": "general", "reasonName": "globalInteractionReason"}]}, "venue": {"id": "4c34606a7cc0c9b68c2af39a", "name": "Caf\u00e9 Vux", "location": {"address": "Wipperstr. 14", "crossStreet": "Kirchhofstr.", "lat": 52.47215815149066, "lng": 13.44250738620758, "labeledLatLngs": [{"label": "display", "lat": 52.47215815149066, "lng": 13.44250738620758}], "distance": 779, "postalCode": "12055", "cc": "DE", "city": "Berlin", "state": "Berlin", "country": "Deutschland", "formattedAddress": ["Wipperstr. 14 (Kirchhofstr.)", "12055 Berlin", "Deutschland"]}, "categories": [{"id": "4bf58dd8d48988d1d3941735", "name": "Vegetarian / Vegan Restaurant", "pluralName": "Vegetarian / Vegan Restaurants", "shortName": "Vegetarian / Vegan", "icon": {"prefix": "https://ss3.4sqi.net/img/categories_v2/food/vegetarian_", "suffix": ".png"}, "primary": true}], "photos": {"count": 0, "groups": []}}, "referralId": "e-0-4c34606a7cc0c9b68c2af39a-38"}, {"reasons": {"count": 0, "items": [{"summary": "This spot is popular", "type": "general", "reasonName": "globalInteractionReason"}]}, "venue": {"id": "4f077fc4e4b0cc066b417182", "name": "Mehana Paradis", "location": {"address": "Hertzbergstra\u00dfe 28", "lat": 52.47561506190385, "lng": 13.447390423245285, "labeledLatLngs": [{"label": "display", "lat": 52.47561506190385, "lng": 13.447390423245285}], "distance": 288, "cc": "DE", "city": "Berlin", "state": "Berlin", "country": "Deutschland", "formattedAddress": ["Hertzbergstra\u00dfe 28", "Berlin", "Deutschland"]}, "categories": [{"id": "4bf58dd8d48988d109941735", "name": "Eastern European Restaurant", "pluralName": "Eastern European Restaurants", "shortName": "Eastern European", "icon": {"prefix": "https://ss3.4sqi.net/img/categories_v2/food/default_", "suffix": ".png"}, "primary": true}], "photos": {"count": 0, "groups": []}}, "referralId": "e-0-4f077fc4e4b0cc066b417182-39"}, {"reasons": {"count": 0, "items": [{"summary": "This spot is popular", "type": "general", "reasonName": "globalInteractionReason"}]}, "venue": {"id": "557042b1498ee344be27bc35", "name": "Stella Takeaway + Casual Catering", "location": {"address": "Weserstr 166", "lat": 52.48342466528559, "lng": 13.441073674952667, "labeledLatLngs": [{"label": "display", "lat": 52.48342466528559, "lng": 13.441073674952667}], "distance": 780, "postalCode": "12045", "cc": "DE", "city": "Berlin", "state": "Berlin", "country": "Deutschland", "formattedAddress": ["Weserstr 166", "12045 Berlin", "Deutschland"]}, "categories": [{"id": "4bf58dd8d48988d1f9941735", "name": "Food & Drink Shop", "pluralName": "Food & Drink Shops", "shortName": "Food & Drink", "icon": {"prefix": "https://ss3.4sqi.net/img/categories_v2/shops/foodanddrink_", "suffix": ".png"}, "primary": true}], "photos": {"count": 0, "groups": []}}, "referralId": "e-0-557042b1498ee344be27bc35-40"}, {"reasons": {"count": 0, "items": [{"summary": "This spot is popular", "type": "general", "reasonName": "globalInteractionReason"}]}, "venue": {"id": "57849261498e1186f9a6c827", "name": "K\u00f8nigliche Backstube", "location": {"address": "Zwiest\u00e4dter Str.10", "lat": 52.473397, "lng": 13.448162, "labeledLatLngs": [{"label": "display", "lat": 52.473397, "lng": 13.448162}], "distance": 524, "postalCode": "12055", "cc": "DE", "city": "Berlin", "state": "Berlin", "country": "Deutschland", "formattedAddress": ["Zwiest\u00e4dter Str.10", "12055 Berlin", "Deutschland"]}, "categories": [{"id": "4bf58dd8d48988d16a941735", "name": "Bakery", "pluralName": "Bakeries", "shortName": "Bakery", "icon": {"prefix": "https://ss3.4sqi.net/img/categories_v2/food/bakery_", "suffix": ".png"}, "primary": true}], "photos": {"count": 0, "groups": []}}, "referralId": "e-0-57849261498e1186f9a6c827-41"}, {"reasons": {"count": 0, "items": [{"summary": "This spot is popular", "type": "general", "reasonName": "globalInteractionReason"}]}, "venue": {"id": "57e56c3b498e8c7413ceec03", "name": "Crazy Bastard Sauce", "location": {"address": "Weserstr. 168", "lat": 52.48356705853624, "lng": 13.44064934198851, "labeledLatLngs": [{"label": "display", "lat": 52.48356705853624, "lng": 13.44064934198851}], "distance": 811, "postalCode": "12045", "cc": "DE", "city": "Berlin", "state": "Berlin", "country": "Deutschland", "formattedAddress": ["Weserstr. 168", "12045 Berlin", "Deutschland"]}, "categories": [{"id": "52e81612bcbc57f1066b79f1", "name": "Bistro", "pluralName": "Bistros", "shortName": "Bistro", "icon": {"prefix": "https://ss3.4sqi.net/img/categories_v2/food/default_", "suffix": ".png"}, "primary": true}], "photos": {"count": 0, "groups": []}}, "referralId": "e-0-57e56c3b498e8c7413ceec03-42"}, {"reasons": {"count": 0, "items": [{"summary": "This spot is popular", "type": "general", "reasonName": "globalInteractionReason"}]}, "venue": {"id": "4f9996cde4b03f9bd5691bfc", "name": "k-fetisch", "location": {"address": "Wildenbruchstr. 86", "crossStreet": "Weserstr.", "lat": 52.483061135065896, "lng": 13.441773605013086, "labeledLatLngs": [{"label": "display", "lat": 52.483061135065896, "lng": 13.441773605013086}], "distance": 719, "postalCode": "12045", "cc": "DE", "city": "Berlin", "state": "Berlin", "country": "Deutschland", "formattedAddress": ["Wildenbruchstr. 86 (Weserstr.)", "12045 Berlin", "Deutschland"]}, "categories": [{"id": "4bf58dd8d48988d16d941735", "name": "Caf\u00e9", "pluralName": "Caf\u00e9s", "shortName": "Caf\u00e9", "icon": {"prefix": "https://ss3.4sqi.net/img/categories_v2/food/cafe_", "suffix": ".png"}, "primary": true}], "photos": {"count": 0, "groups": []}}, "referralId": "e-0-4f9996cde4b03f9bd5691bfc-43"}, {"reasons": {"count": 0, "items": [{"summary": "This spot is popular", "type": "general", "reasonName": "globalInteractionReason"}]}, "venue": {"id": "536b6592498eafda5caef40f", "name": "Rixbox", "location": {"address": "Richardstr. 2", "crossStreet": "Alfred-Scholz-Platz", "lat": 52.479005733519294, "lng": 13.43779279156502, "labeledLatLngs": [{"label": "display", "lat": 52.479005733519294, "lng": 13.43779279156502}], "distance": 738, "postalCode": "12043", "cc": "DE", "city": "Berlin", "state": "Berlin", "country": "Deutschland", "formattedAddress": ["Richardstr. 2 (Alfred-Scholz-Platz)", "12043 Berlin", "Deutschland"]}, "categories": [{"id": "4bf58dd8d48988d1e0931735", "name": "Coffee Shop", "pluralName": "Coffee Shops", "shortName": "Coffee Shop", "icon": {"prefix": "https://ss3.4sqi.net/img/categories_v2/food/coffeeshop_", "suffix": ".png"}, "primary": true}], "photos": {"count": 0, "groups": []}}, "referralId": "e-0-536b6592498eafda5caef40f-44"}, {"reasons": {"count": 0, "items": [{"summary": "This spot is popular", "type": "general", "reasonName": "globalInteractionReason"}]}, "venue": {"id": "54d3c525498e32a1ed0c81e9", "name": "Mmaah", "location": {"address": "Kiehlufer 75", "crossStreet": "Elsenstra\u00dfe", "lat": 52.48382644556769, "lng": 13.447483295633011, "labeledLatLngs": [{"label": "display", "lat": 52.48382644556769, "lng": 13.447483295633011}], "distance": 641, "postalCode": "12059", "cc": "DE", "city": "Berlin", "state": "Berlin", "country": "Deutschland", "formattedAddress": ["Kiehlufer 75 (Elsenstra\u00dfe)", "12059 Berlin", "Deutschland"]}, "categories": [{"id": "4bf58dd8d48988d113941735", "name": "Korean Restaurant", "pluralName": "Korean Restaurants", "shortName": "Korean", "icon": {"prefix": "https://ss3.4sqi.net/img/categories_v2/food/korean_", "suffix": ".png"}, "primary": true}], "photos": {"count": 0, "groups": []}}, "referralId": "e-0-54d3c525498e32a1ed0c81e9-45"}, {"reasons": {"count": 0, "items": [{"summary": "This spot is popular", "type": "general", "reasonName": "globalInteractionReason"}]}, "venue": {"id": "514f920cb0edeef407181936", "name": "\u03a9 Bar", "location": {"address": "Wipperstr. 18", "crossStreet": "Sch\u00f6neweider Str.", "lat": 52.47160545272625, "lng": 13.443020693333741, "labeledLatLngs": [{"label": "display", "lat": 52.47160545272625, "lng": 13.443020693333741}], "distance": 815, "postalCode": "12055", "cc": "DE", "city": "Berlin", "state": "Berlin", "country": "Deutschland", "formattedAddress": ["Wipperstr. 18 (Sch\u00f6neweider Str.)", "12055 Berlin", "Deutschland"]}, "categories": [{"id": "4bf58dd8d48988d116941735", "name": "Bar", "pluralName": "Bars", "shortName": "Bar", "icon": {"prefix": "https://ss3.4sqi.net/img/categories_v2/nightlife/pub_", "suffix": ".png"}, "primary": true}], "photos": {"count": 0, "groups": []}}, "referralId": "e-0-514f920cb0edeef407181936-46"}, {"reasons": {"count": 0, "items": [{"summary": "This spot is popular", "type": "general", "reasonName": "globalInteractionReason"}]}, "venue": {"id": "5b59be3dacb00b0039966cb3", "name": "Companion Tea & Coffee", "location": {"address": "Weserstra\u00dfe 166", "lat": 52.48331723887731, "lng": 13.441134981212718, "labeledLatLngs": [{"label": "display", "lat": 52.48331723887731, "lng": 13.441134981212718}], "distance": 768, "cc": "DE", "city": "Berlin", "state": "Berlin", "country": "Deutschland", "formattedAddress": ["Weserstra\u00dfe 166", "Berlin", "Deutschland"]}, "categories": [{"id": "4bf58dd8d48988d1e0931735", "name": "Coffee Shop", "pluralName": "Coffee Shops", "shortName": "Coffee Shop", "icon": {"prefix": "https://ss3.4sqi.net/img/categories_v2/food/coffeeshop_", "suffix": ".png"}, "primary": true}], "photos": {"count": 0, "groups": []}}, "referralId": "e-0-5b59be3dacb00b0039966cb3-47"}, {"reasons": {"count": 0, "items": [{"summary": "This spot is popular", "type": "general", "reasonName": "globalInteractionReason"}]}, "venue": {"id": "4ee388e9f9abfc7225bfa20f", "name": "Let Them Eat Cake", "location": {"address": "Weserstr. 164", "lat": 52.48311277647355, "lng": 13.441567622507979, "labeledLatLngs": [{"label": "display", "lat": 52.48311277647355, "lng": 13.441567622507979}], "distance": 732, "postalCode": "12045", "cc": "DE", "city": "Berlin", "state": "Berlin", "country": "Deutschland", "formattedAddress": ["Weserstr. 164", "12045 Berlin", "Deutschland"]}, "categories": [{"id": "4bf58dd8d48988d101951735", "name": "Thrift / Vintage Store", "pluralName": "Thrift / Vintage Stores", "shortName": "Thrift / Vintage", "icon": {"prefix": "https://ss3.4sqi.net/img/categories_v2/shops/default_", "suffix": ".png"}, "primary": true}], "photos": {"count": 0, "groups": []}}, "referralId": "e-0-4ee388e9f9abfc7225bfa20f-48"}, {"reasons": {"count": 0, "items": [{"summary": "This spot is popular", "type": "general", "reasonName": "globalInteractionReason"}]}, "venue": {"id": "556a2b4b498e9ace7d599c25", "name": "Weserkrug", "location": {"address": "Weserstr. 53", "lat": 52.483508741370706, "lng": 13.440356254577635, "labeledLatLngs": [{"label": "display", "lat": 52.483508741370706, "lng": 13.440356254577635}], "distance": 820, "postalCode": "12045", "cc": "DE", "city": "Berlin", "state": "Berlin", "country": "Deutschland", "formattedAddress": ["Weserstr. 53", "12045 Berlin", "Deutschland"]}, "categories": [{"id": "4bf58dd8d48988d116941735", "name": "Bar", "pluralName": "Bars", "shortName": "Bar", "icon": {"prefix": "https://ss3.4sqi.net/img/categories_v2/nightlife/pub_", "suffix": ".png"}, "primary": true}], "photos": {"count": 0, "groups": []}}, "referralId": "e-0-556a2b4b498e9ace7d599c25-49"}, {"reasons": {"count": 0, "items": [{"summary": "This spot is popular", "type": "general", "reasonName": "globalInteractionReason"}]}, "venue": {"id": "594f88f19ef8ef328a3e5960", "name": "Caf\u00e9 ohne Titel", "location": {"address": "Treptower Str. 91", "lat": 52.478859, "lng": 13.448919, "labeledLatLngs": [{"label": "display", "lat": 52.478859, "lng": 13.448919}], "distance": 86, "cc": "DE", "city": "Berlin", "state": "Berlin", "country": "Deutschland", "formattedAddress": ["Treptower Str. 91", "Berlin", "Deutschland"]}, "categories": [{"id": "4bf58dd8d48988d16d941735", "name": "Caf\u00e9", "pluralName": "Caf\u00e9s", "shortName": "Caf\u00e9", "icon": {"prefix": "https://ss3.4sqi.net/img/categories_v2/food/cafe_", "suffix": ".png"}, "primary": true}], "photos": {"count": 0, "groups": []}}, "referralId": "e-0-594f88f19ef8ef328a3e5960-50"}, {"reasons": {"count": 0, "items": [{"summary": "This spot is popular", "type": "general", "reasonName": "globalInteractionReason"}]}, "venue": {"id": "4f2dbf03e4b050b64986bb1f", "name": "CockTail D'Amore", "location": {"address": "Ziegrastr. 11-13", "lat": 52.47625154455697, "lng": 13.457641739592098, "labeledLatLngs": [{"label": "display", "lat": 52.47625154455697, "lng": 13.457641739592098}], "distance": 648, "postalCode": "12057", "cc": "DE", "city": "Berlin", "state": "Berlin", "country": "Deutschland", "formattedAddress": ["Ziegrastr. 11-13", "12057 Berlin", "Deutschland"]}, "categories": [{"id": "4bf58dd8d48988d11f941735", "name": "Nightclub", "pluralName": "Nightclubs", "shortName": "Nightclub", "icon": {"prefix": "https://ss3.4sqi.net/img/categories_v2/nightlife/nightclub_", "suffix": ".png"}, "primary": true}], "photos": {"count": 0, "groups": []}}, "referralId": "e-0-4f2dbf03e4b050b64986bb1f-51"}, {"reasons": {"count": 0, "items": [{"summary": "This spot is popular", "type": "general", "reasonName": "globalInteractionReason"}]}, "venue": {"id": "55df5ddb498e4344b8294ffa", "name": "Hackbert", "location": {"address": "Richardstr. 108", "lat": 52.4782836834271, "lng": 13.43894695727129, "labeledLatLngs": [{"label": "display", "lat": 52.4782836834271, "lng": 13.43894695727129}], "distance": 653, "postalCode": "12043", "cc": "DE", "city": "Berlin", "state": "Berlin", "country": "Deutschland", "formattedAddress": ["Richardstr. 108", "12043 Berlin", "Deutschland"]}, "categories": [{"id": "4bf58dd8d48988d16c941735", "name": "Burger Joint", "pluralName": "Burger Joints", "shortName": "Burgers", "icon": {"prefix": "https://ss3.4sqi.net/img/categories_v2/food/burger_", "suffix": ".png"}, "primary": true}], "photos": {"count": 0, "groups": []}}, "referralId": "e-0-55df5ddb498e4344b8294ffa-52"}, {"reasons": {"count": 0, "items": [{"summary": "This spot is popular", "type": "general", "reasonName": "globalInteractionReason"}]}, "venue": {"id": "575ed8a9498e7940cc7f272f", "name": "Konditorei Damaskus", "location": {"address": "Sonnenallee 93", "lat": 52.48256133724326, "lng": 13.438805937767029, "labeledLatLngs": [{"label": "display", "lat": 52.48256133724326, "lng": 13.438805937767029}], "distance": 827, "postalCode": "12045", "cc": "DE", "city": "Berlin", "state": "Berlin", "country": "Deutschland", "formattedAddress": ["Sonnenallee 93", "12045 Berlin", "Deutschland"]}, "categories": [{"id": "5744ccdfe4b0c0459246b4e2", "name": "Pastry Shop", "pluralName": "Pastry Shops", "shortName": "Pastry", "icon": {"prefix": "https://ss3.4sqi.net/img/categories_v2/food/dessert_", "suffix": ".png"}, "primary": true}], "photos": {"count": 0, "groups": []}}, "referralId": "e-0-575ed8a9498e7940cc7f272f-53"}, {"reasons": {"count": 0, "items": [{"summary": "This spot is popular", "type": "general", "reasonName": "globalInteractionReason"}]}, "venue": {"id": "57220e63498e421c4572f552", "name": "BICHOU", "location": {"address": "Sch\u00f6nstedtstr. 14", "lat": 52.482467242880354, "lng": 13.436506649594563, "labeledLatLngs": [{"label": "display", "lat": 52.482467242880354, "lng": 13.436506649594563}], "distance": 951, "postalCode": "12043", "cc": "DE", "neighborhood": "Reuterkiez", "city": "Berlin", "state": "Berlin", "country": "Deutschland", "formattedAddress": ["Sch\u00f6nstedtstr. 14", "12043 Berlin", "Deutschland"]}, "categories": [{"id": "52e81612bcbc57f1066b79f1", "name": "Bistro", "pluralName": "Bistros", "shortName": "Bistro", "icon": {"prefix": "https://ss3.4sqi.net/img/categories_v2/food/default_", "suffix": ".png"}, "primary": true}], "photos": {"count": 0, "groups": []}, "venuePage": {"id": "479874921"}}, "referralId": "e-0-57220e63498e421c4572f552-54"}, {"reasons": {"count": 0, "items": [{"summary": "This spot is popular", "type": "general", "reasonName": "globalInteractionReason"}]}, "venue": {"id": "51fea44d498e3e2d74ffae23", "name": "On Egin", "location": {"address": "Wildenbruchstr. 88", "lat": 52.482567525159375, "lng": 13.441260411196689, "labeledLatLngs": [{"label": "display", "lat": 52.482567525159375, "lng": 13.441260411196689}], "distance": 702, "postalCode": "12045", "cc": "DE", "neighborhood": "Donaukiez", "city": "Berlin", "state": "Berlin", "country": "Deutschland", "formattedAddress": ["Wildenbruchstr. 88", "12045 Berlin", "Deutschland"]}, "categories": [{"id": "4bf58dd8d48988d1db931735", "name": "Tapas Restaurant", "pluralName": "Tapas Restaurants", "shortName": "Tapas", "icon": {"prefix": "https://ss3.4sqi.net/img/categories_v2/food/tapas_", "suffix": ".png"}, "primary": true}], "photos": {"count": 0, "groups": []}, "venuePage": {"id": "83904776"}}, "referralId": "e-0-51fea44d498e3e2d74ffae23-55"}, {"reasons": {"count": 0, "items": [{"summary": "This spot is popular", "type": "general", "reasonName": "globalInteractionReason"}]}, "venue": {"id": "4b54633ef964a5207cb927e3", "name": "Tiba", "location": {"address": "Karl-Marx-Str. 175", "lat": 52.47454632738598, "lng": 13.440061055810416, "labeledLatLngs": [{"label": "display", "lat": 52.47454632738598, "lng": 13.440061055810416}], "distance": 700, "cc": "DE", "neighborhood": "Karl-Marx-Stra\u00dfe", "city": "Berlin", "state": "Berlin", "country": "Deutschland", "formattedAddress": ["Karl-Marx-Str. 175", "Berlin", "Deutschland"]}, "categories": [{"id": "4bf58dd8d48988d115941735", "name": "Middle Eastern Restaurant", "pluralName": "Middle Eastern Restaurants", "shortName": "Middle Eastern", "icon": {"prefix": "https://ss3.4sqi.net/img/categories_v2/food/middleeastern_", "suffix": ".png"}, "primary": true}], "photos": {"count": 0, "groups": []}}, "referralId": "e-0-4b54633ef964a5207cb927e3-56"}, {"reasons": {"count": 0, "items": [{"summary": "This spot is popular", "type": "general", "reasonName": "globalInteractionReason"}]}, "venue": {"id": "4e2ac478b0fbc2edac19e0ab", "name": "Kindl-Stuben", "location": {"address": "Sonnenallee 92", "lat": 52.482588017044954, "lng": 13.438291572332927, "labeledLatLngs": [{"label": "display", "lat": 52.482588017044954, "lng": 13.438291572332927}], "distance": 857, "postalCode": "12045", "cc": "DE", "city": "Berlin", "state": "Berlin", "country": "Deutschland", "formattedAddress": ["Sonnenallee 92", "12045 Berlin", "Deutschland"]}, "categories": [{"id": "4bf58dd8d48988d10d941735", "name": "German Restaurant", "pluralName": "German Restaurants", "shortName": "German", "icon": {"prefix": "https://ss3.4sqi.net/img/categories_v2/food/german_", "suffix": ".png"}, "primary": true}], "photos": {"count": 0, "groups": []}}, "referralId": "e-0-4e2ac478b0fbc2edac19e0ab-57"}, {"reasons": {"count": 0, "items": [{"summary": "This spot is popular", "type": "general", "reasonName": "globalInteractionReason"}]}, "venue": {"id": "4ff34690e4b07fe9448ad592", "name": "HAS B\u00e4ckerei", "location": {"address": "Braunschweiger Str. 3", "lat": 52.47412715606325, "lng": 13.45389309030341, "labeledLatLngs": [{"label": "display", "lat": 52.47412715606325, "lng": 13.45389309030341}], "distance": 570, "postalCode": "12055", "cc": "DE", "city": "Berlin", "state": "Berlin", "country": "Deutschland", "formattedAddress": ["Braunschweiger Str. 3", "12055 Berlin", "Deutschland"]}, "categories": [{"id": "4bf58dd8d48988d16a941735", "name": "Bakery", "pluralName": "Bakeries", "shortName": "Bakery", "icon": {"prefix": "https://ss3.4sqi.net/img/categories_v2/food/bakery_", "suffix": ".png"}, "primary": true}], "photos": {"count": 0, "groups": []}}, "referralId": "e-0-4ff34690e4b07fe9448ad592-58"}, {"reasons": {"count": 0, "items": [{"summary": "This spot is popular", "type": "general", "reasonName": "globalInteractionReason"}]}, "venue": {"id": "4c62f20769a1c9b6afe739a4", "name": "Lidl", "location": {"address": "Sonnenallee 192", "lat": 52.47521172845513, "lng": 13.451039045994548, "labeledLatLngs": [{"label": "display", "lat": 52.47521172845513, "lng": 13.451039045994548}], "distance": 362, "postalCode": "12059", "cc": "DE", "city": "Berlin", "state": "Berlin", "country": "Deutschland", "formattedAddress": ["Sonnenallee 192", "12059 Berlin-Neuk\u00f6lln", "Deutschland"]}, "categories": [{"id": "52f2ab2ebcbc57f1066b8b46", "name": "Supermarket", "pluralName": "Supermarkets", "shortName": "Supermarket", "icon": {"prefix": "https://ss3.4sqi.net/img/categories_v2/shops/food_grocery_", "suffix": ".png"}, "primary": true}], "photos": {"count": 0, "groups": []}, "venuePage": {"id": "584309494"}}, "referralId": "e-0-4c62f20769a1c9b6afe739a4-59"}, {"reasons": {"count": 0, "items": [{"summary": "This spot is popular", "type": "general", "reasonName": "globalInteractionReason"}]}, "venue": {"id": "4d4c33477aa6a35df097d470", "name": "Pizzeria Mimo", "location": {"address": "Braunschweiger Stra\u00dfe 12", "lat": 52.473373518737084, "lng": 13.453154411918812, "labeledLatLngs": [{"label": "display", "lat": 52.473373518737084, "lng": 13.453154411918812}], "distance": 611, "postalCode": "12055", "cc": "DE", "city": "Berlin", "state": "Berlin", "country": "Deutschland", "formattedAddress": ["Braunschweiger Stra\u00dfe 12", "12055 Berlin", "Deutschland"]}, "categories": [{"id": "4bf58dd8d48988d110941735", "name": "Italian Restaurant", "pluralName": "Italian Restaurants", "shortName": "Italian", "icon": {"prefix": "https://ss3.4sqi.net/img/categories_v2/food/italian_", "suffix": ".png"}, "primary": true}], "photos": {"count": 0, "groups": []}}, "referralId": "e-0-4d4c33477aa6a35df097d470-60"}, {"reasons": {"count": 0, "items": [{"summary": "This spot is popular", "type": "general", "reasonName": "globalInteractionReason"}]}, "venue": {"id": "5914164be2ead12a20de6b97", "name": "Internet Explorer", "location": {"address": "Ziegrastr. 11", "lat": 52.47642231748866, "lng": 13.4597647190094, "labeledLatLngs": [{"label": "display", "lat": 52.47642231748866, "lng": 13.4597647190094}], "distance": 781, "postalCode": "12057", "cc": "DE", "city": "Berlin", "state": "Berlin", "country": "Deutschland", "formattedAddress": ["Ziegrastr. 11", "12057 Berlin", "Deutschland"]}, "categories": [{"id": "4bf58dd8d48988d1e5931735", "name": "Music Venue", "pluralName": "Music Venues", "shortName": "Music Venue", "icon": {"prefix": "https://ss3.4sqi.net/img/categories_v2/arts_entertainment/musicvenue_", "suffix": ".png"}, "primary": true}], "photos": {"count": 0, "groups": []}}, "referralId": "e-0-5914164be2ead12a20de6b97-61"}, {"reasons": {"count": 0, "items": [{"summary": "This spot is popular", "type": "general", "reasonName": "globalInteractionReason"}]}, "venue": {"id": "5c561110b3c961002ce00d1c", "name": "Jemenitisches Restaurant", "location": {"address": "Karl-Marx-Stra\u00dfe 172", "lat": 52.474525, "lng": 13.440109, "labeledLatLngs": [{"label": "display", "lat": 52.474525, "lng": 13.440109}], "distance": 699, "postalCode": "12043", "cc": "DE", "city": "Berlin", "state": "Berlin", "country": "Deutschland", "formattedAddress": ["Karl-Marx-Stra\u00dfe 172", "12043 Berlin", "Deutschland"]}, "categories": [{"id": "5bae9231bedf3950379f89ea", "name": "Yemeni Restaurant", "pluralName": "Yemeni Restaurants", "shortName": "Yemeni Restaurant", "icon": {"prefix": "https://ss3.4sqi.net/img/categories_v2/food/middleeastern_", "suffix": ".png"}, "primary": true}], "photos": {"count": 0, "groups": []}}, "referralId": "e-0-5c561110b3c961002ce00d1c-62"}, {"reasons": {"count": 0, "items": [{"summary": "This spot is popular", "type": "general", "reasonName": "globalInteractionReason"}]}, "venue": {"id": "5586978f498e73208c016a1b", "name": "Nah am Wasser gebaut", "location": {"address": "Kiehlufer 55", "crossStreet": "Wildenbruchstr.", "lat": 52.48507856017328, "lng": 13.444732081179938, "labeledLatLngs": [{"label": "display", "lat": 52.48507856017328, "lng": 13.444732081179938}], "distance": 818, "postalCode": "12059", "cc": "DE", "neighborhood": "Neuk\u00f6lln", "city": "Berlin", "state": "Berlin", "country": "Deutschland", "formattedAddress": ["Kiehlufer 55 (Wildenbruchstr.)", "12059 Berlin", "Deutschland"]}, "categories": [{"id": "4bf58dd8d48988d143941735", "name": "Breakfast Spot", "pluralName": "Breakfast Spots", "shortName": "Breakfast", "icon": {"prefix": "https://ss3.4sqi.net/img/categories_v2/food/breakfast_", "suffix": ".png"}, "primary": true}], "photos": {"count": 0, "groups": []}}, "referralId": "e-0-5586978f498e73208c016a1b-63"}, {"reasons": {"count": 0, "items": [{"summary": "This spot is popular", "type": "general", "reasonName": "globalInteractionReason"}]}, "venue": {"id": "4ca87ed3d971b1f7f5e214e1", "name": "\u00d6z-Samsun", "location": {"address": "Donaustra\u00dfe 99", "crossStreet": "Erkstra\u00dfe", "lat": 52.48125849188253, "lng": 13.437931412568814, "labeledLatLngs": [{"label": "display", "lat": 52.48125849188253, "lng": 13.437931412568814}], "distance": 802, "cc": "DE", "city": "Berlin", "state": "Berlin", "country": "Deutschland", "formattedAddress": ["Donaustra\u00dfe 99 (Erkstra\u00dfe)", "Berlin", "Deutschland"]}, "categories": [{"id": "4bf58dd8d48988d115941735", "name": "Middle Eastern Restaurant", "pluralName": "Middle Eastern Restaurants", "shortName": "Middle Eastern", "icon": {"prefix": "https://ss3.4sqi.net/img/categories_v2/food/middleeastern_", "suffix": ".png"}, "primary": true}], "photos": {"count": 0, "groups": []}}, "referralId": "e-0-4ca87ed3d971b1f7f5e214e1-64"}, {"reasons": {"count": 0, "items": [{"summary": "This spot is popular", "type": "general", "reasonName": "globalInteractionReason"}]}, "venue": {"id": "4b17fdfff964a52003cb23e3", "name": "Zimt & Mehl Manufaktur", "location": {"address": "Weigandufer 16", "lat": 52.48473361104862, "lng": 13.44414627157973, "labeledLatLngs": [{"label": "display", "lat": 52.48473361104862, "lng": 13.44414627157973}], "distance": 796, "postalCode": "12045", "cc": "DE", "city": "Berlin", "state": "Berlin", "country": "Deutschland", "formattedAddress": ["Weigandufer 16", "12045 Berlin", "Deutschland"]}, "categories": [{"id": "4bf58dd8d48988d16d941735", "name": "Caf\u00e9", "pluralName": "Caf\u00e9s", "shortName": "Caf\u00e9", "icon": {"prefix": "https://ss3.4sqi.net/img/categories_v2/food/cafe_", "suffix": ".png"}, "primary": true}], "photos": {"count": 0, "groups": []}}, "referralId": "e-0-4b17fdfff964a52003cb23e3-65"}, {"reasons": {"count": 0, "items": [{"summary": "This spot is popular", "type": "general", "reasonName": "globalInteractionReason"}]}, "venue": {"id": "58755b6401f0772704b6e0d9", "name": "Babbo Bar", "location": {"address": "Donaustr. 103", "crossStreet": "Erkstr.", "lat": 52.481695588044566, "lng": 13.436558246612549, "labeledLatLngs": [{"label": "display", "lat": 52.481695588044566, "lng": 13.436558246612549}], "distance": 907, "postalCode": "12043", "cc": "DE", "city": "Berlin", "state": "Berlin", "country": "Deutschland", "formattedAddress": ["Donaustr. 103 (Erkstr.)", "12043 Berlin", "Deutschland"]}, "categories": [{"id": "4bf58dd8d48988d110941735", "name": "Italian Restaurant", "pluralName": "Italian Restaurants", "shortName": "Italian", "icon": {"prefix": "https://ss3.4sqi.net/img/categories_v2/food/italian_", "suffix": ".png"}, "primary": true}], "photos": {"count": 0, "groups": []}}, "referralId": "e-0-58755b6401f0772704b6e0d9-66"}, {"reasons": {"count": 0, "items": [{"summary": "This spot is popular", "type": "general", "reasonName": "globalInteractionReason"}]}, "venue": {"id": "5304930a11d254621af09be2", "name": "eins44 Kantine Neuk\u00f6lln", "location": {"address": "Elbestr. 28/29", "crossStreet": "Weserstr.", "lat": 52.485255362417014, "lng": 13.439657817160553, "labeledLatLngs": [{"label": "display", "lat": 52.485255362417014, "lng": 13.439657817160553}], "distance": 999, "postalCode": "12045", "cc": "DE", "city": "Berlin", "state": "Berlin", "country": "Deutschland", "formattedAddress": ["Elbestr. 28/29 (Weserstr.)", "12045 Berlin", "Deutschland"]}, "categories": [{"id": "4bf58dd8d48988d10d941735", "name": "German Restaurant", "pluralName": "German Restaurants", "shortName": "German", "icon": {"prefix": "https://ss3.4sqi.net/img/categories_v2/food/german_", "suffix": ".png"}, "primary": true}], "photos": {"count": 0, "groups": []}, "venuePage": {"id": "83209245"}}, "referralId": "e-0-5304930a11d254621af09be2-67"}, {"reasons": {"count": 0, "items": [{"summary": "This spot is popular", "type": "general", "reasonName": "globalInteractionReason"}]}, "venue": {"id": "4ed29522e3007feb8019214b", "name": "Estrel Stube", "location": {"address": "Sonnenallee 225", "lat": 52.47378085266953, "lng": 13.459008358939503, "labeledLatLngs": [{"label": "display", "lat": 52.47378085266953, "lng": 13.459008358939503}], "distance": 855, "postalCode": "12057", "cc": "DE", "city": "Berlin", "state": "Berlin", "country": "Deutschland", "formattedAddress": ["Sonnenallee 225", "12057 Berlin", "Deutschland"]}, "categories": [{"id": "4bf58dd8d48988d10d941735", "name": "German Restaurant", "pluralName": "German Restaurants", "shortName": "German", "icon": {"prefix": "https://ss3.4sqi.net/img/categories_v2/food/german_", "suffix": ".png"}, "primary": true}], "photos": {"count": 0, "groups": []}, "venuePage": {"id": "33076915"}}, "referralId": "e-0-4ed29522e3007feb8019214b-68"}, {"reasons": {"count": 0, "items": [{"summary": "This spot is popular", "type": "general", "reasonName": "globalInteractionReason"}]}, "venue": {"id": "56b654de498e8bc7cb23f478", "name": "Wildenbruch Bar", "location": {"address": "Wildenbruchstra\u00dfe 68", "crossStreet": "Harzerstra\u00dfe", "lat": 52.48649057710639, "lng": 13.446346341267697, "labeledLatLngs": [{"label": "display", "lat": 52.48649057710639, "lng": 13.446346341267697}], "distance": 945, "cc": "DE", "city": "Berlin", "state": "Berlin", "country": "Deutschland", "formattedAddress": ["Wildenbruchstra\u00dfe 68 (Harzerstra\u00dfe)", "Berlin", "Deutschland"]}, "categories": [{"id": "4bf58dd8d48988d11b941735", "name": "Pub", "pluralName": "Pubs", "shortName": "Pub", "icon": {"prefix": "https://ss3.4sqi.net/img/categories_v2/nightlife/pub_", "suffix": ".png"}, "primary": true}], "photos": {"count": 0, "groups": []}}, "referralId": "e-0-56b654de498e8bc7cb23f478-69"}, {"reasons": {"count": 0, "items": [{"summary": "This spot is popular", "type": "general", "reasonName": "globalInteractionReason"}]}, "venue": {"id": "4d25ee2137a1b60cd6429bb8", "name": "B\u00f6hmischer Platz", "location": {"address": "B\u00f6hmischer Platz", "lat": 52.47337603353486, "lng": 13.449593146189864, "labeledLatLngs": [{"label": "display", "lat": 52.47337603353486, "lng": 13.449593146189864}], "distance": 531, "postalCode": "12055", "cc": "DE", "city": "Berlin", "state": "Berlin", "country": "Deutschland", "formattedAddress": ["B\u00f6hmischer Platz", "12055 Berlin", "Deutschland"]}, "categories": [{"id": "4bf58dd8d48988d164941735", "name": "Plaza", "pluralName": "Plazas", "shortName": "Plaza", "icon": {"prefix": "https://ss3.4sqi.net/img/categories_v2/parks_outdoors/plaza_", "suffix": ".png"}, "primary": true}], "photos": {"count": 0, "groups": []}}, "referralId": "e-0-4d25ee2137a1b60cd6429bb8-70"}, {"reasons": {"count": 0, "items": [{"summary": "This spot is popular", "type": "general", "reasonName": "globalInteractionReason"}]}, "venue": {"id": "5393767a498e4cf319ad408e", "name": "eismanufaktur Berlin", "location": {"address": "Karl-Marx-Platz 17", "lat": 52.474030108268366, "lng": 13.442685505412488, "labeledLatLngs": [{"label": "display", "lat": 52.474030108268366, "lng": 13.442685505412488}], "distance": 604, "postalCode": "12043", "cc": "DE", "city": "Berlin", "state": "Berlin", "country": "Deutschland", "formattedAddress": ["Karl-Marx-Platz 17", "12043 Berlin", "Deutschland"]}, "categories": [{"id": "4bf58dd8d48988d1c9941735", "name": "Ice Cream Shop", "pluralName": "Ice Cream Shops", "shortName": "Ice Cream", "icon": {"prefix": "https://ss3.4sqi.net/img/categories_v2/food/icecream_", "suffix": ".png"}, "primary": true}], "photos": {"count": 0, "groups": []}}, "referralId": "e-0-5393767a498e4cf319ad408e-71"}, {"reasons": {"count": 0, "items": [{"summary": "This spot is popular", "type": "general", "reasonName": "globalInteractionReason"}]}, "venue": {"id": "5546072a498e349bf0e737e1", "name": "Shaam Restaurant", "location": {"address": "Karl-Marx-Stra\u00dfe 177", "lat": 52.474363806181806, "lng": 13.440120220184326, "labeledLatLngs": [{"label": "display", "lat": 52.474363806181806, "lng": 13.440120220184326}], "distance": 708, "postalCode": "10247", "cc": "DE", "neighborhood": "Neuk\u00f6lln, Berlin", "city": "Berlin", "state": "Berlin", "country": "Deutschland", "formattedAddress": ["Karl-Marx-Stra\u00dfe 177", "10247 Berlin", "Deutschland"]}, "categories": [{"id": "4bf58dd8d48988d115941735", "name": "Middle Eastern Restaurant", "pluralName": "Middle Eastern Restaurants", "shortName": "Middle Eastern", "icon": {"prefix": "https://ss3.4sqi.net/img/categories_v2/food/middleeastern_", "suffix": ".png"}, "primary": true}], "photos": {"count": 0, "groups": []}}, "referralId": "e-0-5546072a498e349bf0e737e1-72"}, {"reasons": {"count": 0, "items": [{"summary": "This spot is popular", "type": "general", "reasonName": "globalInteractionReason"}]}, "venue": {"id": "4d6938d41a88b1f7f953285d", "name": "R\u00f6ssle", "location": {"address": "Braunschweiger Str. 51", "lat": 52.47103602309533, "lng": 13.446798672027835, "labeledLatLngs": [{"label": "display", "lat": 52.47103602309533, "lng": 13.446798672027835}], "distance": 796, "postalCode": "12055", "cc": "DE", "city": "Berlin", "state": "Berlin", "country": "Deutschland", "formattedAddress": ["Braunschweiger Str. 51", "12055 Berlin", "Deutschland"]}, "categories": [{"id": "4bf58dd8d48988d11d941735", "name": "Sports Bar", "pluralName": "Sports Bars", "shortName": "Sports Bar", "icon": {"prefix": "https://ss3.4sqi.net/img/categories_v2/nightlife/sportsbar_", "suffix": ".png"}, "primary": true}], "photos": {"count": 0, "groups": []}}, "referralId": "e-0-4d6938d41a88b1f7f953285d-73"}, {"reasons": {"count": 0, "items": [{"summary": "This spot is popular", "type": "general", "reasonName": "globalInteractionReason"}]}, "venue": {"id": "4fbc9d3cbe77564d719b943a", "name": "Am Kiehlufer", "location": {"address": "Kiehlufer", "lat": 52.48592942958994, "lng": 13.442909717559814, "labeledLatLngs": [{"label": "display", "lat": 52.48592942958994, "lng": 13.442909717559814}], "distance": 951, "postalCode": "12059", "cc": "DE", "city": "Berlin", "state": "Berlin", "country": "Deutschland", "formattedAddress": ["Kiehlufer", "12059 Berlin", "Deutschland"]}, "categories": [{"id": "56aa371be4b08b9a8d5734c3", "name": "Waterfront", "pluralName": "Waterfronts", "shortName": "Waterfront", "icon": {"prefix": "https://ss3.4sqi.net/img/categories_v2/parks_outdoors/river_", "suffix": ".png"}, "primary": true}], "photos": {"count": 0, "groups": []}}, "referralId": "e-0-4fbc9d3cbe77564d719b943a-74"}, {"reasons": {"count": 0, "items": [{"summary": "This spot is popular", "type": "general", "reasonName": "globalInteractionReason"}]}, "venue": {"id": "52e7a437498e8c11d51e65c6", "name": "La Bolognina", "location": {"address": "Donaustrasse 107", "lat": 52.48241216588175, "lng": 13.435651487321257, "labeledLatLngs": [{"label": "display", "lat": 52.48241216588175, "lng": 13.435651487321257}], "distance": 999, "postalCode": "12043", "cc": "DE", "neighborhood": "Donaukiez", "city": "Berlin", "state": "Berlin", "country": "Deutschland", "formattedAddress": ["Donaustrasse 107", "12043 Berlin", "Deutschland"]}, "categories": [{"id": "4bf58dd8d48988d110941735", "name": "Italian Restaurant", "pluralName": "Italian Restaurants", "shortName": "Italian", "icon": {"prefix": "https://ss3.4sqi.net/img/categories_v2/food/italian_", "suffix": ".png"}, "primary": true}], "photos": {"count": 0, "groups": []}}, "referralId": "e-0-52e7a437498e8c11d51e65c6-75"}, {"reasons": {"count": 0, "items": [{"summary": "This spot is popular", "type": "general", "reasonName": "globalInteractionReason"}]}, "venue": {"id": "532dcb6e11d2599de53e9e51", "name": "Balera Weinhandlung", "location": {"address": "Karl-Marx-Platz 6", "lat": 52.47355017754188, "lng": 13.441579341888428, "labeledLatLngs": [{"label": "display", "lat": 52.47355017754188, "lng": 13.441579341888428}], "distance": 694, "postalCode": "12043", "cc": "DE", "city": "Berlin", "state": "Berlin", "country": "Deutschland", "formattedAddress": ["Karl-Marx-Platz 6", "12043 Berlin", "Deutschland"]}, "categories": [{"id": "4bf58dd8d48988d119951735", "name": "Wine Shop", "pluralName": "Wine Shops", "shortName": "Wine Shop", "icon": {"prefix": "https://ss3.4sqi.net/img/categories_v2/shops/food_wineshop_", "suffix": ".png"}, "primary": true}], "photos": {"count": 0, "groups": []}}, "referralId": "e-0-532dcb6e11d2599de53e9e51-76"}, {"reasons": {"count": 0, "items": [{"summary": "This spot is popular", "type": "general", "reasonName": "globalInteractionReason"}]}, "venue": {"id": "4d934d6452ed224b52e819ac", "name": "Mal so - Mal so", "location": {"address": "B\u00f6hmische Str. 14", "lat": 52.47420733526203, "lng": 13.449353684771335, "labeledLatLngs": [{"label": "display", "lat": 52.47420733526203, "lng": 13.449353684771335}], "distance": 437, "postalCode": "12055", "cc": "DE", "city": "Berlin", "state": "Berlin", "country": "Deutschland", "formattedAddress": ["B\u00f6hmische Str. 14", "12055 Berlin", "Deutschland"]}, "categories": [{"id": "4bf58dd8d48988d16d941735", "name": "Caf\u00e9", "pluralName": "Caf\u00e9s", "shortName": "Caf\u00e9", "icon": {"prefix": "https://ss3.4sqi.net/img/categories_v2/food/cafe_", "suffix": ".png"}, "primary": true}], "photos": {"count": 0, "groups": []}}, "referralId": "e-0-4d934d6452ed224b52e819ac-77"}, {"reasons": {"count": 0, "items": [{"summary": "This spot is popular", "type": "general", "reasonName": "globalInteractionReason"}]}, "venue": {"id": "51bb75a0498e4a3ea4eff7f6", "name": "Bei Ruth", "location": {"address": "Ziegrastra\u00dfe 11-13", "lat": 52.47643736542704, "lng": 13.460358583538131, "labeledLatLngs": [{"label": "display", "lat": 52.47643736542704, "lng": 13.460358583538131}], "distance": 819, "postalCode": "12057", "cc": "DE", "neighborhood": "K\u00f6llnische Heide", "city": "Berlin", "state": "Berlin", "country": "Deutschland", "formattedAddress": ["Ziegrastra\u00dfe 11-13", "12057 Berlin", "Deutschland"]}, "categories": [{"id": "4bf58dd8d48988d1e9931735", "name": "Rock Club", "pluralName": "Rock Clubs", "shortName": "Rock Club", "icon": {"prefix": "https://ss3.4sqi.net/img/categories_v2/arts_entertainment/musicvenue_rockclub_", "suffix": ".png"}, "primary": true}], "photos": {"count": 0, "groups": []}}, "referralId": "e-0-51bb75a0498e4a3ea4eff7f6-78"}, {"reasons": {"count": 0, "items": [{"summary": "This spot is popular", "type": "general", "reasonName": "globalInteractionReason"}]}, "venue": {"id": "4adcda8bf964a520c94921e3", "name": "Stars in Concert", "location": {"address": "Sonnenallee 225", "lat": 52.47510000284005, "lng": 13.459109602764821, "labeledLatLngs": [{"label": "display", "lat": 52.47510000284005, "lng": 13.459109602764821}], "distance": 788, "postalCode": "12057", "cc": "DE", "city": "Berlin", "state": "Berlin", "country": "Deutschland", "formattedAddress": ["Sonnenallee 225", "12057 Berlin", "Deutschland"]}, "categories": [{"id": "4bf58dd8d48988d1f2931735", "name": "Performing Arts Venue", "pluralName": "Performing Arts Venues", "shortName": "Performing Arts", "icon": {"prefix": "https://ss3.4sqi.net/img/categories_v2/arts_entertainment/performingarts_", "suffix": ".png"}, "primary": true}], "photos": {"count": 0, "groups": []}, "venuePage": {"id": "33076919"}}, "referralId": "e-0-4adcda8bf964a520c94921e3-79"}, {"reasons": {"count": 0, "items": [{"summary": "This spot is popular", "type": "general", "reasonName": "globalInteractionReason"}]}, "venue": {"id": "588b350318384c6bf1a20aaf", "name": "Das Pi", "location": {"address": "Saalestr. 39A", "lat": 52.47306216996324, "lng": 13.455258476896844, "labeledLatLngs": [{"label": "display", "lat": 52.47306216996324, "lng": 13.455258476896844}], "distance": 721, "postalCode": "12055", "cc": "DE", "city": "Berlin", "state": "Berlin", "country": "Deutschland", "formattedAddress": ["Saalestr. 39A", "12055 Berlin", "Deutschland"]}, "categories": [{"id": "4bf58dd8d48988d1ca941735", "name": "Pizza Place", "pluralName": "Pizza Places", "shortName": "Pizza", "icon": {"prefix": "https://ss3.4sqi.net/img/categories_v2/food/pizza_", "suffix": ".png"}, "primary": true}], "photos": {"count": 0, "groups": []}}, "referralId": "e-0-588b350318384c6bf1a20aaf-80"}, {"reasons": {"count": 0, "items": [{"summary": "This spot is popular", "type": "general", "reasonName": "globalInteractionReason"}]}, "venue": {"id": "4bd1b7a941b9ef3be764fce5", "name": "Erika und Hilde", "location": {"address": "Weigandufer 9", "crossStreet": "Elbestra\u00dfe", "lat": 52.48579327912002, "lng": 13.44217564392462, "labeledLatLngs": [{"label": "display", "lat": 52.48579327912002, "lng": 13.44217564392462}], "distance": 959, "postalCode": "12045", "cc": "DE", "city": "Berlin", "state": "Berlin", "country": "Deutschland", "formattedAddress": ["Weigandufer 9 (Elbestra\u00dfe)", "12045 Berlin", "Deutschland"]}, "categories": [{"id": "4bf58dd8d48988d116941735", "name": "Bar", "pluralName": "Bars", "shortName": "Bar", "icon": {"prefix": "https://ss3.4sqi.net/img/categories_v2/nightlife/pub_", "suffix": ".png"}, "primary": true}], "photos": {"count": 0, "groups": []}}, "referralId": "e-0-4bd1b7a941b9ef3be764fce5-81"}, {"reasons": {"count": 0, "items": [{"summary": "This spot is popular", "type": "general", "reasonName": "globalInteractionReason"}]}, "venue": {"id": "4bd1b80e41b9ef3bc465fce5", "name": "Wildenbruchplatz", "location": {"address": "Wildenbruchplatz", "crossStreet": "Wildenbruchstra\u00dfe", "lat": 52.484372687145026, "lng": 13.444119731828037, "labeledLatLngs": [{"label": "display", "lat": 52.484372687145026, "lng": 13.444119731828037}], "distance": 760, "postalCode": "12045", "cc": "DE", "city": "Berlin", "state": "Berlin", "country": "Deutschland", "formattedAddress": ["Wildenbruchplatz (Wildenbruchstra\u00dfe)", "12045 Berlin", "Deutschland"]}, "categories": [{"id": "4bf58dd8d48988d163941735", "name": "Park", "pluralName": "Parks", "shortName": "Park", "icon": {"prefix": "https://ss3.4sqi.net/img/categories_v2/parks_outdoors/park_", "suffix": ".png"}, "primary": true}], "photos": {"count": 0, "groups": []}}, "referralId": "e-0-4bd1b80e41b9ef3bc465fce5-82"}, {"reasons": {"count": 0, "items": [{"summary": "This spot is popular", "type": "general", "reasonName": "globalInteractionReason"}]}, "venue": {"id": "50acfcfce4b0f9c33187bc98", "name": "Marin", "location": {"address": "Ziegrastr. 1", "lat": 52.47753566227097, "lng": 13.459598208726911, "labeledLatLngs": [{"label": "display", "lat": 52.47753566227097, "lng": 13.459598208726911}], "distance": 749, "postalCode": "12058", "cc": "DE", "neighborhood": "K\u00f6llnische Heide", "city": "Berlin", "state": "Berlin", "country": "Deutschland", "formattedAddress": ["Ziegrastr. 1", "12058 Berlin", "Deutschland"]}, "categories": [{"id": "4f04af1f2fb6e1c99f3db0bb", "name": "Turkish Restaurant", "pluralName": "Turkish Restaurants", "shortName": "Turkish", "icon": {"prefix": "https://ss3.4sqi.net/img/categories_v2/food/turkish_", "suffix": ".png"}, "primary": true}], "photos": {"count": 0, "groups": []}}, "referralId": "e-0-50acfcfce4b0f9c33187bc98-83"}, {"reasons": {"count": 0, "items": [{"summary": "This spot is popular", "type": "general", "reasonName": "globalInteractionReason"}]}, "venue": {"id": "501c094ae4b01e6a9102fabf", "name": "Estrel Sommergarten", "location": {"address": "Sonnenallee 225", "crossStreet": "Ziegrastr.", "lat": 52.473488092811046, "lng": 13.458294868469238, "labeledLatLngs": [{"label": "display", "lat": 52.473488092811046, "lng": 13.458294868469238}], "distance": 835, "postalCode": "12057", "cc": "DE", "city": "Berlin", "state": "Berlin", "country": "Deutschland", "formattedAddress": ["Sonnenallee 225 (Ziegrastr.)", "12057 Berlin", "Deutschland"]}, "categories": [{"id": "4bf58dd8d48988d117941735", "name": "Beer Garden", "pluralName": "Beer Gardens", "shortName": "Beer Garden", "icon": {"prefix": "https://ss3.4sqi.net/img/categories_v2/nightlife/beergarden_", "suffix": ".png"}, "primary": true}], "photos": {"count": 0, "groups": []}}, "referralId": "e-0-501c094ae4b01e6a9102fabf-84"}, {"reasons": {"count": 0, "items": [{"summary": "This spot is popular", "type": "general", "reasonName": "globalInteractionReason"}]}, "venue": {"id": "57322c43498e6b261da728eb", "name": "Kleinod", "location": {"address": "Niemetzstrasse 24", "lat": 52.4717942636079, "lng": 13.451036840567824, "labeledLatLngs": [{"label": "display", "lat": 52.4717942636079, "lng": 13.451036840567824}], "distance": 722, "postalCode": "12053", "cc": "DE", "city": "Berlin", "state": "Berlin", "country": "Deutschland", "formattedAddress": ["Niemetzstrasse 24", "12053 Berlin", "Deutschland"]}, "categories": [{"id": "4bf58dd8d48988d116941735", "name": "Bar", "pluralName": "Bars", "shortName": "Bar", "icon": {"prefix": "https://ss3.4sqi.net/img/categories_v2/nightlife/pub_", "suffix": ".png"}, "primary": true}], "photos": {"count": 0, "groups": []}}, "referralId": "e-0-57322c43498e6b261da728eb-85"}, {"reasons": {"count": 0, "items": [{"summary": "This spot is popular", "type": "general", "reasonName": "globalInteractionReason"}]}, "venue": {"id": "4adcda6ef964a520d34421e3", "name": "Estrel Hotel Berlin", "location": {"address": "Sonnenallee 225", "crossStreet": "Ziegrastr.", "lat": 52.47373920517348, "lng": 13.458985090843615, "labeledLatLngs": [{"label": "display", "lat": 52.47373920517348, "lng": 13.458985090843615}], "distance": 856, "postalCode": "12057", "cc": "DE", "city": "Berlin", "state": "Berlin", "country": "Deutschland", "formattedAddress": ["Sonnenallee 225 (Ziegrastr.)", "12057 Berlin", "Deutschland"]}, "categories": [{"id": "4bf58dd8d48988d1fa931735", "name": "Hotel", "pluralName": "Hotels", "shortName": "Hotel", "icon": {"prefix": "https://ss3.4sqi.net/img/categories_v2/travel/hotel_", "suffix": ".png"}, "primary": true}], "photos": {"count": 0, "groups": []}, "venuePage": {"id": "33076914"}}, "referralId": "e-0-4adcda6ef964a520d34421e3-86"}, {"reasons": {"count": 0, "items": [{"summary": "This spot is popular", "type": "general", "reasonName": "globalInteractionReason"}]}, "venue": {"id": "4d3729bcd8caa1cd5f4f74d6", "name": "NK", "location": {"address": "Elsenstr. 52 / 2", "lat": 52.4861079232943, "lng": 13.448391801255706, "labeledLatLngs": [{"label": "display", "lat": 52.4861079232943, "lng": 13.448391801255706}], "distance": 890, "postalCode": "12059", "cc": "DE", "city": "Berlin", "state": "Berlin", "country": "Deutschland", "formattedAddress": ["Elsenstr. 52 / 2", "12059 Berlin", "Deutschland"]}, "categories": [{"id": "4bf58dd8d48988d1e5931735", "name": "Music Venue", "pluralName": "Music Venues", "shortName": "Music Venue", "icon": {"prefix": "https://ss3.4sqi.net/img/categories_v2/arts_entertainment/musicvenue_", "suffix": ".png"}, "primary": true}], "photos": {"count": 0, "groups": []}}, "referralId": "e-0-4d3729bcd8caa1cd5f4f74d6-87"}, {"reasons": {"count": 0, "items": [{"summary": "This spot is popular", "type": "general", "reasonName": "globalInteractionReason"}]}, "venue": {"id": "4c4c77c7c668e21efce88ffb", "name": "Annhi Food", "location": {"address": "Karl-Marx-Str. 215", "lat": 52.47059129158932, "lng": 13.441493104524103, "labeledLatLngs": [{"label": "display", "lat": 52.47059129158932, "lng": 13.441493104524103}], "distance": 964, "postalCode": "12055", "cc": "DE", "city": "Berlin", "state": "Berlin", "country": "Deutschland", "formattedAddress": ["Karl-Marx-Str. 215", "12055 Berlin", "Deutschland"]}, "categories": [{"id": "4bf58dd8d48988d14a941735", "name": "Vietnamese Restaurant", "pluralName": "Vietnamese Restaurants", "shortName": "Vietnamese", "icon": {"prefix": "https://ss3.4sqi.net/img/categories_v2/food/vietnamese_", "suffix": ".png"}, "primary": true}], "photos": {"count": 0, "groups": []}}, "referralId": "e-0-4c4c77c7c668e21efce88ffb-88"}, {"reasons": {"count": 0, "items": [{"summary": "This spot is popular", "type": "general", "reasonName": "globalInteractionReason"}]}, "venue": {"id": "5abe0757123a197372d98a8a", "name": "The Future Breakfast", "location": {"address": "B\u00f6hmische Str. 46", "lat": 52.473874, "lng": 13.449033, "labeledLatLngs": [{"label": "display", "lat": 52.473874, "lng": 13.449033}], "distance": 472, "postalCode": "12055", "cc": "DE", "city": "Berlin", "state": "Berlin", "country": "Deutschland", "formattedAddress": ["B\u00f6hmische Str. 46", "12055 Berlin", "Deutschland"]}, "categories": [{"id": "4bf58dd8d48988d143941735", "name": "Breakfast Spot", "pluralName": "Breakfast Spots", "shortName": "Breakfast", "icon": {"prefix": "https://ss3.4sqi.net/img/categories_v2/food/breakfast_", "suffix": ".png"}, "primary": true}], "photos": {"count": 0, "groups": []}}, "referralId": "e-0-5abe0757123a197372d98a8a-89"}, {"reasons": {"count": 0, "items": [{"summary": "This spot is popular", "type": "general", "reasonName": "globalInteractionReason"}]}, "venue": {"id": "4f6f2f26e4b0f577d3820807", "name": "Thomash\u00f6he", "location": {"address": "Thomasstra\u00dfe 27", "lat": 52.473747313419736, "lng": 13.437076700806657, "labeledLatLngs": [{"label": "display", "lat": 52.473747313419736, "lng": 13.437076700806657}], "distance": 918, "postalCode": "12045", "cc": "DE", "city": "Berlin", "state": "Berlin", "country": "Deutschland", "formattedAddress": ["Thomasstra\u00dfe 27", "12045 Berlin", "Deutschland"]}, "categories": [{"id": "4bf58dd8d48988d163941735", "name": "Park", "pluralName": "Parks", "shortName": "Park", "icon": {"prefix": "https://ss3.4sqi.net/img/categories_v2/parks_outdoors/park_", "suffix": ".png"}, "primary": true}], "photos": {"count": 0, "groups": []}}, "referralId": "e-0-4f6f2f26e4b0f577d3820807-90"}, {"reasons": {"count": 0, "items": [{"summary": "This spot is popular", "type": "general", "reasonName": "globalInteractionReason"}]}, "venue": {"id": "55d2dd01498e77961c776d13", "name": "La Terrasse", "location": {"address": "Sonnenallee 225", "lat": 52.47372242899785, "lng": 13.458931894957775, "labeledLatLngs": [{"label": "display", "lat": 52.47372242899785, "lng": 13.458931894957775}], "distance": 854, "postalCode": "12057", "cc": "DE", "city": "Berlin", "state": "Berlin", "country": "Deutschland", "formattedAddress": ["Sonnenallee 225", "12057 Berlin", "Deutschland"]}, "categories": [{"id": "4bf58dd8d48988d143941735", "name": "Breakfast Spot", "pluralName": "Breakfast Spots", "shortName": "Breakfast", "icon": {"prefix": "https://ss3.4sqi.net/img/categories_v2/food/breakfast_", "suffix": ".png"}, "primary": true}], "photos": {"count": 0, "groups": []}}, "referralId": "e-0-55d2dd01498e77961c776d13-91"}, {"reasons": {"count": 0, "items": [{"summary": "This spot is popular", "type": "general", "reasonName": "globalInteractionReason"}]}, "venue": {"id": "4d37247410248cfa473b8ccf", "name": "Hertzbergplatz", "location": {"address": "Hertzbergplatz", "lat": 52.47767762624687, "lng": 13.448273454876265, "labeledLatLngs": [{"label": "display", "lat": 52.47767762624687, "lng": 13.448273454876265}], "distance": 52, "cc": "DE", "city": "Berlin", "state": "Berlin", "country": "Deutschland", "formattedAddress": ["Hertzbergplatz", "Berlin", "Deutschland"]}, "categories": [{"id": "4bf58dd8d48988d163941735", "name": "Park", "pluralName": "Parks", "shortName": "Park", "icon": {"prefix": "https://ss3.4sqi.net/img/categories_v2/parks_outdoors/park_", "suffix": ".png"}, "primary": true}], "photos": {"count": 0, "groups": []}}, "referralId": "e-0-4d37247410248cfa473b8ccf-92"}, {"reasons": {"count": 0, "items": [{"summary": "This spot is popular", "type": "general", "reasonName": "globalInteractionReason"}]}, "venue": {"id": "4c422ab0520fa593d9cfcaac", "name": "Shaan", "location": {"address": "Richardplatz 20", "lat": 52.47402032561738, "lng": 13.447161330814634, "labeledLatLngs": [{"label": "display", "lat": 52.47402032561738, "lng": 13.447161330814634}], "distance": 464, "postalCode": "12055", "cc": "DE", "city": "Berlin", "state": "Berlin", "country": "Deutschland", "formattedAddress": ["Richardplatz 20", "12055 Berlin", "Deutschland"]}, "categories": [{"id": "4bf58dd8d48988d10f941735", "name": "Indian Restaurant", "pluralName": "Indian Restaurants", "shortName": "Indian", "icon": {"prefix": "https://ss3.4sqi.net/img/categories_v2/food/indian_", "suffix": ".png"}, "primary": true}], "photos": {"count": 0, "groups": []}}, "referralId": "e-0-4c422ab0520fa593d9cfcaac-93"}, {"reasons": {"count": 0, "items": [{"summary": "This spot is popular", "type": "general", "reasonName": "globalInteractionReason"}]}, "venue": {"id": "5173e832498e0a484f083a81", "name": "King D\u00f6ner", "location": {"address": "Sonnenallee 202", "crossStreet": "Braunschweiger Str.", "lat": 52.47498149884583, "lng": 13.453529123483692, "labeledLatLngs": [{"label": "display", "lat": 52.47498149884583, "lng": 13.453529123483692}], "distance": 483, "postalCode": "12059", "cc": "DE", "city": "Berlin", "state": "Berlin", "country": "Deutschland", "formattedAddress": ["Sonnenallee 202 (Braunschweiger Str.)", "12059 Berlin", "Deutschland"]}, "categories": [{"id": "5283c7b4e4b094cb91ec88d8", "name": "Doner Restaurant", "pluralName": "Doner Restaurants", "shortName": "Doner", "icon": {"prefix": "https://ss3.4sqi.net/img/categories_v2/food/turkish_", "suffix": ".png"}, "primary": true}], "photos": {"count": 0, "groups": []}}, "referralId": "e-0-5173e832498e0a484f083a81-94"}, {"reasons": {"count": 0, "items": [{"summary": "This spot is popular", "type": "general", "reasonName": "globalInteractionReason"}]}, "venue": {"id": "50e9ee1b80550ef206a5ff1e", "name": "WOANDERS Bar", "location": {"address": "Karl-Marx Str. 195", "lat": 52.47295390985392, "lng": 13.441015340466048, "labeledLatLngs": [{"label": "display", "lat": 52.47295390985392, "lng": 13.441015340466048}], "distance": 769, "postalCode": "12055", "cc": "DE", "city": "Berlin", "state": "Berlin", "country": "Deutschland", "formattedAddress": ["Karl-Marx Str. 195", "12055 Berlin", "Deutschland"]}, "categories": [{"id": "4bf58dd8d48988d11e941735", "name": "Cocktail Bar", "pluralName": "Cocktail Bars", "shortName": "Cocktail", "icon": {"prefix": "https://ss3.4sqi.net/img/categories_v2/nightlife/cocktails_", "suffix": ".png"}, "primary": true}], "photos": {"count": 0, "groups": []}}, "referralId": "e-0-50e9ee1b80550ef206a5ff1e-95"}, {"reasons": {"count": 0, "items": [{"summary": "This spot is popular", "type": "general", "reasonName": "globalInteractionReason"}]}, "venue": {"id": "4d2759c9c406721e421567b6", "name": "nahkauf", "location": {"address": "Kiehlufer 75", "lat": 52.48385002, "lng": 13.44758233, "labeledLatLngs": [{"label": "display", "lat": 52.48385002, "lng": 13.44758233}], "distance": 642, "postalCode": "12059", "cc": "DE", "city": "Berlin", "state": "Berlin", "country": "Deutschland", "formattedAddress": ["Kiehlufer 75", "12059 Berlin", "Deutschland"]}, "categories": [{"id": "52f2ab2ebcbc57f1066b8b46", "name": "Supermarket", "pluralName": "Supermarkets", "shortName": "Supermarket", "icon": {"prefix": "https://ss3.4sqi.net/img/categories_v2/shops/food_grocery_", "suffix": ".png"}, "primary": true}], "photos": {"count": 0, "groups": []}}, "referralId": "e-0-4d2759c9c406721e421567b6-96"}, {"reasons": {"count": 0, "items": [{"summary": "This spot is popular", "type": "general", "reasonName": "globalInteractionReason"}]}, "venue": {"id": "4ec3bdc2c2eed4eacbcdc225", "name": "Portofino", "location": {"address": "Sonnenallee 225", "lat": 52.47381275745735, "lng": 13.459035407227166, "labeledLatLngs": [{"label": "display", "lat": 52.47381275745735, "lng": 13.459035407227166}], "distance": 854, "postalCode": "12057", "cc": "DE", "city": "Berlin", "state": "Berlin", "country": "Deutschland", "formattedAddress": ["Sonnenallee 225", "12057 Berlin", "Deutschland"]}, "categories": [{"id": "4bf58dd8d48988d110941735", "name": "Italian Restaurant", "pluralName": "Italian Restaurants", "shortName": "Italian", "icon": {"prefix": "https://ss3.4sqi.net/img/categories_v2/food/italian_", "suffix": ".png"}, "primary": true}], "photos": {"count": 0, "groups": []}, "venuePage": {"id": "33076916"}}, "referralId": "e-0-4ec3bdc2c2eed4eacbcdc225-97"}, {"reasons": {"count": 0, "items": [{"summary": "This spot is popular", "type": "general", "reasonName": "globalInteractionReason"}]}, "venue": {"id": "4c346b8e7cc0c9b68a3bf39a", "name": "EDEKA aktiv markt", "location": {"address": "Braunschweiger Str. 21-25", "lat": 52.4719408955167, "lng": 13.451691162204712, "labeledLatLngs": [{"label": "display", "lat": 52.4719408955167, "lng": 13.451691162204712}], "distance": 717, "postalCode": "12055", "cc": "DE", "city": "Berlin", "state": "Berlin", "country": "Deutschland", "formattedAddress": ["Braunschweiger Str. 21-25", "12055 Berlin", "Deutschland"]}, "categories": [{"id": "52f2ab2ebcbc57f1066b8b46", "name": "Supermarket", "pluralName": "Supermarkets", "shortName": "Supermarket", "icon": {"prefix": "https://ss3.4sqi.net/img/categories_v2/shops/food_grocery_", "suffix": ".png"}, "primary": true}], "photos": {"count": 0, "groups": []}}, "referralId": "e-0-4c346b8e7cc0c9b68a3bf39a-98"}, {"reasons": {"count": 0, "items": [{"summary": "This spot is popular", "type": "general", "reasonName": "globalInteractionReason"}]}, "venue": {"id": "4b74693ff964a520e2da2de3", "name": "REWE", "location": {"address": "Thiemannstr. 9-11", "crossStreet": "Weserstr.", "lat": 52.47863832692947, "lng": 13.451015999999981, "labeledLatLngs": [{"label": "display", "lat": 52.47863832692947, "lng": 13.451015999999981}], "distance": 175, "postalCode": "12059", "cc": "DE", "city": "Berlin", "state": "Berlin", "country": "Deutschland", "formattedAddress": ["Thiemannstr. 9-11 (Weserstr.)", "12059 Berlin", "Deutschland"]}, "categories": [{"id": "52f2ab2ebcbc57f1066b8b46", "name": "Supermarket", "pluralName": "Supermarkets", "shortName": "Supermarket", "icon": {"prefix": "https://ss3.4sqi.net/img/categories_v2/shops/food_grocery_", "suffix": ".png"}, "primary": true}], "photos": {"count": 0, "groups": []}, "venuePage": {"id": "562364019"}}, "referralId": "e-0-4b74693ff964a520e2da2de3-99"}]