[{"reasons": {"count": 0, "items": [{"summary": "This spot is popular", "type": "general", "reasonName": "globalInteractionReason"}]}, "venue": {"id": "4e43fc07c65b82109464ed94", "name": "Volkspark Sch\u00f6nholzer Heide", "location": {"address": "Germanenstr.", "crossStreet": "Friesenstr.", "lat": 52.57856666560197, "lng": 13.381175994873047, "labeledLatLngs": [{"label": "display", "lat": 52.57856666560197, "lng": 13.381175994873047}], "distance": 967, "postalCode": "13156", "cc": "DE", "city": "Berlin", "state": "Berlin", "country": "Deutschland", "formattedAddress": ["Germanenstr. (Friesenstr.)", "13156 Berlin", "Deutschland"]}, "categories": [{"id": "4bf58dd8d48988d163941735", "name": "Park", "pluralName": "Parks", "shortName": "Park", "icon": {"prefix": "https://ss3.4sqi.net/img/categories_v2/parks_outdoors/park_", "suffix": ".png"}, "primary": true}], "photos": {"count": 0, "groups": []}}, "referralId": "e-0-4e43fc07c65b82109464ed94-0"}, {"reasons": {"count": 0, "items": [{"summary": "This spot is popular", "type": "general", "reasonName": "globalInteractionReason"}]}, "venue": {"id": "4b80faaef964a5200c9430e3", "name": "Restaurant Gartenk\u00fcche", "location": {"address": "Waldsteg 65", "crossStreet": "Anfahrt/Parken Germanenstr.", "lat": 52.57952948343875, "lng": 13.37460738656267, "labeledLatLngs": [{"label": "display", "lat": 52.57952948343875, "lng": 13.37460738656267}], "distance": 817, "postalCode": "13158", "cc": "DE", "city": "Berlin", "state": "Berlin", "country": "Deutschland", "formattedAddress": ["Waldsteg 65 (Anfahrt/Parken Germanenstr.)", "13158 Berlin", "Deutschland"]}, "categories": [{"id": "52e81612bcbc57f1066b79f9", "name": "Modern European Restaurant", "pluralName": "Modern European Restaurants", "shortName": "Modern European", "icon": {"prefix": "https://ss3.4sqi.net/img/categories_v2/food/default_", "suffix": ".png"}, "primary": true}], "photos": {"count": 0, "groups": []}}, "referralId": "e-0-4b80faaef964a5200c9430e3-1"}, {"reasons": {"count": 0, "items": [{"summary": "This spot is popular", "type": "general", "reasonName": "globalInteractionReason"}]}, "venue": {"id": "4ba3b6dbf964a520835738e3", "name": "REWE", "location": {"address": "Kastanienallee 38", "lat": 52.5918842, "lng": 13.3825408, "labeledLatLngs": [{"label": "display", "lat": 52.5918842, "lng": 13.3825408}], "distance": 699, "postalCode": "13158", "cc": "DE", "city": "Berlin", "state": "Berlin", "country": "Deutschland", "formattedAddress": ["Kastanienallee 38", "13158 Berlin", "Deutschland"]}, "categories": [{"id": "52f2ab2ebcbc57f1066b8b46", "name": "Supermarket", "pluralName": "Supermarkets", "shortName": "Supermarket", "icon": {"prefix": "https://ss3.4sqi.net/img/categories_v2/shops/food_grocery_", "suffix": ".png"}, "primary": true}], "photos": {"count": 0, "groups": []}, "venuePage": {"id": "562861871"}}, "referralId": "e-0-4ba3b6dbf964a520835738e3-2"}, {"reasons": {"count": 0, "items": [{"summary": "This spot is popular", "type": "general", "reasonName": "globalInteractionReason"}]}, "venue": {"id": "4df0e2f61f6ea135c65cef6d", "name": "Mexico Restaurant", "location": {"address": "Hertzstr. 22", "lat": 52.585137953745416, "lng": 13.36463212966919, "labeledLatLngs": [{"label": "display", "lat": 52.585137953745416, "lng": 13.36463212966919}], "distance": 823, "postalCode": "13158", "cc": "DE", "city": "Berlin", "state": "Berlin", "country": "Deutschland", "formattedAddress": ["Hertzstr. 22", "13158 Berlin", "Deutschland"]}, "categories": [{"id": "4bf58dd8d48988d1c1941735", "name": "Mexican Restaurant", "pluralName": "Mexican Restaurants", "shortName": "Mexican", "icon": {"prefix": "https://ss3.4sqi.net/img/categories_v2/food/mexican_", "suffix": ".png"}, "primary": true}], "photos": {"count": 0, "groups": []}}, "referralId": "e-0-4df0e2f61f6ea135c65cef6d-3"}, {"reasons": {"count": 0, "items": [{"summary": "This spot is popular", "type": "general", "reasonName": "globalInteractionReason"}]}, "venue": {"id": "4db194110437a93f7f8bd03f", "name": "Sport- und Kulturzentrum spok", "location": {"address": "Nordendstr. 56", "lat": 52.5887999824647, "lng": 13.390693835375213, "labeledLatLngs": [{"label": "display", "lat": 52.5887999824647, "lng": 13.390693835375213}], "distance": 985, "postalCode": "13156", "cc": "DE", "city": "Berlin", "state": "Berlin", "country": "Deutschland", "formattedAddress": ["Nordendstr. 56", "13156 Berlin", "Deutschland"]}, "categories": [{"id": "52e81612bcbc57f1066b7a26", "name": "Recreation Center", "pluralName": "Recreation Centers", "shortName": "Recreation Center", "icon": {"prefix": "https://ss3.4sqi.net/img/categories_v2/shops/sports_outdoors_", "suffix": ".png"}, "primary": true}], "photos": {"count": 0, "groups": []}}, "referralId": "e-0-4db194110437a93f7f8bd03f-4"}, {"reasons": {"count": 0, "items": [{"summary": "This spot is popular", "type": "general", "reasonName": "globalInteractionReason"}]}, "venue": {"id": "4f9af881e4b02343c766c59a", "name": "H Eisenbl\u00e4tterstra\u00dfe", "location": {"address": "Germanenstr.", "crossStreet": "Eisenbl\u00e4tterstr.", "lat": 52.582999785566535, "lng": 13.374588489532469, "labeledLatLngs": [{"label": "display", "lat": 52.582999785566535, "lng": 13.374588489532469}], "distance": 440, "postalCode": "13156", "cc": "DE", "city": "Berlin", "state": "Berlin", "country": "Deutschland", "formattedAddress": ["Germanenstr. (Eisenbl\u00e4tterstr.)", "13156 Berlin", "Deutschland"]}, "categories": [{"id": "52f2ab2ebcbc57f1066b8b4f", "name": "Bus Stop", "pluralName": "Bus Stops", "shortName": "Bus Stop", "icon": {"prefix": "https://ss3.4sqi.net/img/categories_v2/travel/busstation_", "suffix": ".png"}, "primary": true}], "photos": {"count": 0, "groups": []}}, "referralId": "e-0-4f9af881e4b02343c766c59a-5"}, {"reasons": {"count": 0, "items": [{"summary": "This spot is popular", "type": "general", "reasonName": "globalInteractionReason"}]}, "venue": {"id": "4f5a01bbe4b0aaabf4bff0fd", "name": "Wilhelmsruher See", "location": {"address": "Heegerm\u00fchler Weg", "crossStreet": "Siegfried-Baruch-Weg", "lat": 52.58436222795637, "lng": 13.369899988174437, "labeledLatLngs": [{"label": "display", "lat": 52.58436222795637, "lng": 13.369899988174437}], "distance": 521, "cc": "DE", "city": "Berlin", "state": "Berlin", "country": "Deutschland", "formattedAddress": ["Heegerm\u00fchler Weg (Siegfried-Baruch-Weg)", "Berlin", "Deutschland"]}, "categories": [{"id": "4bf58dd8d48988d161941735", "name": "Lake", "pluralName": "Lakes", "shortName": "Lake", "icon": {"prefix": "https://ss3.4sqi.net/img/categories_v2/parks_outdoors/lake_", "suffix": ".png"}, "primary": true}], "photos": {"count": 0, "groups": []}}, "referralId": "e-0-4f5a01bbe4b0aaabf4bff0fd-6"}, {"reasons": {"count": 0, "items": [{"summary": "This spot is popular", "type": "general", "reasonName": "globalInteractionReason"}]}, "venue": {"id": "4df74b5e62e141c907640ece", "name": "EDEKA G\u00f6rse & Meichsner", "location": {"address": "Hauptstr. 23-27", "crossStreet": "Edelwei\u00dfstr.", "lat": 52.5864878561707, "lng": 13.367644751658538, "labeledLatLngs": [{"label": "display", "lat": 52.5864878561707, "lng": 13.367644751658538}], "distance": 599, "postalCode": "13158", "cc": "DE", "city": "Berlin", "state": "Berlin", "country": "Deutschland", "formattedAddress": ["Hauptstr. 23-27 (Edelwei\u00dfstr.)", "13158 Berlin", "Deutschland"]}, "categories": [{"id": "52f2ab2ebcbc57f1066b8b46", "name": "Supermarket", "pluralName": "Supermarkets", "shortName": "Supermarket", "icon": {"prefix": "https://ss3.4sqi.net/img/categories_v2/shops/food_grocery_", "suffix": ".png"}, "primary": true}], "photos": {"count": 0, "groups": []}, "venuePage": {"id": "551437097"}}, "referralId": "e-0-4df74b5e62e141c907640ece-7"}, {"reasons": {"count": 0, "items": [{"summary": "This spot is popular", "type": "general", "reasonName": "globalInteractionReason"}]}, "venue": {"id": "4e3ef31681dc6ce0fac91ce3", "name": "Asia Bistro HOA", "location": {"address": "Hauptstr. 18", "lat": 52.58596212639414, "lng": 13.367059062685195, "labeledLatLngs": [{"label": "display", "lat": 52.58596212639414, "lng": 13.367059062685195}], "distance": 644, "postalCode": "13158", "cc": "DE", "city": "Berlin", "state": "Berlin", "country": "Deutschland", "formattedAddress": ["Hauptstr. 18", "13158 Berlin", "Deutschland"]}, "categories": [{"id": "4bf58dd8d48988d142941735", "name": "Asian Restaurant", "pluralName": "Asian Restaurants", "shortName": "Asian", "icon": {"prefix": "https://ss3.4sqi.net/img/categories_v2/food/asian_", "suffix": ".png"}, "primary": true}], "photos": {"count": 0, "groups": []}}, "referralId": "e-0-4e3ef31681dc6ce0fac91ce3-8"}, {"reasons": {"count": 0, "items": [{"summary": "This spot is popular", "type": "general", "reasonName": "globalInteractionReason"}]}, "venue": {"id": "51431475e4b0c90854182505", "name": "H Hertzstra\u00dfe / Hauptstra\u00dfe", "location": {"address": "Hertzstr.", "crossStreet": "Hauptstr.", "lat": 52.584911853117745, "lng": 13.365818387313487, "labeledLatLngs": [{"label": "display", "lat": 52.584911853117745, "lng": 13.365818387313487}], "distance": 751, "postalCode": "13158", "cc": "DE", "city": "Berlin", "state": "Berlin", "country": "Deutschland", "formattedAddress": ["Hertzstr. (Hauptstr.)", "13158 Berlin", "Deutschland"]}, "categories": [{"id": "52f2ab2ebcbc57f1066b8b4f", "name": "Bus Stop", "pluralName": "Bus Stops", "shortName": "Bus Stop", "icon": {"prefix": "https://ss3.4sqi.net/img/categories_v2/travel/busstation_", "suffix": ".png"}, "primary": true}], "photos": {"count": 0, "groups": []}}, "referralId": "e-0-51431475e4b0c90854182505-9"}, {"reasons": {"count": 0, "items": [{"summary": "This spot is popular", "type": "general", "reasonName": "globalInteractionReason"}]}, "venue": {"id": "4f5cd996e4b06784f8dcc3c5", "name": "H Nordendstra\u00dfe", "location": {"address": "Friedrich-Engels-Str.", "crossStreet": "Nordendstr.", "lat": 52.58871002641484, "lng": 13.388214111328125, "labeledLatLngs": [{"label": "display", "lat": 52.58871002641484, "lng": 13.388214111328125}], "distance": 820, "postalCode": "13156", "cc": "DE", "city": "Berlin", "state": "Berlin", "country": "Deutschland", "formattedAddress": ["Friedrich-Engels-Str. (Nordendstr.)", "13156 Berlin", "Deutschland"]}, "categories": [{"id": "52f2ab2ebcbc57f1066b8b51", "name": "Tram Station", "pluralName": "Tram Stations", "shortName": "Tram", "icon": {"prefix": "https://ss3.4sqi.net/img/categories_v2/travel/trainstation_", "suffix": ".png"}, "primary": true}], "photos": {"count": 0, "groups": []}}, "referralId": "e-0-4f5cd996e4b06784f8dcc3c5-10"}, {"reasons": {"count": 0, "items": [{"summary": "This spot is popular", "type": "general", "reasonName": "globalInteractionReason"}]}, "venue": {"id": "4cf156121c158cfa8443d0b5", "name": "EDEKA Pankow KG KW", "location": {"address": "Friedrich-Engels-Str. 92-96", "lat": 52.5884104, "lng": 13.3892151, "labeledLatLngs": [{"label": "display", "lat": 52.5884104, "lng": 13.3892151}], "distance": 878, "postalCode": "13156", "cc": "DE", "city": "Berlin", "state": "Berlin", "country": "Deutschland", "formattedAddress": ["Friedrich-Engels-Str. 92-96", "13156 Berlin", "Deutschland"]}, "categories": [{"id": "52f2ab2ebcbc57f1066b8b46", "name": "Supermarket", "pluralName": "Supermarkets", "shortName": "Supermarket", "icon": {"prefix": "https://ss3.4sqi.net/img/categories_v2/shops/food_grocery_", "suffix": ".png"}, "primary": true}], "photos": {"count": 0, "groups": []}, "venuePage": {"id": "551948642"}}, "referralId": "e-0-4cf156121c158cfa8443d0b5-11"}, {"reasons": {"count": 0, "items": [{"summary": "This spot is popular", "type": "general", "reasonName": "globalInteractionReason"}]}, "venue": {"id": "4e4e66e862e14b77e38c8b29", "name": "Netto Marken-Discount", "location": {"address": "Hauptstr. 103", "lat": 52.59553563, "lng": 13.37541, "labeledLatLngs": [{"label": "display", "lat": 52.59553563, "lng": 13.37541}], "distance": 977, "postalCode": "13158", "cc": "DE", "city": "Rosenthal", "state": "Berlin", "country": "Deutschland", "formattedAddress": ["Hauptstr. 103", "13158 Berlin-Rosenthal", "Deutschland"]}, "categories": [{"id": "52f2ab2ebcbc57f1066b8b46", "name": "Supermarket", "pluralName": "Supermarkets", "shortName": "Supermarket", "icon": {"prefix": "https://ss3.4sqi.net/img/categories_v2/shops/food_grocery_", "suffix": ".png"}, "primary": true}], "photos": {"count": 0, "groups": []}, "venuePage": {"id": "541780505"}}, "referralId": "e-0-4e4e66e862e14b77e38c8b29-12"}]