[{"reasons": {"count": 0, "items": [{"summary": "This spot is popular", "type": "general", "reasonName": "globalInteractionReason"}]}, "venue": {"id": "51a76025454a2ab55a814710", "name": "Gelateria Mos Eisley", "location": {"address": "Herrfurthplatz 6", "lat": 52.477209249413086, "lng": 13.421427356614307, "labeledLatLngs": [{"label": "display", "lat": 52.477209249413086, "lng": 13.421427356614307}], "distance": 202, "postalCode": "12049", "cc": "DE", "neighborhood": "Schillerkiez", "city": "Berlin", "state": "Berlin", "country": "Deutschland", "formattedAddress": ["Herrfurthplatz 6", "12049 Berlin", "Deutschland"]}, "categories": [{"id": "4bf58dd8d48988d1c9941735", "name": "Ice Cream Shop", "pluralName": "Ice Cream Shops", "shortName": "Ice Cream", "icon": {"prefix": "https://ss3.4sqi.net/img/categories_v2/food/icecream_", "suffix": ".png"}, "primary": true}], "photos": {"count": 0, "groups": []}, "venuePage": {"id": "60068126"}}, "referralId": "e-0-51a76025454a2ab55a814710-0"}, {"reasons": {"count": 0, "items": [{"summary": "This spot is popular", "type": "general", "reasonName": "globalInteractionReason"}]}, "venue": {"id": "555a417c498e52b9e12fe3a8", "name": "Keith", "location": {"address": "Schillerpromenade 2", "lat": 52.47823242087473, "lng": 13.421462774276733, "labeledLatLngs": [{"label": "display", "lat": 52.47823242087473, "lng": 13.421462774276733}], "distance": 305, "postalCode": "12049", "cc": "DE", "city": "Berlin", "state": "Berlin", "country": "Deutschland", "formattedAddress": ["Schillerpromenade 2", "12049 Berlin", "Deutschland"]}, "categories": [{"id": "4bf58dd8d48988d122941735", "name": "Whisky Bar", "pluralName": "Whisky Bars", "shortName": "Whisky Bar", "icon": {"prefix": "https://ss3.4sqi.net/img/categories_v2/nightlife/whiskey_", "suffix": ".png"}, "primary": true}], "photos": {"count": 0, "groups": []}}, "referralId": "e-0-555a417c498e52b9e12fe3a8-1"}, {"reasons": {"count": 0, "items": [{"summary": "This spot is popular", "type": "general", "reasonName": "globalInteractionReason"}]}, "venue": {"id": "4f09efd2e4b026656fc240aa", "name": "Mama Kalo", "location": {"address": "Herrfurthstrasse 23", "lat": 52.47698475428785, "lng": 13.420671036454062, "labeledLatLngs": [{"label": "display", "lat": 52.47698475428785, "lng": 13.420671036454062}], "distance": 156, "cc": "DE", "city": "Berlin", "state": "Berlin", "country": "Deutschland", "formattedAddress": ["Herrfurthstrasse 23", "Berlin", "Deutschland"]}, "categories": [{"id": "4bf58dd8d48988d10c941735", "name": "French Restaurant", "pluralName": "French Restaurants", "shortName": "French", "icon": {"prefix": "https://ss3.4sqi.net/img/categories_v2/food/french_", "suffix": ".png"}, "primary": true}], "photos": {"count": 0, "groups": []}}, "referralId": "e-0-4f09efd2e4b026656fc240aa-2"}, {"reasons": {"count": 0, "items": [{"summary": "This spot is popular", "type": "general", "reasonName": "globalInteractionReason"}]}, "venue": {"id": "52c863ca498e73da17e59cb9", "name": "Caligari", "location": {"address": "Kienitzerstr. 110", "lat": 52.475843, "lng": 13.423658, "labeledLatLngs": [{"label": "display", "lat": 52.475843, "lng": 13.423658}], "distance": 259, "postalCode": "12049", "cc": "DE", "city": "Berlin", "state": "Berlin", "country": "Deutschland", "formattedAddress": ["Kienitzerstr. 110", "12049 Berlin", "Deutschland"]}, "categories": [{"id": "4bf58dd8d48988d110941735", "name": "Italian Restaurant", "pluralName": "Italian Restaurants", "shortName": "Italian", "icon": {"prefix": "https://ss3.4sqi.net/img/categories_v2/food/italian_", "suffix": ".png"}, "primary": true}], "photos": {"count": 0, "groups": []}}, "referralId": "e-0-52c863ca498e73da17e59cb9-3"}, {"reasons": {"count": 0, "items": [{"summary": "This spot is popular", "type": "general", "reasonName": "globalInteractionReason"}]}, "venue": {"id": "591761a310345b135329e0dc", "name": "Brauhaus Neulich", "location": {"address": "Selchower Str. 20", "crossStreet": "Lichtenrader Str", "lat": 52.478446, "lng": 13.419868, "labeledLatLngs": [{"label": "display", "lat": 52.478446, "lng": 13.419868}], "distance": 308, "postalCode": "12049", "cc": "DE", "city": "Berlin", "state": "Berlin", "country": "Deutschland", "formattedAddress": ["Selchower Str. 20 (Lichtenrader Str)", "12049 Berlin", "Deutschland"]}, "categories": [{"id": "4bf58dd8d48988d116941735", "name": "Bar", "pluralName": "Bars", "shortName": "Bar", "icon": {"prefix": "https://ss3.4sqi.net/img/categories_v2/nightlife/pub_", "suffix": ".png"}, "primary": true}], "photos": {"count": 0, "groups": []}}, "referralId": "e-0-591761a310345b135329e0dc-4"}, {"reasons": {"count": 0, "items": [{"summary": "This spot is popular", "type": "general", "reasonName": "globalInteractionReason"}]}, "venue": {"id": "5b76ee2d2d270e001c12828e", "name": "Palsta", "location": {"address": "Oderstra\u00dfe 52", "lat": 52.476421, "lng": 13.418893, "labeledLatLngs": [{"label": "display", "lat": 52.476421, "lng": 13.418893}], "distance": 105, "postalCode": "12049", "cc": "DE", "neighborhood": "Schillerkiez", "city": "Berlin", "state": "Berlin", "country": "Deutschland", "formattedAddress": ["Oderstra\u00dfe 52", "12049 Berlin", "Deutschland"]}, "categories": [{"id": "4bf58dd8d48988d123941735", "name": "Wine Bar", "pluralName": "Wine Bars", "shortName": "Wine Bar", "icon": {"prefix": "https://ss3.4sqi.net/img/categories_v2/food/winery_", "suffix": ".png"}, "primary": true}], "photos": {"count": 0, "groups": []}}, "referralId": "e-0-5b76ee2d2d270e001c12828e-5"}, {"reasons": {"count": 0, "items": [{"summary": "This spot is popular", "type": "general", "reasonName": "globalInteractionReason"}]}, "venue": {"id": "514e2368e4b03aaaf1b5055c", "name": "La Pecora Nera", "location": {"address": "Herrfurthplatz 6", "lat": 52.477266, "lng": 13.421193, "labeledLatLngs": [{"label": "display", "lat": 52.477266, "lng": 13.421193}], "distance": 199, "postalCode": "12049", "cc": "DE", "city": "Berlin", "state": "Berlin", "country": "Deutschland", "formattedAddress": ["Herrfurthplatz 6", "12049 Berlin", "Deutschland"]}, "categories": [{"id": "4bf58dd8d48988d110941735", "name": "Italian Restaurant", "pluralName": "Italian Restaurants", "shortName": "Italian", "icon": {"prefix": "https://ss3.4sqi.net/img/categories_v2/food/italian_", "suffix": ".png"}, "primary": true}], "photos": {"count": 0, "groups": []}}, "referralId": "e-0-514e2368e4b03aaaf1b5055c-6"}, {"reasons": {"count": 0, "items": [{"summary": "This spot is popular", "type": "general", "reasonName": "globalInteractionReason"}]}, "venue": {"id": "4d657cf2072a6ea839e2fd4d", "name": "Promenaden Eck", "location": {"address": "Schillerpromenade 11", "lat": 52.475630119772816, "lng": 13.422320422454211, "labeledLatLngs": [{"label": "display", "lat": 52.475630119772816, "lng": 13.422320422454211}], "distance": 167, "postalCode": "12049", "cc": "DE", "city": "Berlin", "state": "Berlin", "country": "Deutschland", "formattedAddress": ["Schillerpromenade 11", "12049 Berlin", "Deutschland"]}, "categories": [{"id": "4bf58dd8d48988d116941735", "name": "Bar", "pluralName": "Bars", "shortName": "Bar", "icon": {"prefix": "https://ss3.4sqi.net/img/categories_v2/nightlife/pub_", "suffix": ".png"}, "primary": true}], "photos": {"count": 0, "groups": []}}, "referralId": "e-0-4d657cf2072a6ea839e2fd4d-7"}, {"reasons": {"count": 0, "items": [{"summary": "This spot is popular", "type": "general", "reasonName": "globalInteractionReason"}]}, "venue": {"id": "502a4bb7e4b044c2e173e366", "name": "Allmende-Kontor", "location": {"address": "Tempelhofer Park", "crossStreet": "Oderstr.", "lat": 52.474546788864124, "lng": 13.41701030731201, "labeledLatLngs": [{"label": "display", "lat": 52.474546788864124, "lng": 13.41701030731201}], "distance": 229, "postalCode": "12051", "cc": "DE", "city": "Berlin", "state": "Berlin", "country": "Deutschland", "formattedAddress": ["Tempelhofer Park (Oderstr.)", "12051 Berlin", "Deutschland"]}, "categories": [{"id": "4bf58dd8d48988d15a941735", "name": "Garden", "pluralName": "Gardens", "shortName": "Garden", "icon": {"prefix": "https://ss3.4sqi.net/img/categories_v2/parks_outdoors/garden_", "suffix": ".png"}, "primary": true}], "photos": {"count": 0, "groups": []}}, "referralId": "e-0-502a4bb7e4b044c2e173e366-8"}, {"reasons": {"count": 0, "items": [{"summary": "This spot is popular", "type": "general", "reasonName": "globalInteractionReason"}]}, "venue": {"id": "4e662dc5b0fb188e8f447554", "name": "R\u00fcbezahl Urban Gardening Collective", "location": {"address": "Allmende-Kontor", "crossStreet": "Oderstr.", "lat": 52.47413737885614, "lng": 13.416544278265594, "labeledLatLngs": [{"label": "display", "lat": 52.47413737885614, "lng": 13.416544278265594}], "distance": 281, "postalCode": "12051", "cc": "DE", "city": "Berlin", "state": "Berlin", "country": "Deutschland", "formattedAddress": ["Allmende-Kontor (Oderstr.)", "12051 Berlin", "Deutschland"]}, "categories": [{"id": "4bf58dd8d48988d15a941735", "name": "Garden", "pluralName": "Gardens", "shortName": "Garden", "icon": {"prefix": "https://ss3.4sqi.net/img/categories_v2/parks_outdoors/garden_", "suffix": ".png"}, "primary": true}], "photos": {"count": 0, "groups": []}}, "referralId": "e-0-4e662dc5b0fb188e8f447554-9"}, {"reasons": {"count": 0, "items": [{"summary": "This spot is popular", "type": "general", "reasonName": "globalInteractionReason"}]}, "venue": {"id": "507072afe4b0e156ba5a566c", "name": "Zio Felix", "location": {"address": "Okerstr. 35", "lat": 52.47386532197597, "lng": 13.423668797923707, "labeledLatLngs": [{"label": "display", "lat": 52.47386532197597, "lng": 13.423668797923707}], "distance": 327, "postalCode": "12049", "cc": "DE", "city": "Berlin", "state": "Berlin", "country": "Deutschland", "formattedAddress": ["Okerstr. 35", "12049 Berlin", "Deutschland"]}, "categories": [{"id": "4bf58dd8d48988d1ca941735", "name": "Pizza Place", "pluralName": "Pizza Places", "shortName": "Pizza", "icon": {"prefix": "https://ss3.4sqi.net/img/categories_v2/food/pizza_", "suffix": ".png"}, "primary": true}], "photos": {"count": 0, "groups": []}}, "referralId": "e-0-507072afe4b0e156ba5a566c-10"}, {"reasons": {"count": 0, "items": [{"summary": "This spot is popular", "type": "general", "reasonName": "globalInteractionReason"}]}, "venue": {"id": "54688889498e74d3bc2917c6", "name": "Sahara Imbiss", "location": {"address": "Herrfurthstr. 5", "lat": 52.477422142877735, "lng": 13.424589693727848, "labeledLatLngs": [{"label": "display", "lat": 52.477422142877735, "lng": 13.424589693727848}], "distance": 376, "postalCode": "12049", "cc": "DE", "city": "Berlin", "state": "Berlin", "country": "Deutschland", "formattedAddress": ["Herrfurthstr. 5", "12049 Berlin", "Deutschland"]}, "categories": [{"id": "4bf58dd8d48988d1c8941735", "name": "African Restaurant", "pluralName": "African Restaurants", "shortName": "African", "icon": {"prefix": "https://ss3.4sqi.net/img/categories_v2/food/african_", "suffix": ".png"}, "primary": true}], "photos": {"count": 0, "groups": []}}, "referralId": "e-0-54688889498e74d3bc2917c6-11"}, {"reasons": {"count": 0, "items": [{"summary": "This spot is popular", "type": "general", "reasonName": "globalInteractionReason"}]}, "venue": {"id": "502a421be4b0e46579b07a71", "name": "Skallywag Gallery", "location": {"address": "Herrfurthstr. 10", "lat": 52.47697401501714, "lng": 13.420653304900815, "labeledLatLngs": [{"label": "display", "lat": 52.47697401501714, "lng": 13.420653304900815}], "distance": 155, "postalCode": "12049", "cc": "DE", "city": "Berlin", "state": "Berlin", "country": "Deutschland", "formattedAddress": ["Herrfurthstr. 10", "12049 Berlin", "Deutschland"]}, "categories": [{"id": "4bf58dd8d48988d1e2931735", "name": "Art Gallery", "pluralName": "Art Galleries", "shortName": "Art Gallery", "icon": {"prefix": "https://ss3.4sqi.net/img/categories_v2/arts_entertainment/artgallery_", "suffix": ".png"}, "primary": true}], "photos": {"count": 0, "groups": []}}, "referralId": "e-0-502a421be4b0e46579b07a71-12"}, {"reasons": {"count": 0, "items": [{"summary": "This spot is popular", "type": "general", "reasonName": "globalInteractionReason"}]}, "venue": {"id": "4d96dda70caaa143b90b83b3", "name": "Schillermarkt Herrfurthplatz", "location": {"address": "Herrfurthplatz", "lat": 52.477050340654095, "lng": 13.422782467238656, "labeledLatLngs": [{"label": "display", "lat": 52.477050340654095, "lng": 13.422782467238656}], "distance": 251, "postalCode": "12049", "cc": "DE", "city": "Berlin", "state": "Berlin", "country": "Deutschland", "formattedAddress": ["Herrfurthplatz", "12049 Berlin", "Deutschland"]}, "categories": [{"id": "4bf58dd8d48988d1fa941735", "name": "Farmers Market", "pluralName": "Farmers Markets", "shortName": "Farmer's Market", "icon": {"prefix": "https://ss3.4sqi.net/img/categories_v2/shops/food_farmersmarket_", "suffix": ".png"}, "primary": true}], "photos": {"count": 0, "groups": []}}, "referralId": "e-0-4d96dda70caaa143b90b83b3-13"}, {"reasons": {"count": 0, "items": [{"summary": "This spot is popular", "type": "general", "reasonName": "globalInteractionReason"}]}, "venue": {"id": "5525a85e498e29b842cf2f9b", "name": "L'Eustache", "location": {"address": "Weisestr. 49", "lat": 52.47665470504067, "lng": 13.424228930130086, "labeledLatLngs": [{"label": "display", "lat": 52.47665470504067, "lng": 13.424228930130086}], "distance": 316, "postalCode": "12049", "cc": "DE", "city": "Berlin", "state": "Berlin", "country": "Deutschland", "formattedAddress": ["Weisestr. 49", "12049 Berlin", "Deutschland"]}, "categories": [{"id": "4bf58dd8d48988d10c941735", "name": "French Restaurant", "pluralName": "French Restaurants", "shortName": "French", "icon": {"prefix": "https://ss3.4sqi.net/img/categories_v2/food/french_", "suffix": ".png"}, "primary": true}], "photos": {"count": 0, "groups": []}}, "referralId": "e-0-5525a85e498e29b842cf2f9b-14"}, {"reasons": {"count": 0, "items": [{"summary": "This spot is popular", "type": "general", "reasonName": "globalInteractionReason"}]}, "venue": {"id": "50f184dfe4b058f4ca61ffb0", "name": "Pazzi X Pizza", "location": {"address": "Herrfurthstr. 8", "lat": 52.47722535449326, "lng": 13.423436563311506, "labeledLatLngs": [{"label": "display", "lat": 52.47722535449326, "lng": 13.423436563311506}], "distance": 298, "postalCode": "12049", "cc": "DE", "city": "Berlin", "state": "Berlin", "country": "Deutschland", "formattedAddress": ["Herrfurthstr. 8", "12049 Berlin", "Deutschland"]}, "categories": [{"id": "4bf58dd8d48988d1ca941735", "name": "Pizza Place", "pluralName": "Pizza Places", "shortName": "Pizza", "icon": {"prefix": "https://ss3.4sqi.net/img/categories_v2/food/pizza_", "suffix": ".png"}, "primary": true}], "photos": {"count": 0, "groups": []}}, "referralId": "e-0-50f184dfe4b058f4ca61ffb0-15"}, {"reasons": {"count": 0, "items": [{"summary": "This spot is popular", "type": "general", "reasonName": "globalInteractionReason"}]}, "venue": {"id": "53ef966b498e57f6ca1f25f0", "name": "Gordon Restaurant & Records", "location": {"address": "Allerstr. 11", "lat": 52.474890245850915, "lng": 13.424141534856508, "labeledLatLngs": [{"label": "display", "lat": 52.474890245850915, "lng": 13.424141534856508}], "distance": 303, "postalCode": "12049", "cc": "DE", "city": "Berlin", "state": "Berlin", "country": "Deutschland", "formattedAddress": ["Allerstr. 11", "12049 Berlin", "Deutschland"]}, "categories": [{"id": "56aa371be4b08b9a8d573529", "name": "Israeli Restaurant", "pluralName": "Israeli Restaurants", "shortName": "Israeli", "icon": {"prefix": "https://ss3.4sqi.net/img/categories_v2/food/falafel_", "suffix": ".png"}, "primary": true}], "photos": {"count": 0, "groups": []}, "venuePage": {"id": "464134571"}}, "referralId": "e-0-53ef966b498e57f6ca1f25f0-16"}, {"reasons": {"count": 0, "items": [{"summary": "This spot is popular", "type": "general", "reasonName": "globalInteractionReason"}]}, "venue": {"id": "549c0220498ece50b16e7b26", "name": "Selig", "location": {"address": "Herrfurthplatz 14", "lat": 52.47724, "lng": 13.42223, "labeledLatLngs": [{"label": "display", "lat": 52.47724, "lng": 13.42223}], "distance": 237, "postalCode": "12049", "cc": "DE", "city": "Berlin", "state": "Berlin", "country": "Deutschland", "formattedAddress": ["Herrfurthplatz 14", "12049 Berlin", "Deutschland"]}, "categories": [{"id": "4bf58dd8d48988d16d941735", "name": "Caf\u00e9", "pluralName": "Caf\u00e9s", "shortName": "Caf\u00e9", "icon": {"prefix": "https://ss3.4sqi.net/img/categories_v2/food/cafe_", "suffix": ".png"}, "primary": true}], "photos": {"count": 0, "groups": []}}, "referralId": "e-0-549c0220498ece50b16e7b26-17"}, {"reasons": {"count": 0, "items": [{"summary": "This spot is popular", "type": "general", "reasonName": "globalInteractionReason"}]}, "venue": {"id": "4c260b48f1272d7f50c385c5", "name": "Froschk\u00f6nig", "location": {"address": "Weisestr. 17", "lat": 52.47696784551964, "lng": 13.424033070406335, "labeledLatLngs": [{"label": "display", "lat": 52.47696784551964, "lng": 13.424033070406335}], "distance": 318, "postalCode": "12049", "cc": "DE", "city": "Berlin", "state": "Berlin", "country": "Deutschland", "formattedAddress": ["Weisestr. 17", "12049 Berlin", "Deutschland"]}, "categories": [{"id": "4bf58dd8d48988d116941735", "name": "Bar", "pluralName": "Bars", "shortName": "Bar", "icon": {"prefix": "https://ss3.4sqi.net/img/categories_v2/nightlife/pub_", "suffix": ".png"}, "primary": true}], "photos": {"count": 0, "groups": []}, "venuePage": {"id": "45903295"}}, "referralId": "e-0-4c260b48f1272d7f50c385c5-18"}, {"reasons": {"count": 0, "items": [{"summary": "This spot is popular", "type": "general", "reasonName": "globalInteractionReason"}]}, "venue": {"id": "4b9e8ea9f964a520eaee36e3", "name": "Staalplaat", "location": {"address": "Kienitzer Stra\u00dfe 108", "crossStreet": "Weisestra\u00dfe", "lat": 52.475853785895985, "lng": 13.424348831176758, "labeledLatLngs": [{"label": "display", "lat": 52.475853785895985, "lng": 13.424348831176758}], "distance": 305, "postalCode": "12049", "cc": "DE", "city": "Berlin", "state": "Berlin", "country": "Deutschland", "formattedAddress": ["Kienitzer Stra\u00dfe 108 (Weisestra\u00dfe)", "12049 Berlin", "Deutschland"]}, "categories": [{"id": "4bf58dd8d48988d1fe941735", "name": "Music Store", "pluralName": "Music Stores", "shortName": "Music Store", "icon": {"prefix": "https://ss3.4sqi.net/img/categories_v2/shops/music_instruments_", "suffix": ".png"}, "primary": true}], "photos": {"count": 0, "groups": []}, "venuePage": {"id": "56146379"}}, "referralId": "e-0-4b9e8ea9f964a520eaee36e3-19"}, {"reasons": {"count": 0, "items": [{"summary": "This spot is popular", "type": "general", "reasonName": "globalInteractionReason"}]}, "venue": {"id": "4d850d478de9721ef0c33e51", "name": "Frollein Langner", "location": {"address": "Weisestr. 34", "crossStreet": "Okerstr.", "lat": 52.47401134769074, "lng": 13.425077545416812, "labeledLatLngs": [{"label": "display", "lat": 52.47401134769074, "lng": 13.425077545416812}], "distance": 399, "postalCode": "12049", "cc": "DE", "city": "Berlin", "state": "Berlin", "country": "Deutschland", "formattedAddress": ["Weisestr. 34 (Okerstr.)", "12049 Berlin", "Deutschland"]}, "categories": [{"id": "4bf58dd8d48988d116941735", "name": "Bar", "pluralName": "Bars", "shortName": "Bar", "icon": {"prefix": "https://ss3.4sqi.net/img/categories_v2/nightlife/pub_", "suffix": ".png"}, "primary": true}], "photos": {"count": 0, "groups": []}, "venuePage": {"id": "445548475"}}, "referralId": "e-0-4d850d478de9721ef0c33e51-20"}, {"reasons": {"count": 0, "items": [{"summary": "This spot is popular", "type": "general", "reasonName": "globalInteractionReason"}]}, "venue": {"id": "557d95be498e95a6fbaf0525", "name": "Rent a Bike 44", "location": {"address": "Mahlowerstr. 9", "lat": 52.479764801318005, "lng": 13.422383998235816, "labeledLatLngs": [{"label": "display", "lat": 52.479764801318005, "lng": 13.422383998235816}], "distance": 487, "postalCode": "12049", "cc": "DE", "city": "Berlin", "state": "Berlin", "country": "Deutschland", "formattedAddress": ["Mahlowerstr. 9", "12049 Neuk\u00f6lln", "Deutschland"]}, "categories": [{"id": "4e4c9077bd41f78e849722f9", "name": "Bike Rental / Bike Share", "pluralName": "Bike Rentals / Bike Shares", "shortName": "Bike", "icon": {"prefix": "https://ss3.4sqi.net/img/categories_v2/shops/bikeshop_", "suffix": ".png"}, "primary": true}], "photos": {"count": 0, "groups": []}}, "referralId": "e-0-557d95be498e95a6fbaf0525-21"}, {"reasons": {"count": 0, "items": [{"summary": "This spot is popular", "type": "general", "reasonName": "globalInteractionReason"}]}, "venue": {"id": "4db425f74df05e5aaad991bd", "name": "Engels", "location": {"address": "Herrfurthstr. 21", "lat": 52.47685558735277, "lng": 13.420034114335865, "labeledLatLngs": [{"label": "display", "lat": 52.47685558735277, "lng": 13.420034114335865}], "distance": 132, "postalCode": "12049", "cc": "DE", "city": "Berlin", "state": "Berlin", "country": "Deutschland", "formattedAddress": ["Herrfurthstr. 21", "12049 Berlin", "Deutschland"]}, "categories": [{"id": "4bf58dd8d48988d1c4941735", "name": "Restaurant", "pluralName": "Restaurants", "shortName": "Restaurant", "icon": {"prefix": "https://ss3.4sqi.net/img/categories_v2/food/default_", "suffix": ".png"}, "primary": true}], "photos": {"count": 0, "groups": []}}, "referralId": "e-0-4db425f74df05e5aaad991bd-22"}, {"reasons": {"count": 0, "items": [{"summary": "This spot is popular", "type": "general", "reasonName": "globalInteractionReason"}]}, "venue": {"id": "4c265d583703d13af243a536", "name": "Sowieso", "location": {"address": "Weisestr. 24", "lat": 52.475383271436584, "lng": 13.424472212791443, "labeledLatLngs": [{"label": "display", "lat": 52.475383271436584, "lng": 13.424472212791443}], "distance": 315, "postalCode": "12049", "cc": "DE", "city": "Berlin", "state": "Berlin", "country": "Deutschland", "formattedAddress": ["Weisestr. 24", "12049 Berlin", "Deutschland"]}, "categories": [{"id": "4bf58dd8d48988d1e7931735", "name": "Jazz Club", "pluralName": "Jazz Clubs", "shortName": "Jazz Club", "icon": {"prefix": "https://ss3.4sqi.net/img/categories_v2/arts_entertainment/musicvenue_jazzclub_", "suffix": ".png"}, "primary": true}], "photos": {"count": 0, "groups": []}}, "referralId": "e-0-4c265d583703d13af243a536-23"}, {"reasons": {"count": 0, "items": [{"summary": "This spot is popular", "type": "general", "reasonName": "globalInteractionReason"}]}, "venue": {"id": "5bf3194a971317002d6463cd", "name": "Barra", "location": {"address": "Okerstr. 2", "lat": 52.474282, "lng": 13.426805, "labeledLatLngs": [{"label": "display", "lat": 52.474282, "lng": 13.426805}], "distance": 496, "postalCode": "12049", "cc": "DE", "city": "Berlin", "state": "Berlin", "country": "Deutschland", "formattedAddress": ["Okerstr. 2", "12049 Berlin", "Deutschland"]}, "categories": [{"id": "4bf58dd8d48988d1c4941735", "name": "Restaurant", "pluralName": "Restaurants", "shortName": "Restaurant", "icon": {"prefix": "https://ss3.4sqi.net/img/categories_v2/food/default_", "suffix": ".png"}, "primary": true}], "photos": {"count": 0, "groups": []}}, "referralId": "e-0-5bf3194a971317002d6463cd-24"}, {"reasons": {"count": 0, "items": [{"summary": "This spot is popular", "type": "general", "reasonName": "globalInteractionReason"}]}, "venue": {"id": "51fe7e00498e310a32034802", "name": "Mmaah", "location": {"address": "Columbiadamm 160", "lat": 52.480005868543785, "lng": 13.418033952091465, "labeledLatLngs": [{"label": "display", "lat": 52.480005868543785, "lng": 13.418033952091465}], "distance": 498, "postalCode": "10965", "cc": "DE", "neighborhood": "Schillerkiez", "city": "Berlin", "state": "Berlin", "country": "Deutschland", "formattedAddress": ["Columbiadamm 160", "10965 Berlin", "Deutschland"]}, "categories": [{"id": "4bf58dd8d48988d113941735", "name": "Korean Restaurant", "pluralName": "Korean Restaurants", "shortName": "Korean", "icon": {"prefix": "https://ss3.4sqi.net/img/categories_v2/food/korean_", "suffix": ".png"}, "primary": true}], "photos": {"count": 0, "groups": []}}, "referralId": "e-0-51fe7e00498e310a32034802-25"}, {"reasons": {"count": 0, "items": [{"summary": "This spot is popular", "type": "general", "reasonName": "globalInteractionReason"}]}, "venue": {"id": "4bebf622415e20a1dddfe6bb", "name": "Grillplatz Ost", "location": {"address": "Tempelhofer Park", "crossStreet": "Oderstr.", "lat": 52.47291298798309, "lng": 13.417353630065918, "labeledLatLngs": [{"label": "display", "lat": 52.47291298798309, "lng": 13.417353630065918}], "distance": 350, "postalCode": "12049", "cc": "DE", "city": "Berlin", "state": "Berlin", "country": "Deutschland", "formattedAddress": ["Tempelhofer Park (Oderstr.)", "12049 Berlin", "Deutschland"]}, "categories": [{"id": "4d954b16a243a5684b65b473", "name": "Rest Area", "pluralName": "Rest Areas", "shortName": "Rest Areas", "icon": {"prefix": "https://ss3.4sqi.net/img/categories_v2/travel/restarea_", "suffix": ".png"}, "primary": true}], "photos": {"count": 0, "groups": []}}, "referralId": "e-0-4bebf622415e20a1dddfe6bb-26"}, {"reasons": {"count": 0, "items": [{"summary": "This spot is popular", "type": "general", "reasonName": "globalInteractionReason"}]}, "venue": {"id": "5960ae4bf00a706a94bf587b", "name": "m|a", "location": {"address": "Kienitzer Strasse", "lat": 52.475971, "lng": 13.426299, "labeledLatLngs": [{"label": "display", "lat": 52.475971, "lng": 13.426299}], "distance": 438, "cc": "DE", "city": "Berlin", "state": "Berlin", "country": "Deutschland", "formattedAddress": ["Kienitzer Strasse", "Berlin", "Deutschland"]}, "categories": [{"id": "4bf58dd8d48988d143941735", "name": "Breakfast Spot", "pluralName": "Breakfast Spots", "shortName": "Breakfast", "icon": {"prefix": "https://ss3.4sqi.net/img/categories_v2/food/breakfast_", "suffix": ".png"}, "primary": true}], "photos": {"count": 0, "groups": []}}, "referralId": "e-0-5960ae4bf00a706a94bf587b-27"}, {"reasons": {"count": 0, "items": [{"summary": "This spot is popular", "type": "general", "reasonName": "globalInteractionReason"}]}, "venue": {"id": "4adcda8cf964a520064a21e3", "name": "Rollberg Kino", "location": {"address": "Rollbergstr. 70", "lat": 52.478724477299146, "lng": 13.427944660847354, "labeledLatLngs": [{"label": "display", "lat": 52.478724477299146, "lng": 13.427944660847354}], "distance": 645, "postalCode": "12049", "cc": "DE", "city": "Berlin", "state": "Berlin", "country": "Deutschland", "formattedAddress": ["Rollbergstr. 70", "12049 Berlin", "Deutschland"]}, "categories": [{"id": "4bf58dd8d48988d17e941735", "name": "Indie Movie Theater", "pluralName": "Indie Movie Theaters", "shortName": "Indie Movies", "icon": {"prefix": "https://ss3.4sqi.net/img/categories_v2/arts_entertainment/movietheater_", "suffix": ".png"}, "primary": true}], "photos": {"count": 0, "groups": []}}, "referralId": "e-0-4adcda8cf964a520064a21e3-28"}, {"reasons": {"count": 0, "items": [{"summary": "This spot is popular", "type": "general", "reasonName": "globalInteractionReason"}]}, "venue": {"id": "579c577a498e2db2e1537e08", "name": "Isla Coffee Berlin", "location": {"address": "Hermannstr. 37", "lat": 52.48033594219699, "lng": 13.425168639130929, "labeledLatLngs": [{"label": "display", "lat": 52.48033594219699, "lng": 13.425168639130929}], "distance": 632, "postalCode": "12049", "cc": "DE", "neighborhood": "Schillerkiez", "city": "Berlin", "state": "Berlin", "country": "Deutschland", "formattedAddress": ["Hermannstr. 37", "12049 Berlin", "Deutschland"]}, "categories": [{"id": "4bf58dd8d48988d1e0931735", "name": "Coffee Shop", "pluralName": "Coffee Shops", "shortName": "Coffee Shop", "icon": {"prefix": "https://ss3.4sqi.net/img/categories_v2/food/coffeeshop_", "suffix": ".png"}, "primary": true}], "photos": {"count": 0, "groups": []}}, "referralId": "e-0-579c577a498e2db2e1537e08-29"}, {"reasons": {"count": 0, "items": [{"summary": "This spot is popular", "type": "general", "reasonName": "globalInteractionReason"}]}, "venue": {"id": "577bf22d498e283019df2a8c", "name": "La Stella Nera", "location": {"address": "Leykestr. 18", "lat": 52.47493, "lng": 13.427939, "labeledLatLngs": [{"label": "display", "lat": 52.47493, "lng": 13.427939}], "distance": 554, "postalCode": "12053", "cc": "DE", "neighborhood": "K\u00f6rnerkiez", "city": "Berlin", "state": "Berlin", "country": "Deutschland", "formattedAddress": ["Leykestr. 18", "12053 Berlin", "Deutschland"]}, "categories": [{"id": "4bf58dd8d48988d1d3941735", "name": "Vegetarian / Vegan Restaurant", "pluralName": "Vegetarian / Vegan Restaurants", "shortName": "Vegetarian / Vegan", "icon": {"prefix": "https://ss3.4sqi.net/img/categories_v2/food/vegetarian_", "suffix": ".png"}, "primary": true}], "photos": {"count": 0, "groups": []}}, "referralId": "e-0-577bf22d498e283019df2a8c-30"}, {"reasons": {"count": 0, "items": [{"summary": "This spot is popular", "type": "general", "reasonName": "globalInteractionReason"}]}, "venue": {"id": "57b8a66ccd10ab004e256f6c", "name": "Muted Horn", "location": {"address": "Flughafenstr. 49", "crossStreet": "Hermannstr.", "lat": 52.48070840798713, "lng": 13.426280544716859, "labeledLatLngs": [{"label": "display", "lat": 52.48070840798713, "lng": 13.426280544716859}], "distance": 710, "postalCode": "12053", "cc": "DE", "neighborhood": "Schillerkiez", "city": "Berlin", "state": "Berlin", "country": "Deutschland", "formattedAddress": ["Flughafenstr. 49 (Hermannstr.)", "12053 Berlin", "Deutschland"]}, "categories": [{"id": "56aa371ce4b08b9a8d57356c", "name": "Beer Bar", "pluralName": "Beer Bars", "shortName": "Beer Bar", "icon": {"prefix": "https://ss3.4sqi.net/img/categories_v2/nightlife/pub_", "suffix": ".png"}, "primary": true}], "photos": {"count": 0, "groups": []}, "venuePage": {"id": "329830392"}}, "referralId": "e-0-57b8a66ccd10ab004e256f6c-31"}, {"reasons": {"count": 0, "items": [{"summary": "This spot is popular", "type": "general", "reasonName": "globalInteractionReason"}]}, "venue": {"id": "569fe896498e2e370cb8fc70", "name": "Horse", "location": {"address": "Allerstr. 3", "lat": 52.47521407081142, "lng": 13.426422627537312, "labeledLatLngs": [{"label": "display", "lat": 52.47521407081142, "lng": 13.426422627537312}], "distance": 448, "cc": "DE", "city": "Berlin", "state": "Berlin", "country": "Deutschland", "formattedAddress": ["Allerstr. 3", "Berlin", "Deutschland"]}, "categories": [{"id": "4bf58dd8d48988d116941735", "name": "Bar", "pluralName": "Bars", "shortName": "Bar", "icon": {"prefix": "https://ss3.4sqi.net/img/categories_v2/nightlife/pub_", "suffix": ".png"}, "primary": true}], "photos": {"count": 0, "groups": []}}, "referralId": "e-0-569fe896498e2e370cb8fc70-32"}, {"reasons": {"count": 0, "items": [{"summary": "This spot is popular", "type": "general", "reasonName": "globalInteractionReason"}]}, "venue": {"id": "5999a5f158002c4ccec15a80", "name": "Lalibela", "location": {"lat": 52.47723, "lng": 13.425074, "labeledLatLngs": [{"label": "display", "lat": 52.47723, "lng": 13.425074}], "distance": 394, "cc": "DE", "city": "Berlin", "state": "Berlin", "country": "Deutschland", "formattedAddress": ["Berlin", "Deutschland"]}, "categories": [{"id": "4bf58dd8d48988d10a941735", "name": "Ethiopian Restaurant", "pluralName": "Ethiopian Restaurants", "shortName": "Ethiopian", "icon": {"prefix": "https://ss3.4sqi.net/img/categories_v2/food/ethiopian_", "suffix": ".png"}, "primary": true}], "photos": {"count": 0, "groups": []}}, "referralId": "e-0-5999a5f158002c4ccec15a80-33"}, {"reasons": {"count": 0, "items": [{"summary": "This spot is popular", "type": "general", "reasonName": "globalInteractionReason"}]}, "venue": {"id": "5b375828ca18ea002c26372d", "name": "21 gramm", "location": {"address": "Hermannstr. 179", "crossStreet": "Thomasstr.", "lat": 52.472125, "lng": 13.429091, "labeledLatLngs": [{"label": "display", "lat": 52.472125, "lng": 13.429091}], "distance": 740, "postalCode": "12049", "cc": "DE", "neighborhood": "K\u00f6rnerkiez", "city": "Berlin", "state": "Berlin", "country": "Deutschland", "formattedAddress": ["Hermannstr. 179 (Thomasstr.)", "12049 Berlin", "Deutschland"]}, "categories": [{"id": "4bf58dd8d48988d143941735", "name": "Breakfast Spot", "pluralName": "Breakfast Spots", "shortName": "Breakfast", "icon": {"prefix": "https://ss3.4sqi.net/img/categories_v2/food/breakfast_", "suffix": ".png"}, "primary": true}], "photos": {"count": 0, "groups": []}, "venuePage": {"id": "578007248"}}, "referralId": "e-0-5b375828ca18ea002c26372d-34"}, {"reasons": {"count": 0, "items": [{"summary": "This spot is popular", "type": "general", "reasonName": "globalInteractionReason"}]}, "venue": {"id": "4f359259e4b01f8cbd210011", "name": "Aller Eck", "location": {"lat": 52.47484222836367, "lng": 13.424786734415905, "labeledLatLngs": [{"label": "display", "lat": 52.47484222836367, "lng": 13.424786734415905}], "distance": 347, "cc": "DE", "city": "Berlin", "state": "Berlin", "country": "Deutschland", "formattedAddress": ["Berlin", "Deutschland"]}, "categories": [{"id": "4bf58dd8d48988d118941735", "name": "Dive Bar", "pluralName": "Dive Bars", "shortName": "Dive Bar", "icon": {"prefix": "https://ss3.4sqi.net/img/categories_v2/nightlife/divebar_", "suffix": ".png"}, "primary": true}], "photos": {"count": 0, "groups": []}}, "referralId": "e-0-4f359259e4b01f8cbd210011-35"}, {"reasons": {"count": 0, "items": [{"summary": "This spot is popular", "type": "general", "reasonName": "globalInteractionReason"}]}, "venue": {"id": "533182cf498e40703be8ce53", "name": "Two Planets", "location": {"address": "Hermannstr. 230", "crossStreet": "Flughafenstr.", "lat": 52.48134928745419, "lng": 13.424954415671472, "labeledLatLngs": [{"label": "display", "lat": 52.48134928745419, "lng": 13.424954415671472}], "distance": 720, "postalCode": "12049", "cc": "DE", "neighborhood": "Neukolln, Berlin", "city": "Berlin", "state": "Berlin", "country": "Deutschland", "formattedAddress": ["Hermannstr. 230 (Flughafenstr.)", "12049 Berlin", "Deutschland"]}, "categories": [{"id": "4bf58dd8d48988d143941735", "name": "Breakfast Spot", "pluralName": "Breakfast Spots", "shortName": "Breakfast", "icon": {"prefix": "https://ss3.4sqi.net/img/categories_v2/food/breakfast_", "suffix": ".png"}, "primary": true}], "photos": {"count": 0, "groups": []}, "venuePage": {"id": "85106291"}}, "referralId": "e-0-533182cf498e40703be8ce53-36"}, {"reasons": {"count": 0, "items": [{"summary": "This spot is popular", "type": "general", "reasonName": "globalInteractionReason"}]}, "venue": {"id": "57d586f4498e04744340dec1", "name": "BONA Kollektiv", "location": {"address": "Hermannstr. 178", "lat": 52.4716546113619, "lng": 13.429121919198035, "labeledLatLngs": [{"label": "display", "lat": 52.4716546113619, "lng": 13.429121919198035}], "distance": 771, "postalCode": "12051", "cc": "DE", "neighborhood": "K\u00f6rnerkiez", "city": "Berlin", "state": "Berlin", "country": "Deutschland", "formattedAddress": ["Hermannstr. 178", "12051 Berlin", "Deutschland"]}, "categories": [{"id": "4bf58dd8d48988d16d941735", "name": "Caf\u00e9", "pluralName": "Caf\u00e9s", "shortName": "Caf\u00e9", "icon": {"prefix": "https://ss3.4sqi.net/img/categories_v2/food/cafe_", "suffix": ".png"}, "primary": true}], "photos": {"count": 0, "groups": []}}, "referralId": "e-0-57d586f4498e04744340dec1-37"}, {"reasons": {"count": 0, "items": [{"summary": "This spot is popular", "type": "general", "reasonName": "globalInteractionReason"}]}, "venue": {"id": "59d8eb62a8eb606df9d2e5e7", "name": "Mahlo Brunch Bar", "location": {"address": "32 Mahlower Strasse", "lat": 52.48002419121935, "lng": 13.424925568583536, "labeledLatLngs": [{"label": "display", "lat": 52.48002419121935, "lng": 13.424925568583536}], "distance": 594, "postalCode": "12049", "cc": "DE", "neighborhood": "Schillerkiez", "city": "Berlin", "state": "Berlin", "country": "Deutschland", "formattedAddress": ["32 Mahlower Strasse", "12049 Berlin", "Deutschland"]}, "categories": [{"id": "4bf58dd8d48988d16d941735", "name": "Caf\u00e9", "pluralName": "Caf\u00e9s", "shortName": "Caf\u00e9", "icon": {"prefix": "https://ss3.4sqi.net/img/categories_v2/food/cafe_", "suffix": ".png"}, "primary": true}], "photos": {"count": 0, "groups": []}}, "referralId": "e-0-59d8eb62a8eb606df9d2e5e7-38"}, {"reasons": {"count": 0, "items": [{"summary": "This spot is popular", "type": "general", "reasonName": "globalInteractionReason"}]}, "venue": {"id": "4fb6591ee4b00ae0529a30c9", "name": "Villa Neuk\u00f6lln", "location": {"address": "Hermannstr. 233", "crossStreet": "Biebricher Str.", "lat": 52.48199934233137, "lng": 13.424973324739572, "labeledLatLngs": [{"label": "display", "lat": 52.48199934233137, "lng": 13.424973324739572}], "distance": 785, "postalCode": "12049", "cc": "DE", "city": "Berlin", "state": "Berlin", "country": "Deutschland", "formattedAddress": ["Hermannstr. 233 (Biebricher Str.)", "12049 Berlin", "Deutschland"]}, "categories": [{"id": "4bf58dd8d48988d121941735", "name": "Lounge", "pluralName": "Lounges", "shortName": "Lounge", "icon": {"prefix": "https://ss3.4sqi.net/img/categories_v2/nightlife/default_", "suffix": ".png"}, "primary": true}], "photos": {"count": 0, "groups": []}}, "referralId": "e-0-4fb6591ee4b00ae0529a30c9-39"}, {"reasons": {"count": 0, "items": [{"summary": "This spot is popular", "type": "general", "reasonName": "globalInteractionReason"}]}, "venue": {"id": "5ab3f6d8c5b11c7c78cc8a07", "name": "Club Del Burro", "location": {"lat": 52.477374, "lng": 13.424737, "labeledLatLngs": [{"label": "display", "lat": 52.477374, "lng": 13.424737}], "distance": 381, "cc": "DE", "city": "Berlin", "state": "Berlin", "country": "Deutschland", "formattedAddress": ["Berlin", "Deutschland"]}, "categories": [{"id": "4bf58dd8d48988d153941735", "name": "Burrito Place", "pluralName": "Burrito Places", "shortName": "Burritos", "icon": {"prefix": "https://ss3.4sqi.net/img/categories_v2/food/burrito_", "suffix": ".png"}, "primary": true}], "photos": {"count": 0, "groups": []}}, "referralId": "e-0-5ab3f6d8c5b11c7c78cc8a07-40"}, {"reasons": {"count": 0, "items": [{"summary": "This spot is popular", "type": "general", "reasonName": "globalInteractionReason"}]}, "venue": {"id": "4e56cc7945dd1627330f8a7a", "name": "Bruchberg", "location": {"address": "Okerstr. 5", "lat": 52.47418707398556, "lng": 13.426207851883365, "labeledLatLngs": [{"label": "display", "lat": 52.47418707398556, "lng": 13.426207851883365}], "distance": 461, "postalCode": "12049", "cc": "DE", "city": "Berlin", "state": "Berlin", "country": "Deutschland", "formattedAddress": ["Okerstr. 5", "12049 Berlin", "Deutschland"]}, "categories": [{"id": "4bf58dd8d48988d116941735", "name": "Bar", "pluralName": "Bars", "shortName": "Bar", "icon": {"prefix": "https://ss3.4sqi.net/img/categories_v2/nightlife/pub_", "suffix": ".png"}, "primary": true}], "photos": {"count": 0, "groups": []}}, "referralId": "e-0-4e56cc7945dd1627330f8a7a-41"}, {"reasons": {"count": 0, "items": [{"summary": "This spot is popular", "type": "general", "reasonName": "globalInteractionReason"}]}, "venue": {"id": "55487368498e35b2d860c261", "name": "No58 Speiserei", "location": {"address": "Weisestra\u00dfe 58", "lat": 52.47850456787173, "lng": 13.423572199485399, "labeledLatLngs": [{"label": "display", "lat": 52.47850456787173, "lng": 13.423572199485399}], "distance": 404, "postalCode": "12049", "cc": "DE", "city": "Berlin", "state": "Berlin", "country": "Deutschland", "formattedAddress": ["Weisestra\u00dfe 58", "12049 Berlin", "Deutschland"]}, "categories": [{"id": "4bf58dd8d48988d16d941735", "name": "Caf\u00e9", "pluralName": "Caf\u00e9s", "shortName": "Caf\u00e9", "icon": {"prefix": "https://ss3.4sqi.net/img/categories_v2/food/cafe_", "suffix": ".png"}, "primary": true}], "photos": {"count": 0, "groups": []}}, "referralId": "e-0-55487368498e35b2d860c261-42"}, {"reasons": {"count": 0, "items": [{"summary": "This spot is popular", "type": "general", "reasonName": "globalInteractionReason"}]}, "venue": {"id": "5464ef81498e2e01c6011aef", "name": "Karabach Restaurant", "location": {"address": "Hermannstr. 196", "lat": 52.474809751872, "lng": 13.427592223272118, "labeledLatLngs": [{"label": "display", "lat": 52.474809751872, "lng": 13.427592223272118}], "distance": 533, "cc": "DE", "city": "Berlin", "state": "Berlin", "country": "Deutschland", "formattedAddress": ["Hermannstr. 196", "Berlin", "Deutschland"]}, "categories": [{"id": "5293a7d53cf9994f4e043a45", "name": "Caucasian Restaurant", "pluralName": "Caucasian Restaurants", "shortName": "Caucasian", "icon": {"prefix": "https://ss3.4sqi.net/img/categories_v2/food/caucasian_", "suffix": ".png"}, "primary": true}], "photos": {"count": 0, "groups": []}}, "referralId": "e-0-5464ef81498e2e01c6011aef-43"}, {"reasons": {"count": 0, "items": [{"summary": "This spot is popular", "type": "general", "reasonName": "globalInteractionReason"}]}, "venue": {"id": "4e368a9118a82fdd65817a19", "name": "Bierbaum 3", "location": {"address": "Schillerpromenade 31", "crossStreet": "Kienitzer Str.", "lat": 52.47559579514566, "lng": 13.422768981208419, "labeledLatLngs": [{"label": "display", "lat": 52.47559579514566, "lng": 13.422768981208419}], "distance": 198, "postalCode": "12049", "cc": "DE", "city": "Berlin", "state": "Berlin", "country": "Deutschland", "formattedAddress": ["Schillerpromenade 31 (Kienitzer Str.)", "12049 Berlin", "Deutschland"]}, "categories": [{"id": "4bf58dd8d48988d11b941735", "name": "Pub", "pluralName": "Pubs", "shortName": "Pub", "icon": {"prefix": "https://ss3.4sqi.net/img/categories_v2/nightlife/pub_", "suffix": ".png"}, "primary": true}], "photos": {"count": 0, "groups": []}}, "referralId": "e-0-4e368a9118a82fdd65817a19-44"}, {"reasons": {"count": 0, "items": [{"summary": "This spot is popular", "type": "general", "reasonName": "globalInteractionReason"}]}, "venue": {"id": "4eed19fc02d514a369a6fed6", "name": "Willi Moeller Holzkohle Bar", "location": {"address": "Leinestr. 54", "lat": 52.473312382927574, "lng": 13.42681498420134, "labeledLatLngs": [{"label": "display", "lat": 52.473312382927574, "lng": 13.42681498420134}], "distance": 540, "postalCode": "12049", "cc": "DE", "city": "Berlin", "state": "Berlin", "country": "Deutschland", "formattedAddress": ["Leinestr. 54", "12049 Berlin", "Deutschland"]}, "categories": [{"id": "4bf58dd8d48988d116941735", "name": "Bar", "pluralName": "Bars", "shortName": "Bar", "icon": {"prefix": "https://ss3.4sqi.net/img/categories_v2/nightlife/pub_", "suffix": ".png"}, "primary": true}], "photos": {"count": 0, "groups": []}}, "referralId": "e-0-4eed19fc02d514a369a6fed6-45"}, {"reasons": {"count": 0, "items": [{"summary": "This spot is popular", "type": "general", "reasonName": "globalInteractionReason"}]}, "venue": {"id": "541482fa498ec442f78eaa7f", "name": "KINDL Zentrum f\u00fcr zeitgen\u00f6ssische Kunst", "location": {"address": "Am Sudhaus 2", "lat": 52.479361, "lng": 13.430944, "labeledLatLngs": [{"label": "display", "lat": 52.479361, "lng": 13.430944}], "distance": 857, "postalCode": "12053", "cc": "DE", "city": "Berlin", "state": "Berlin", "country": "Deutschland", "formattedAddress": ["Am Sudhaus 2", "12053 Berlin", "Deutschland"]}, "categories": [{"id": "4bf58dd8d48988d1e2931735", "name": "Art Gallery", "pluralName": "Art Galleries", "shortName": "Art Gallery", "icon": {"prefix": "https://ss3.4sqi.net/img/categories_v2/arts_entertainment/artgallery_", "suffix": ".png"}, "primary": true}], "photos": {"count": 0, "groups": []}}, "referralId": "e-0-541482fa498ec442f78eaa7f-46"}, {"reasons": {"count": 0, "items": [{"summary": "This spot is popular", "type": "general", "reasonName": "globalInteractionReason"}]}, "venue": {"id": "4f3ed697e4b0a9c4c8447491", "name": "Laidak", "location": {"address": "Boddinstr. 42-43", "lat": 52.480035853940564, "lng": 13.428568627950837, "labeledLatLngs": [{"label": "display", "lat": 52.480035853940564, "lng": 13.428568627950837}], "distance": 765, "postalCode": "12053", "cc": "DE", "city": "Berlin", "state": "Berlin", "country": "Deutschland", "formattedAddress": ["Boddinstr. 42-43", "12053 Berlin", "Deutschland"]}, "categories": [{"id": "4bf58dd8d48988d116941735", "name": "Bar", "pluralName": "Bars", "shortName": "Bar", "icon": {"prefix": "https://ss3.4sqi.net/img/categories_v2/nightlife/pub_", "suffix": ".png"}, "primary": true}], "photos": {"count": 0, "groups": []}}, "referralId": "e-0-4f3ed697e4b0a9c4c8447491-47"}, {"reasons": {"count": 0, "items": [{"summary": "This spot is popular", "type": "general", "reasonName": "globalInteractionReason"}]}, "venue": {"id": "4b445744f964a520fff325e3", "name": "Neues Off", "location": {"address": "Hermannstr. 20", "lat": 52.483398611045594, "lng": 13.424713921964203, "labeledLatLngs": [{"label": "display", "lat": 52.483398611045594, "lng": 13.424713921964203}], "distance": 921, "postalCode": "12049", "cc": "DE", "city": "Berlin", "state": "Berlin", "country": "Deutschland", "formattedAddress": ["Hermannstr. 20", "12049 Berlin", "Deutschland"]}, "categories": [{"id": "4bf58dd8d48988d17e941735", "name": "Indie Movie Theater", "pluralName": "Indie Movie Theaters", "shortName": "Indie Movies", "icon": {"prefix": "https://ss3.4sqi.net/img/categories_v2/arts_entertainment/movietheater_", "suffix": ".png"}, "primary": true}], "photos": {"count": 0, "groups": []}}, "referralId": "e-0-4b445744f964a520fff325e3-48"}, {"reasons": {"count": 0, "items": [{"summary": "This spot is popular", "type": "general", "reasonName": "globalInteractionReason"}]}, "venue": {"id": "50ce405fe4b0aceb60754dbc", "name": "Merakli K\u00f6fteci", "location": {"address": "Hermannstr 174", "lat": 52.471037770421816, "lng": 13.429444253096332, "labeledLatLngs": [{"label": "display", "lat": 52.471037770421816, "lng": 13.429444253096332}], "distance": 830, "postalCode": "12051", "cc": "DE", "city": "Berlin", "state": "Berlin", "country": "Deutschland", "formattedAddress": ["Hermannstr 174", "12051 Berlin", "Deutschland"]}, "categories": [{"id": "4f04af1f2fb6e1c99f3db0bb", "name": "Turkish Restaurant", "pluralName": "Turkish Restaurants", "shortName": "Turkish", "icon": {"prefix": "https://ss3.4sqi.net/img/categories_v2/food/turkish_", "suffix": ".png"}, "primary": true}], "photos": {"count": 0, "groups": []}}, "referralId": "e-0-50ce405fe4b0aceb60754dbc-49"}, {"reasons": {"count": 0, "items": [{"summary": "This spot is popular", "type": "general", "reasonName": "globalInteractionReason"}]}, "venue": {"id": "51e1ae68498e2d932f3b1fe8", "name": "Trude, Ruth und Goldammer", "location": {"address": "Flughafenstr. 38", "lat": 52.48124713692099, "lng": 13.427714972161672, "labeledLatLngs": [{"label": "display", "lat": 52.48124713692099, "lng": 13.427714972161672}], "distance": 818, "postalCode": "12053", "cc": "DE", "city": "Berlin", "state": "Berlin", "country": "Deutschland", "formattedAddress": ["Flughafenstr. 38", "12053 Berlin", "Deutschland"]}, "categories": [{"id": "4bf58dd8d48988d116941735", "name": "Bar", "pluralName": "Bars", "shortName": "Bar", "icon": {"prefix": "https://ss3.4sqi.net/img/categories_v2/nightlife/pub_", "suffix": ".png"}, "primary": true}], "photos": {"count": 0, "groups": []}}, "referralId": "e-0-51e1ae68498e2d932f3b1fe8-50"}, {"reasons": {"count": 0, "items": [{"summary": "This spot is popular", "type": "general", "reasonName": "globalInteractionReason"}]}, "venue": {"id": "5755c924498e7c81f84e757e", "name": "Deriva", "location": {"address": "Mainzer Stra\u00dfe 23", "lat": 52.48080956382029, "lng": 13.427834764008608, "labeledLatLngs": [{"label": "display", "lat": 52.48080956382029, "lng": 13.427834764008608}], "distance": 787, "postalCode": "12053", "cc": "DE", "city": "Berlin", "state": "Berlin", "country": "Deutschland", "formattedAddress": ["Mainzer Stra\u00dfe 23", "12053 Berlin", "Deutschland"]}, "categories": [{"id": "4bf58dd8d48988d116941735", "name": "Bar", "pluralName": "Bars", "shortName": "Bar", "icon": {"prefix": "https://ss3.4sqi.net/img/categories_v2/nightlife/pub_", "suffix": ".png"}, "primary": true}], "photos": {"count": 0, "groups": []}}, "referralId": "e-0-5755c924498e7c81f84e757e-51"}, {"reasons": {"count": 0, "items": [{"summary": "This spot is popular", "type": "general", "reasonName": "globalInteractionReason"}]}, "venue": {"id": "4ba33af5f964a520e03038e3", "name": "Hasensch\u00e4nke", "location": {"address": "Hasenheide", "lat": 52.482683849721674, "lng": 13.416296122519077, "labeledLatLngs": [{"label": "display", "lat": 52.482683849721674, "lng": 13.416296122519077}], "distance": 817, "postalCode": "10965", "cc": "DE", "city": "Berlin", "state": "Berlin", "country": "Deutschland", "formattedAddress": ["Hasenheide", "10965 Berlin", "Deutschland"]}, "categories": [{"id": "4bf58dd8d48988d117941735", "name": "Beer Garden", "pluralName": "Beer Gardens", "shortName": "Beer Garden", "icon": {"prefix": "https://ss3.4sqi.net/img/categories_v2/nightlife/beergarden_", "suffix": ".png"}, "primary": true}], "photos": {"count": 0, "groups": []}}, "referralId": "e-0-4ba33af5f964a520e03038e3-52"}, {"reasons": {"count": 0, "items": [{"summary": "This spot is popular", "type": "general", "reasonName": "globalInteractionReason"}]}, "venue": {"id": "563e6f5acd103aeb127752dc", "name": "Tante Frizzante", "location": {"address": "Hermannstr. 95", "lat": 52.4700757384999, "lng": 13.429869380970676, "labeledLatLngs": [{"label": "display", "lat": 52.4700757384999, "lng": 13.429869380970676}], "distance": 921, "postalCode": "12051", "cc": "DE", "city": "Berlin", "state": "Berlin", "country": "Deutschland", "formattedAddress": ["Hermannstr. 95", "12051 Berlin", "Deutschland"]}, "categories": [{"id": "4bf58dd8d48988d1c9941735", "name": "Ice Cream Shop", "pluralName": "Ice Cream Shops", "shortName": "Ice Cream", "icon": {"prefix": "https://ss3.4sqi.net/img/categories_v2/food/icecream_", "suffix": ".png"}, "primary": true}], "photos": {"count": 0, "groups": []}}, "referralId": "e-0-563e6f5acd103aeb127752dc-53"}, {"reasons": {"count": 0, "items": [{"summary": "This spot is popular", "type": "general", "reasonName": "globalInteractionReason"}]}, "venue": {"id": "506c669ee4b0d23ed165bb62", "name": "Libanon Falafel", "location": {"address": "Flughafenstr. 66", "crossStreet": "Hermannstr.", "lat": 52.48063435937833, "lng": 13.424758774740981, "labeledLatLngs": [{"label": "display", "lat": 52.48063435937833, "lng": 13.424758774740981}], "distance": 645, "postalCode": "12049", "cc": "DE", "neighborhood": "Schillerkiez", "city": "Berlin", "state": "Berlin", "country": "Deutschland", "formattedAddress": ["Flughafenstr. 66 (Hermannstr.)", "12049 Berlin", "Deutschland"]}, "categories": [{"id": "4bf58dd8d48988d115941735", "name": "Middle Eastern Restaurant", "pluralName": "Middle Eastern Restaurants", "shortName": "Middle Eastern", "icon": {"prefix": "https://ss3.4sqi.net/img/categories_v2/food/middleeastern_", "suffix": ".png"}, "primary": true}], "photos": {"count": 0, "groups": []}}, "referralId": "e-0-506c669ee4b0d23ed165bb62-54"}, {"reasons": {"count": 0, "items": [{"summary": "This spot is popular", "type": "general", "reasonName": "globalInteractionReason"}]}, "venue": {"id": "4db576304df05e5aaaf27d0f", "name": "Boddinplatz", "location": {"address": "Boddinstra\u00dfe", "lat": 52.48063966348003, "lng": 13.428910762787895, "labeledLatLngs": [{"label": "display", "lat": 52.48063966348003, "lng": 13.428910762787895}], "distance": 826, "postalCode": "12053", "cc": "DE", "city": "Berlin", "state": "Berlin", "country": "Deutschland", "formattedAddress": ["Boddinstra\u00dfe", "12053 Berlin", "Deutschland"]}, "categories": [{"id": "4bf58dd8d48988d164941735", "name": "Plaza", "pluralName": "Plazas", "shortName": "Plaza", "icon": {"prefix": "https://ss3.4sqi.net/img/categories_v2/parks_outdoors/plaza_", "suffix": ".png"}, "primary": true}], "photos": {"count": 0, "groups": []}}, "referralId": "e-0-4db576304df05e5aaaf27d0f-55"}, {"reasons": {"count": 0, "items": [{"summary": "This spot is popular", "type": "general", "reasonName": "globalInteractionReason"}]}, "venue": {"id": "56afdc27498ef991e976d4b6", "name": "Tennis", "location": {"address": "Reuterstra\u00dfe 95", "crossStreet": "Flughafenstra\u00dfe", "lat": 52.48092722634575, "lng": 13.429441063967715, "labeledLatLngs": [{"label": "display", "lat": 52.48092722634575, "lng": 13.429441063967715}], "distance": 874, "postalCode": "12053", "cc": "DE", "city": "Berlin", "state": "Berlin", "country": "Deutschland", "formattedAddress": ["Reuterstra\u00dfe 95 (Flughafenstra\u00dfe)", "12053 Berlin", "Deutschland"]}, "categories": [{"id": "4bf58dd8d48988d16d941735", "name": "Caf\u00e9", "pluralName": "Caf\u00e9s", "shortName": "Caf\u00e9", "icon": {"prefix": "https://ss3.4sqi.net/img/categories_v2/food/cafe_", "suffix": ".png"}, "primary": true}], "photos": {"count": 0, "groups": []}}, "referralId": "e-0-56afdc27498ef991e976d4b6-56"}, {"reasons": {"count": 0, "items": [{"summary": "This spot is popular", "type": "general", "reasonName": "globalInteractionReason"}]}, "venue": {"id": "4adcda89f964a5209e4921e3", "name": "Werkstatt der Kulturen", "location": {"address": "Wissmannstr. 32", "lat": 52.48369753102815, "lng": 13.422969307036398, "labeledLatLngs": [{"label": "display", "lat": 52.48369753102815, "lng": 13.422969307036398}], "distance": 918, "postalCode": "12049", "cc": "DE", "city": "Berlin", "state": "Berlin", "country": "Deutschland", "formattedAddress": ["Wissmannstr. 32", "12049 Berlin", "Deutschland"]}, "categories": [{"id": "52e81612bcbc57f1066b7a32", "name": "Cultural Center", "pluralName": "Cultural Centers", "shortName": "Cultural Center", "icon": {"prefix": "https://ss3.4sqi.net/img/categories_v2/building/default_", "suffix": ".png"}, "primary": true}], "photos": {"count": 0, "groups": []}}, "referralId": "e-0-4adcda89f964a5209e4921e3-57"}, {"reasons": {"count": 0, "items": [{"summary": "This spot is popular", "type": "general", "reasonName": "globalInteractionReason"}]}, "venue": {"id": "5b3b72c5de3bbf0039db8887", "name": "La Malo", "location": {"address": "Flughafenstr. 25", "crossStreet": "Isarstrasse", "lat": 52.48151, "lng": 13.430677, "labeledLatLngs": [{"label": "display", "lat": 52.48151, "lng": 13.430677}], "distance": 980, "postalCode": "12053", "cc": "DE", "city": "Berlin", "state": "Berlin", "country": "Deutschland", "formattedAddress": ["Flughafenstr. 25 (Isarstrasse)", "12053 Berlin", "Deutschland"]}, "categories": [{"id": "4bf58dd8d48988d1c4941735", "name": "Restaurant", "pluralName": "Restaurants", "shortName": "Restaurant", "icon": {"prefix": "https://ss3.4sqi.net/img/categories_v2/food/default_", "suffix": ".png"}, "primary": true}], "photos": {"count": 0, "groups": []}}, "referralId": "e-0-5b3b72c5de3bbf0039db8887-58"}, {"reasons": {"count": 0, "items": [{"summary": "This spot is popular", "type": "general", "reasonName": "globalInteractionReason"}]}, "venue": {"id": "506f2a6ae4b0f7e685d6792f", "name": "Sala da Mangiare", "location": {"address": "Mainzerstra\u00dfe 23", "lat": 52.4807139677951, "lng": 13.427942863423569, "labeledLatLngs": [{"label": "display", "lat": 52.4807139677951, "lng": 13.427942863423569}], "distance": 785, "postalCode": "12053", "cc": "DE", "city": "Berlin", "state": "Berlin", "country": "Deutschland", "formattedAddress": ["Mainzerstra\u00dfe 23", "12053 Berlin", "Deutschland"]}, "categories": [{"id": "4bf58dd8d48988d110941735", "name": "Italian Restaurant", "pluralName": "Italian Restaurants", "shortName": "Italian", "icon": {"prefix": "https://ss3.4sqi.net/img/categories_v2/food/italian_", "suffix": ".png"}, "primary": true}], "photos": {"count": 0, "groups": []}}, "referralId": "e-0-506f2a6ae4b0f7e685d6792f-59"}, {"reasons": {"count": 0, "items": [{"summary": "This spot is popular", "type": "general", "reasonName": "globalInteractionReason"}]}, "venue": {"id": "4ea1c4f3b80355a981747dc8", "name": "From Hanoi With Love", "location": {"address": "Hermannstr. 176", "lat": 52.47136913441411, "lng": 13.429269521956977, "labeledLatLngs": [{"label": "display", "lat": 52.47136913441411, "lng": 13.429269521956977}], "distance": 798, "postalCode": "12051", "cc": "DE", "city": "Berlin", "state": "Berlin", "country": "Deutschland", "formattedAddress": ["Hermannstr. 176", "12051 Berlin", "Deutschland"]}, "categories": [{"id": "4bf58dd8d48988d14a941735", "name": "Vietnamese Restaurant", "pluralName": "Vietnamese Restaurants", "shortName": "Vietnamese", "icon": {"prefix": "https://ss3.4sqi.net/img/categories_v2/food/vietnamese_", "suffix": ".png"}, "primary": true}], "photos": {"count": 0, "groups": []}}, "referralId": "e-0-4ea1c4f3b80355a981747dc8-60"}, {"reasons": {"count": 0, "items": [{"summary": "This spot is popular", "type": "general", "reasonName": "globalInteractionReason"}]}, "venue": {"id": "4c2e3ed6e307d13a3e3a0fda", "name": "Freiluftkino Hasenheide", "location": {"address": "Am Naturtheater", "lat": 52.483665238754114, "lng": 13.416401534891962, "labeledLatLngs": [{"label": "display", "lat": 52.483665238754114, "lng": 13.416401534891962}], "distance": 920, "postalCode": "10967", "cc": "DE", "city": "Berlin", "state": "Berlin", "country": "Deutschland", "formattedAddress": ["Am Naturtheater", "10967 Berlin", "Deutschland"]}, "categories": [{"id": "4bf58dd8d48988d17e941735", "name": "Indie Movie Theater", "pluralName": "Indie Movie Theaters", "shortName": "Indie Movies", "icon": {"prefix": "https://ss3.4sqi.net/img/categories_v2/arts_entertainment/movietheater_", "suffix": ".png"}, "primary": true}], "photos": {"count": 0, "groups": []}}, "referralId": "e-0-4c2e3ed6e307d13a3e3a0fda-61"}, {"reasons": {"count": 0, "items": [{"summary": "This spot is popular", "type": "general", "reasonName": "globalInteractionReason"}]}, "venue": {"id": "5b42058a2b274a002cf417f1", "name": "Wilke", "location": {"address": "Boddinstr. 10", "crossStreet": "Isarstr.", "lat": 52.48067953612267, "lng": 13.431440591812134, "labeledLatLngs": [{"label": "display", "lat": 52.48067953612267, "lng": 13.431440591812134}], "distance": 963, "postalCode": "12053", "cc": "DE", "city": "Berlin", "state": "Berlin", "country": "Deutschland", "formattedAddress": ["Boddinstr. 10 (Isarstr.)", "12053 Berlin", "Deutschland"]}, "categories": [{"id": "4bf58dd8d48988d143941735", "name": "Breakfast Spot", "pluralName": "Breakfast Spots", "shortName": "Breakfast", "icon": {"prefix": "https://ss3.4sqi.net/img/categories_v2/food/breakfast_", "suffix": ".png"}, "primary": true}], "photos": {"count": 0, "groups": []}}, "referralId": "e-0-5b42058a2b274a002cf417f1-62"}, {"reasons": {"count": 0, "items": [{"summary": "This spot is popular", "type": "general", "reasonName": "globalInteractionReason"}]}, "venue": {"id": "55bd1706498e34359287d4e2", "name": "Berliner Berg", "location": {"address": "Kopfstr. 59", "lat": 52.47623888133578, "lng": 13.432739134010728, "labeledLatLngs": [{"label": "display", "lat": 52.47623888133578, "lng": 13.432739134010728}], "distance": 876, "postalCode": "12053", "cc": "DE", "neighborhood": "Neuk\u00f6lln", "city": "Berlin", "state": "Berlin", "country": "Deutschland", "formattedAddress": ["Kopfstr. 59", "12053 Berlin", "Deutschland"]}, "categories": [{"id": "56aa371ce4b08b9a8d57356c", "name": "Beer Bar", "pluralName": "Beer Bars", "shortName": "Beer Bar", "icon": {"prefix": "https://ss3.4sqi.net/img/categories_v2/nightlife/pub_", "suffix": ".png"}, "primary": true}], "photos": {"count": 0, "groups": []}}, "referralId": "e-0-55bd1706498e34359287d4e2-63"}, {"reasons": {"count": 0, "items": [{"summary": "This spot is popular", "type": "general", "reasonName": "globalInteractionReason"}]}, "venue": {"id": "53484a7111d2a904ff37ee82", "name": "Twinpigs", "location": {"address": "Boddinstr. 57a", "crossStreet": "Isarstr.", "lat": 52.4805332030826, "lng": 13.43186175232404, "labeledLatLngs": [{"label": "display", "lat": 52.4805332030826, "lng": 13.43186175232404}], "distance": 978, "postalCode": "12057", "cc": "DE", "neighborhood": "Neuk\u00f6lln, Berlin", "city": "Berlin", "state": "Berlin", "country": "Deutschland", "formattedAddress": ["Boddinstr. 57a (Isarstr.)", "12057 Berlin", "Deutschland"]}, "categories": [{"id": "4bf58dd8d48988d11e941735", "name": "Cocktail Bar", "pluralName": "Cocktail Bars", "shortName": "Cocktail", "icon": {"prefix": "https://ss3.4sqi.net/img/categories_v2/nightlife/cocktails_", "suffix": ".png"}, "primary": true}], "photos": {"count": 0, "groups": []}, "venuePage": {"id": "126342569"}}, "referralId": "e-0-53484a7111d2a904ff37ee82-64"}, {"reasons": {"count": 0, "items": [{"summary": "This spot is popular", "type": "general", "reasonName": "globalInteractionReason"}]}, "venue": {"id": "4e6bafb1c65b5bef28ec8421", "name": "Caglayan Grillhaus", "location": {"address": "Hermannstr. 175", "lat": 52.47126974548254, "lng": 13.4293419664755, "labeledLatLngs": [{"label": "display", "lat": 52.47126974548254, "lng": 13.4293419664755}], "distance": 808, "postalCode": "12051", "cc": "DE", "neighborhood": "K\u00f6rnerkiez", "city": "Berlin", "state": "Berlin", "country": "Deutschland", "formattedAddress": ["Hermannstr. 175", "12051 Berlin", "Deutschland"]}, "categories": [{"id": "4bf58dd8d48988d115941735", "name": "Middle Eastern Restaurant", "pluralName": "Middle Eastern Restaurants", "shortName": "Middle Eastern", "icon": {"prefix": "https://ss3.4sqi.net/img/categories_v2/food/middleeastern_", "suffix": ".png"}, "primary": true}], "photos": {"count": 0, "groups": []}}, "referralId": "e-0-4e6bafb1c65b5bef28ec8421-65"}, {"reasons": {"count": 0, "items": [{"summary": "This spot is popular", "type": "general", "reasonName": "globalInteractionReason"}]}, "venue": {"id": "4adcda79f964a5207b4621e3", "name": "SchwuZ", "location": {"address": "Rollbergstr. 26", "lat": 52.47944881, "lng": 13.43312668, "labeledLatLngs": [{"label": "display", "lat": 52.47944881, "lng": 13.43312668}], "distance": 993, "postalCode": "12053", "cc": "DE", "neighborhood": "Karl-Marx-Stra\u00dfe", "city": "Berlin", "state": "Berlin", "country": "Deutschland", "formattedAddress": ["Rollbergstr. 26", "12053 Berlin", "Deutschland"]}, "categories": [{"id": "4bf58dd8d48988d11f941735", "name": "Nightclub", "pluralName": "Nightclubs", "shortName": "Nightclub", "icon": {"prefix": "https://ss3.4sqi.net/img/categories_v2/nightlife/nightclub_", "suffix": ".png"}, "primary": true}], "photos": {"count": 0, "groups": []}, "venuePage": {"id": "67751609"}}, "referralId": "e-0-4adcda79f964a5207b4621e3-66"}, {"reasons": {"count": 0, "items": [{"summary": "This spot is popular", "type": "general", "reasonName": "globalInteractionReason"}]}, "venue": {"id": "4d7e7380e7e1721e74b9e00b", "name": "Taverna Olympia", "location": {"address": "Emserstr. 73", "crossStreet": "Oderstr.", "lat": 52.46723846670719, "lng": 13.42119939378763, "labeledLatLngs": [{"label": "display", "lat": 52.46723846670719, "lng": 13.42119939378763}], "distance": 943, "postalCode": "12051", "cc": "DE", "city": "Berlin", "state": "Berlin", "country": "Deutschland", "formattedAddress": ["Emserstr. 73 (Oderstr.)", "12051 Berlin", "Deutschland"]}, "categories": [{"id": "53d6c1b0e4b02351e88a83d2", "name": "Taverna", "pluralName": "Tavernas", "shortName": "Tavernas", "icon": {"prefix": "https://ss3.4sqi.net/img/categories_v2/food/greek_", "suffix": ".png"}, "primary": true}], "photos": {"count": 0, "groups": []}}, "referralId": "e-0-4d7e7380e7e1721e74b9e00b-67"}, {"reasons": {"count": 0, "items": [{"summary": "This spot is popular", "type": "general", "reasonName": "globalInteractionReason"}]}, "venue": {"id": "4cb9d00143ec6dcbbfc09f31", "name": "Rollberger Brauerei", "location": {"address": "Am Sudhaus 3", "lat": 52.47928349262418, "lng": 13.43150028787002, "labeledLatLngs": [{"label": "display", "lat": 52.47928349262418, "lng": 13.43150028787002}], "distance": 886, "postalCode": "12053", "cc": "DE", "city": "Berlin", "state": "Berlin", "country": "Deutschland", "formattedAddress": ["Am Sudhaus 3", "12053 Berlin", "Deutschland"]}, "categories": [{"id": "50327c8591d4c4b30a586d5d", "name": "Brewery", "pluralName": "Breweries", "shortName": "Brewery", "icon": {"prefix": "https://ss3.4sqi.net/img/categories_v2/food/brewery_", "suffix": ".png"}, "primary": true}], "photos": {"count": 0, "groups": []}}, "referralId": "e-0-4cb9d00143ec6dcbbfc09f31-68"}, {"reasons": {"count": 0, "items": [{"summary": "This spot is popular", "type": "general", "reasonName": "globalInteractionReason"}]}, "venue": {"id": "553bb0b4498e935d065e6f69", "name": "Lauter Eis", "location": {"address": "Warthestr. 4", "lat": 52.470147992615466, "lng": 13.428828166771641, "labeledLatLngs": [{"label": "display", "lat": 52.470147992615466, "lng": 13.428828166771641}], "distance": 865, "cc": "DE", "city": "Berlin", "state": "Berlin", "country": "Deutschland", "formattedAddress": ["Warthestr. 4", "Berlin", "Deutschland"]}, "categories": [{"id": "4bf58dd8d48988d1c9941735", "name": "Ice Cream Shop", "pluralName": "Ice Cream Shops", "shortName": "Ice Cream", "icon": {"prefix": "https://ss3.4sqi.net/img/categories_v2/food/icecream_", "suffix": ".png"}, "primary": true}], "photos": {"count": 0, "groups": []}}, "referralId": "e-0-553bb0b4498e935d065e6f69-69"}, {"reasons": {"count": 0, "items": [{"summary": "This spot is popular", "type": "general", "reasonName": "globalInteractionReason"}]}, "venue": {"id": "51474e67e4b02de9576b8ec6", "name": "STAR Gem\u00fcse-Schawarma & Falafel", "location": {"lat": 52.4703494828974, "lng": 13.429663296488343, "labeledLatLngs": [{"label": "display", "lat": 52.4703494828974, "lng": 13.429663296488343}], "distance": 890, "cc": "DE", "city": "Berlin", "state": "Berlin", "country": "Deutschland", "formattedAddress": ["Berlin", "Deutschland"]}, "categories": [{"id": "4bf58dd8d48988d10b941735", "name": "Falafel Restaurant", "pluralName": "Falafel Restaurants", "shortName": "Falafel", "icon": {"prefix": "https://ss3.4sqi.net/img/categories_v2/food/falafel_", "suffix": ".png"}, "primary": true}], "photos": {"count": 0, "groups": []}}, "referralId": "e-0-51474e67e4b02de9576b8ec6-70"}, {"reasons": {"count": 0, "items": [{"summary": "This spot is popular", "type": "general", "reasonName": "globalInteractionReason"}]}, "venue": {"id": "51c9d8d2498e02a896db1de6", "name": "Falafel2go", "location": {"address": "Hermannstr. 89", "lat": 52.471698556699714, "lng": 13.428972377632144, "labeledLatLngs": [{"label": "display", "lat": 52.471698556699714, "lng": 13.428972377632144}], "distance": 760, "postalCode": "12051", "cc": "DE", "city": "Berlin", "state": "Berlin", "country": "Deutschland", "formattedAddress": ["Hermannstr. 89", "12051 Berlin", "Deutschland"]}, "categories": [{"id": "4bf58dd8d48988d10b941735", "name": "Falafel Restaurant", "pluralName": "Falafel Restaurants", "shortName": "Falafel", "icon": {"prefix": "https://ss3.4sqi.net/img/categories_v2/food/falafel_", "suffix": ".png"}, "primary": true}], "photos": {"count": 0, "groups": []}}, "referralId": "e-0-51c9d8d2498e02a896db1de6-71"}, {"reasons": {"count": 0, "items": [{"summary": "This spot is popular", "type": "general", "reasonName": "globalInteractionReason"}]}, "venue": {"id": "5205fe8111d2ad7f336a03e7", "name": "Caf\u00e9 Kanel", "location": {"address": "Schillerpromenade 25", "lat": 52.473605853002816, "lng": 13.423257604739817, "labeledLatLngs": [{"label": "display", "lat": 52.473605853002816, "lng": 13.423257604739817}], "distance": 325, "postalCode": "12049", "cc": "DE", "city": "Berlin", "state": "Berlin", "country": "Deutschland", "formattedAddress": ["Schillerpromenade 25", "12049 Berlin", "Deutschland"]}, "categories": [{"id": "4bf58dd8d48988d16d941735", "name": "Caf\u00e9", "pluralName": "Caf\u00e9s", "shortName": "Caf\u00e9", "icon": {"prefix": "https://ss3.4sqi.net/img/categories_v2/food/cafe_", "suffix": ".png"}, "primary": true}], "photos": {"count": 0, "groups": []}}, "referralId": "e-0-5205fe8111d2ad7f336a03e7-72"}, {"reasons": {"count": 0, "items": [{"summary": "This spot is popular", "type": "general", "reasonName": "globalInteractionReason"}]}, "venue": {"id": "4b5d9923f964a520f26229e3", "name": "Sandmann", "location": {"address": "Reuterstr. 7", "crossStreet": "Reuterstr. 7", "lat": 52.48210901195361, "lng": 13.429190905488154, "labeledLatLngs": [{"label": "display", "lat": 52.48210901195361, "lng": 13.429190905488154}], "distance": 956, "postalCode": "12053", "cc": "DE", "neighborhood": "Neuk\u00f6lln", "city": "Berlin", "state": "Berlin", "country": "Deutschland", "formattedAddress": ["Reuterstr. 7 (Reuterstr. 7)", "12053 Berlin", "Deutschland"]}, "categories": [{"id": "4bf58dd8d48988d116941735", "name": "Bar", "pluralName": "Bars", "shortName": "Bar", "icon": {"prefix": "https://ss3.4sqi.net/img/categories_v2/nightlife/pub_", "suffix": ".png"}, "primary": true}], "photos": {"count": 0, "groups": []}}, "referralId": "e-0-4b5d9923f964a520f26229e3-73"}, {"reasons": {"count": 0, "items": [{"summary": "This spot is popular", "type": "general", "reasonName": "globalInteractionReason"}]}, "venue": {"id": "5690ec80498ed05fb633f32f", "name": "ZINS Organic Haircare Salon", "location": {"address": "Thomasstrasse 59", "lat": 52.47210341972789, "lng": 13.43254955962761, "labeledLatLngs": [{"label": "display", "lat": 52.47210341972789, "lng": 13.43254955962761}], "distance": 948, "postalCode": "12053", "cc": "DE", "neighborhood": "K\u00f6rnerkiez, Berlin", "city": "Berlin", "state": "Berlin", "country": "Deutschland", "formattedAddress": ["Thomasstrasse 59", "12053 Berlin", "Deutschland"]}, "categories": [{"id": "54541900498ea6ccd0202697", "name": "Health & Beauty Service", "pluralName": "Health & Beauty Services", "shortName": "Health & Beauty", "icon": {"prefix": "https://ss3.4sqi.net/img/categories_v2/shops/salon_barber_", "suffix": ".png"}, "primary": true}], "photos": {"count": 0, "groups": []}}, "referralId": "e-0-5690ec80498ed05fb633f32f-74"}, {"reasons": {"count": 0, "items": [{"summary": "This spot is popular", "type": "general", "reasonName": "globalInteractionReason"}]}, "venue": {"id": "52bdbbf3498ef122b50d36c3", "name": "Eisstadion Neuk\u00f6lln", "location": {"address": "Oderstr. 182", "lat": 52.46786356027716, "lng": 13.419620238973064, "labeledLatLngs": [{"label": "display", "lat": 52.46786356027716, "lng": 13.419620238973064}], "distance": 869, "postalCode": "12051", "cc": "DE", "city": "Berlin", "state": "Berlin", "country": "Deutschland", "formattedAddress": ["Oderstr. 182", "12051 Berlin", "Deutschland"]}, "categories": [{"id": "4bf58dd8d48988d168941735", "name": "Skating Rink", "pluralName": "Skating Rinks", "shortName": "Skating Rink", "icon": {"prefix": "https://ss3.4sqi.net/img/categories_v2/parks_outdoors/skatingrink_", "suffix": ".png"}, "primary": true}], "photos": {"count": 0, "groups": []}}, "referralId": "e-0-52bdbbf3498ef122b50d36c3-75"}, {"reasons": {"count": 0, "items": [{"summary": "This spot is popular", "type": "general", "reasonName": "globalInteractionReason"}]}, "venue": {"id": "5aa3c0397564f726aedfa26f", "name": "Tisk", "location": {"address": "Neckarstr. 12", "crossStreet": "Boddinstr.", "lat": 52.48018620341506, "lng": 13.432363271713257, "labeledLatLngs": [{"label": "display", "lat": 52.48018620341506, "lng": 13.432363271713257}], "distance": 986, "postalCode": "12053", "cc": "DE", "city": "Berlin", "state": "Berlin", "country": "Deutschland", "formattedAddress": ["Neckarstr. 12 (Boddinstr.)", "12053 Berlin", "Deutschland"]}, "categories": [{"id": "4bf58dd8d48988d155941735", "name": "Gastropub", "pluralName": "Gastropubs", "shortName": "Gastropub", "icon": {"prefix": "https://ss3.4sqi.net/img/categories_v2/food/gastropub_", "suffix": ".png"}, "primary": true}], "photos": {"count": 0, "groups": []}}, "referralId": "e-0-5aa3c0397564f726aedfa26f-76"}, {"reasons": {"count": 0, "items": [{"summary": "This spot is popular", "type": "general", "reasonName": "globalInteractionReason"}]}, "venue": {"id": "4e0b6fe663651cdae72cd212", "name": "Sommerbad Neuk\u00f6lln", "location": {"address": "Columbiadamm 160", "lat": 52.48022558193507, "lng": 13.41617603156228, "labeledLatLngs": [{"label": "display", "lat": 52.48022558193507, "lng": 13.41617603156228}], "distance": 564, "postalCode": "10965", "cc": "DE", "city": "Berlin", "state": "Berlin", "country": "Deutschland", "formattedAddress": ["Columbiadamm 160", "10965 Berlin", "Deutschland"]}, "categories": [{"id": "4bf58dd8d48988d15e941735", "name": "Pool", "pluralName": "Pools", "shortName": "Pool", "icon": {"prefix": "https://ss3.4sqi.net/img/categories_v2/parks_outdoors/pool_", "suffix": ".png"}, "primary": true}], "photos": {"count": 0, "groups": []}}, "referralId": "e-0-4e0b6fe663651cdae72cd212-77"}, {"reasons": {"count": 0, "items": [{"summary": "This spot is popular", "type": "general", "reasonName": "globalInteractionReason"}]}, "venue": {"id": "4f19e478e4b0850c8292791d", "name": "Balli Imbiss", "location": {"address": "Leinestrasse", "lat": 52.472630072640335, "lng": 13.428496051089214, "labeledLatLngs": [{"label": "display", "lat": 52.472630072640335, "lng": 13.428496051089214}], "distance": 677, "cc": "DE", "city": "Berlin", "state": "Berlin", "country": "Deutschland", "formattedAddress": ["Leinestrasse", "Berlin", "Deutschland"]}, "categories": [{"id": "4f04af1f2fb6e1c99f3db0bb", "name": "Turkish Restaurant", "pluralName": "Turkish Restaurants", "shortName": "Turkish", "icon": {"prefix": "https://ss3.4sqi.net/img/categories_v2/food/turkish_", "suffix": ".png"}, "primary": true}], "photos": {"count": 0, "groups": []}}, "referralId": "e-0-4f19e478e4b0850c8292791d-78"}, {"reasons": {"count": 0, "items": [{"summary": "This spot is popular", "type": "general", "reasonName": "globalInteractionReason"}]}, "venue": {"id": "4fdc9afae4b0e07802eec2e4", "name": "CUBE Lodges Columbia Berlin", "location": {"address": "Columbiadamm 160", "lat": 52.47998938749959, "lng": 13.417308480464664, "labeledLatLngs": [{"label": "display", "lat": 52.47998938749959, "lng": 13.417308480464664}], "distance": 510, "postalCode": "10965", "cc": "DE", "city": "Berlin", "state": "Berlin", "country": "Deutschland", "formattedAddress": ["Columbiadamm 160", "10965 Berlin, Neuk\u00f6lln", "Deutschland"]}, "categories": [{"id": "4bf58dd8d48988d1ee931735", "name": "Hostel", "pluralName": "Hostels", "shortName": "Hostel", "icon": {"prefix": "https://ss3.4sqi.net/img/categories_v2/travel/hostel_", "suffix": ".png"}, "primary": true}], "photos": {"count": 0, "groups": []}}, "referralId": "e-0-4fdc9afae4b0e07802eec2e4-79"}, {"reasons": {"count": 0, "items": [{"summary": "This spot is popular", "type": "general", "reasonName": "globalInteractionReason"}]}, "venue": {"id": "4d97146b61a3a1cd5934ab42", "name": "Luftgarten", "location": {"address": "Columbiadamm", "lat": 52.479218679671966, "lng": 13.409408879161496, "labeledLatLngs": [{"label": "display", "lat": 52.479218679671966, "lng": 13.409408879161496}], "distance": 810, "postalCode": "10965", "cc": "DE", "city": "Berlin", "state": "Berlin", "country": "Deutschland", "formattedAddress": ["Columbiadamm", "10965 Berlin", "Deutschland"]}, "categories": [{"id": "4bf58dd8d48988d117941735", "name": "Beer Garden", "pluralName": "Beer Gardens", "shortName": "Beer Garden", "icon": {"prefix": "https://ss3.4sqi.net/img/categories_v2/nightlife/beergarden_", "suffix": ".png"}, "primary": true}], "photos": {"count": 0, "groups": []}}, "referralId": "e-0-4d97146b61a3a1cd5934ab42-80"}, {"reasons": {"count": 0, "items": [{"summary": "This spot is popular", "type": "general", "reasonName": "globalInteractionReason"}]}, "venue": {"id": "579d6864498ee60eb936de87", "name": "Sp\u00e4tkauf 178", "location": {"address": "Hermannstra\u00dfe 178", "lat": 52.47174, "lng": 13.4294, "labeledLatLngs": [{"label": "display", "lat": 52.47174, "lng": 13.4294}], "distance": 781, "postalCode": "12051", "cc": "DE", "city": "Berlin", "state": "Berlin", "country": "Deutschland", "formattedAddress": ["Hermannstra\u00dfe 178", "12051 Berlin", "Deutschland"]}, "categories": [{"id": "4d954b0ea243a5684a65b473", "name": "Convenience Store", "pluralName": "Convenience Stores", "shortName": "Convenience Store", "icon": {"prefix": "https://ss3.4sqi.net/img/categories_v2/shops/conveniencestore_", "suffix": ".png"}, "primary": true}], "photos": {"count": 0, "groups": []}}, "referralId": "e-0-579d6864498ee60eb936de87-81"}, {"reasons": {"count": 0, "items": [{"summary": "This spot is popular", "type": "general", "reasonName": "globalInteractionReason"}]}, "venue": {"id": "4e9c97d902d5df1b5115d2a8", "name": "Bechereck", "location": {"lat": 52.473854224408804, "lng": 13.423413582555755, "labeledLatLngs": [{"label": "display", "lat": 52.473854224408804, "lng": 13.423413582555755}], "distance": 315, "cc": "DE", "city": "Berlin", "state": "Berlin", "country": "Deutschland", "formattedAddress": ["Berlin", "Deutschland"]}, "categories": [{"id": "4bf58dd8d48988d11b941735", "name": "Pub", "pluralName": "Pubs", "shortName": "Pub", "icon": {"prefix": "https://ss3.4sqi.net/img/categories_v2/nightlife/pub_", "suffix": ".png"}, "primary": true}], "photos": {"count": 0, "groups": []}}, "referralId": "e-0-4e9c97d902d5df1b5115d2a8-82"}, {"reasons": {"count": 0, "items": [{"summary": "This spot is popular", "type": "general", "reasonName": "globalInteractionReason"}]}, "venue": {"id": "5541cf0b498e6fb1ed95f579", "name": "Roasters", "location": {"address": "Hermannstr. 176", "lat": 52.47132384422504, "lng": 13.429312184717693, "labeledLatLngs": [{"label": "display", "lat": 52.47132384422504, "lng": 13.429312184717693}], "distance": 803, "postalCode": "12051", "cc": "DE", "city": "Berlin", "state": "Berlin", "country": "Deutschland", "formattedAddress": ["Hermannstr. 176", "12051 Berlin", "Deutschland"]}, "categories": [{"id": "4bf58dd8d48988d16d941735", "name": "Caf\u00e9", "pluralName": "Caf\u00e9s", "shortName": "Caf\u00e9", "icon": {"prefix": "https://ss3.4sqi.net/img/categories_v2/food/cafe_", "suffix": ".png"}, "primary": true}], "photos": {"count": 0, "groups": []}}, "referralId": "e-0-5541cf0b498e6fb1ed95f579-83"}, {"reasons": {"count": 0, "items": [{"summary": "This spot is popular", "type": "general", "reasonName": "globalInteractionReason"}]}, "venue": {"id": "5470cee7498ea5bc4ececdb8", "name": "Balkan Bistro", "location": {"address": "Hermannstr.", "crossStreet": "Okerstr.", "lat": 52.47436707373639, "lng": 13.4273099899292, "labeledLatLngs": [{"label": "display", "lat": 52.47436707373639, "lng": 13.4273099899292}], "distance": 526, "postalCode": "12049", "cc": "DE", "neighborhood": "Schillerkiez", "city": "Berlin", "state": "Berlin", "country": "Deutschland", "formattedAddress": ["Hermannstr. (Okerstr.)", "12049 Berlin", "Deutschland"]}, "categories": [{"id": "58daa1558bbb0b01f18ec1ee", "name": "Bosnian Restaurant", "pluralName": "Bosnian Restaurants", "shortName": "Bosnian", "icon": {"prefix": "https://ss3.4sqi.net/img/categories_v2/food/default_", "suffix": ".png"}, "primary": true}], "photos": {"count": 0, "groups": []}}, "referralId": "e-0-5470cee7498ea5bc4ececdb8-84"}, {"reasons": {"count": 0, "items": [{"summary": "This spot is popular", "type": "general", "reasonName": "globalInteractionReason"}]}, "venue": {"id": "557f4fbd498e5a5e7e28b1a8", "name": "Savo Bar", "location": {"address": "Okerstr. Nr.9", "lat": 52.47406539478106, "lng": 13.4251261828206, "labeledLatLngs": [{"label": "display", "lat": 52.47406539478106, "lng": 13.4251261828206}], "distance": 399, "postalCode": "12049", "cc": "DE", "city": "Berlin", "state": "Berlin", "country": "Deutschland", "formattedAddress": ["Okerstr. Nr.9", "12049 Berlin", "Deutschland"]}, "categories": [{"id": "4bf58dd8d48988d11b941735", "name": "Pub", "pluralName": "Pubs", "shortName": "Pub", "icon": {"prefix": "https://ss3.4sqi.net/img/categories_v2/nightlife/pub_", "suffix": ".png"}, "primary": true}], "photos": {"count": 0, "groups": []}}, "referralId": "e-0-557f4fbd498e5a5e7e28b1a8-85"}, {"reasons": {"count": 0, "items": [{"summary": "This spot is popular", "type": "general", "reasonName": "globalInteractionReason"}]}, "venue": {"id": "55984cb2498ee984f41ec795", "name": "Pig & Tiger", "location": {"address": "Schillerpromenade 32", "lat": 52.47567, "lng": 13.422868, "labeledLatLngs": [{"label": "display", "lat": 52.47567, "lng": 13.422868}], "distance": 204, "cc": "DE", "city": "Berlin", "state": "Berlin", "country": "Deutschland", "formattedAddress": ["Schillerpromenade 32", "Berlin", "Deutschland"]}, "categories": [{"id": "4bf58dd8d48988d113941735", "name": "Korean Restaurant", "pluralName": "Korean Restaurants", "shortName": "Korean", "icon": {"prefix": "https://ss3.4sqi.net/img/categories_v2/food/korean_", "suffix": ".png"}, "primary": true}], "photos": {"count": 0, "groups": []}}, "referralId": "e-0-55984cb2498ee984f41ec795-86"}, {"reasons": {"count": 0, "items": [{"summary": "This spot is popular", "type": "general", "reasonName": "globalInteractionReason"}]}, "venue": {"id": "4ef5e0c0a69dea74f971130f", "name": "Bereket Market", "location": {"address": "Hermannstr. 166", "lat": 52.46974314234441, "lng": 13.430195847119128, "labeledLatLngs": [{"label": "display", "lat": 52.46974314234441, "lng": 13.430195847119128}], "distance": 963, "postalCode": "12051", "cc": "DE", "city": "Berlin", "state": "Berlin", "country": "Deutschland", "formattedAddress": ["Hermannstr. 166", "12051 Berlin", "Deutschland"]}, "categories": [{"id": "4bf58dd8d48988d118951735", "name": "Grocery Store", "pluralName": "Grocery Stores", "shortName": "Grocery Store", "icon": {"prefix": "https://ss3.4sqi.net/img/categories_v2/shops/food_grocery_", "suffix": ".png"}, "primary": true}], "photos": {"count": 0, "groups": []}}, "referralId": "e-0-4ef5e0c0a69dea74f971130f-87"}, {"reasons": {"count": 0, "items": [{"summary": "This spot is popular", "type": "general", "reasonName": "globalInteractionReason"}]}, "venue": {"id": "4f3019d5e4b01982f3bd5666", "name": "Sultan's", "location": {"address": "Leykestr. 1", "crossStreet": "Hermannstr.", "lat": 52.47466529948211, "lng": 13.427552714318438, "labeledLatLngs": [{"label": "display", "lat": 52.47466529948211, "lng": 13.427552714318438}], "distance": 534, "postalCode": "12053", "cc": "DE", "city": "Berlin", "state": "Berlin", "country": "Deutschland", "formattedAddress": ["Leykestr. 1 (Hermannstr.)", "12053 Berlin", "Deutschland"]}, "categories": [{"id": "4bf58dd8d48988d1dc931735", "name": "Tea Room", "pluralName": "Tea Rooms", "shortName": "Tea Room", "icon": {"prefix": "https://ss3.4sqi.net/img/categories_v2/food/tearoom_", "suffix": ".png"}, "primary": true}], "photos": {"count": 0, "groups": []}}, "referralId": "e-0-4f3019d5e4b01982f3bd5666-88"}, {"reasons": {"count": 0, "items": [{"summary": "This spot is popular", "type": "general", "reasonName": "globalInteractionReason"}]}, "venue": {"id": "5381fc3a498e0086eae92878", "name": "Picnic Berlin", "location": {"address": "Oderstr. 20", "lat": 52.47120069956479, "lng": 13.419907093048096, "labeledLatLngs": [{"label": "display", "lat": 52.47120069956479, "lng": 13.419907093048096}], "distance": 497, "postalCode": "12051", "cc": "DE", "city": "Berlin", "state": "Berlin", "country": "Deutschland", "formattedAddress": ["Oderstr. 20", "12051 Berlin", "Deutschland"]}, "categories": [{"id": "4bf58dd8d48988d1c7941735", "name": "Snack Place", "pluralName": "Snack Places", "shortName": "Snacks", "icon": {"prefix": "https://ss3.4sqi.net/img/categories_v2/food/snacks_", "suffix": ".png"}, "primary": true}], "photos": {"count": 0, "groups": []}}, "referralId": "e-0-5381fc3a498e0086eae92878-89"}, {"reasons": {"count": 0, "items": [{"summary": "This spot is popular", "type": "general", "reasonName": "globalInteractionReason"}]}, "venue": {"id": "4f1d8c6be4b0065cbcf1308a", "name": "ALDI NORD", "location": {"address": "Hermannstr. 72", "lat": 52.47430157822515, "lng": 13.427560738073979, "labeledLatLngs": [{"label": "display", "lat": 52.47430157822515, "lng": 13.427560738073979}], "distance": 544, "postalCode": "12049", "cc": "DE", "city": "Berlin", "state": "Berlin", "country": "Deutschland", "formattedAddress": ["Hermannstr. 72", "12049 Berlin", "Deutschland"]}, "categories": [{"id": "52f2ab2ebcbc57f1066b8b46", "name": "Supermarket", "pluralName": "Supermarkets", "shortName": "Supermarket", "icon": {"prefix": "https://ss3.4sqi.net/img/categories_v2/shops/food_grocery_", "suffix": ".png"}, "primary": true}], "photos": {"count": 0, "groups": []}}, "referralId": "e-0-4f1d8c6be4b0065cbcf1308a-90"}, {"reasons": {"count": 0, "items": [{"summary": "This spot is popular", "type": "general", "reasonName": "globalInteractionReason"}]}, "venue": {"id": "5203cf27498e83983f60ad70", "name": "Pee Pee's Katzencaf\u00e9", "location": {"address": "Thomasstr. 53", "lat": 52.47246226743333, "lng": 13.433359072993799, "labeledLatLngs": [{"label": "display", "lat": 52.47246226743333, "lng": 13.433359072993799}], "distance": 983, "postalCode": "12053", "cc": "DE", "city": "Berlin", "state": "Berlin", "country": "Deutschland", "formattedAddress": ["Thomasstr. 53", "12053 Berlin", "Deutschland"]}, "categories": [{"id": "56aa371be4b08b9a8d573508", "name": "Pet Caf\u00e9", "pluralName": "Pet Caf\u00e9s", "shortName": "Pet Caf\u00e9", "icon": {"prefix": "https://ss3.4sqi.net/img/categories_v2/parks_outdoors/dogrun_", "suffix": ".png"}, "primary": true}], "photos": {"count": 0, "groups": []}}, "referralId": "e-0-5203cf27498e83983f60ad70-91"}, {"reasons": {"count": 0, "items": [{"summary": "This spot is popular", "type": "general", "reasonName": "globalInteractionReason"}]}, "venue": {"id": "4fdb3d2a754adc9dec5eb21f", "name": "Hundeauslaufgebiet Nordbahn", "location": {"address": "Oderstr.", "crossStreet": "Herrfurthstr.", "lat": 52.476119282355526, "lng": 13.414583054010208, "labeledLatLngs": [{"label": "display", "lat": 52.476119282355526, "lng": 13.414583054010208}], "distance": 360, "postalCode": "12049", "cc": "DE", "city": "Berlin", "state": "Berlin", "country": "Deutschland", "formattedAddress": ["Oderstr. (Herrfurthstr.)", "12049 Berlin", "Deutschland"]}, "categories": [{"id": "4bf58dd8d48988d1e5941735", "name": "Dog Run", "pluralName": "Dog Runs", "shortName": "Dog Run", "icon": {"prefix": "https://ss3.4sqi.net/img/categories_v2/parks_outdoors/dogrun_", "suffix": ".png"}, "primary": true}], "photos": {"count": 0, "groups": []}}, "referralId": "e-0-4fdb3d2a754adc9dec5eb21f-92"}, {"reasons": {"count": 0, "items": [{"summary": "This spot is popular", "type": "general", "reasonName": "globalInteractionReason"}]}, "venue": {"id": "4f197f2ee4b0aed171da382b", "name": "aladdin d\u00f6nerhaus", "location": {"address": "hermannstra\u00dfe 196", "lat": 52.47469, "lng": 13.427592, "labeledLatLngs": [{"label": "display", "lat": 52.47469, "lng": 13.427592}], "distance": 536, "postalCode": "12049", "cc": "DE", "city": "Berlin", "state": "Berlin", "country": "Deutschland", "formattedAddress": ["hermannstra\u00dfe 196", "12049 Berlin", "Deutschland"]}, "categories": [{"id": "5283c7b4e4b094cb91ec88d8", "name": "Doner Restaurant", "pluralName": "Doner Restaurants", "shortName": "Doner", "icon": {"prefix": "https://ss3.4sqi.net/img/categories_v2/food/turkish_", "suffix": ".png"}, "primary": true}], "photos": {"count": 0, "groups": []}}, "referralId": "e-0-4f197f2ee4b0aed171da382b-93"}, {"reasons": {"count": 0, "items": [{"summary": "This spot is popular", "type": "general", "reasonName": "globalInteractionReason"}]}, "venue": {"id": "4d18b00d85fc6dcb4a23b74e", "name": "Werner-Seelenbinder-Sportpark", "location": {"address": "Oderstr. 182", "lat": 52.467877223127594, "lng": 13.419573092030355, "labeledLatLngs": [{"label": "display", "lat": 52.467877223127594, "lng": 13.419573092030355}], "distance": 867, "postalCode": "12051", "cc": "DE", "city": "Berlin", "state": "Berlin", "country": "Deutschland", "formattedAddress": ["Oderstr. 182", "12051 Berlin", "Deutschland"]}, "categories": [{"id": "4cce455aebf7b749d5e191f5", "name": "Soccer Field", "pluralName": "Soccer Fields", "shortName": "Soccer Field", "icon": {"prefix": "https://ss3.4sqi.net/img/categories_v2/arts_entertainment/stadium_soccer_", "suffix": ".png"}, "primary": true}], "photos": {"count": 0, "groups": []}}, "referralId": "e-0-4d18b00d85fc6dcb4a23b74e-94"}, {"reasons": {"count": 0, "items": [{"summary": "This spot is popular", "type": "general", "reasonName": "globalInteractionReason"}]}, "venue": {"id": "4da84bc6fa8c4175d0b5a148", "name": "Skatepark Hasenheide", "location": {"address": "Columbiadamm", "lat": 52.480748144869025, "lng": 13.416388034820557, "labeledLatLngs": [{"label": "display", "lat": 52.480748144869025, "lng": 13.416388034820557}], "distance": 612, "postalCode": "10967", "cc": "DE", "city": "Berlin", "state": "Berlin", "country": "Deutschland", "formattedAddress": ["Columbiadamm", "10967 Berlin", "Deutschland"]}, "categories": [{"id": "4bf58dd8d48988d167941735", "name": "Skate Park", "pluralName": "Skate Parks", "shortName": "Skate Park", "icon": {"prefix": "https://ss3.4sqi.net/img/categories_v2/parks_outdoors/skate_park_", "suffix": ".png"}, "primary": true}], "photos": {"count": 0, "groups": []}}, "referralId": "e-0-4da84bc6fa8c4175d0b5a148-95"}, {"reasons": {"count": 0, "items": [{"summary": "This spot is popular", "type": "general", "reasonName": "globalInteractionReason"}]}, "venue": {"id": "4fd0bd4ee4b0bbb4a4b1f4a4", "name": "STAR Steinofenpizza", "location": {"address": "Hermannstr. 93", "crossStreet": "Warthestr. 1", "lat": 52.47042167841854, "lng": 13.429589827520157, "labeledLatLngs": [{"label": "display", "lat": 52.47042167841854, "lng": 13.429589827520157}], "distance": 881, "postalCode": "12051", "cc": "DE", "city": "Berlin", "state": "Berlin", "country": "Deutschland", "formattedAddress": ["Hermannstr. 93 (Warthestr. 1)", "12051 Berlin", "Deutschland"]}, "categories": [{"id": "4bf58dd8d48988d1ca941735", "name": "Pizza Place", "pluralName": "Pizza Places", "shortName": "Pizza", "icon": {"prefix": "https://ss3.4sqi.net/img/categories_v2/food/pizza_", "suffix": ".png"}, "primary": true}], "photos": {"count": 0, "groups": []}}, "referralId": "e-0-4fd0bd4ee4b0bbb4a4b1f4a4-96"}]