[{"reasons": {"count": 0, "items": [{"summary": "This spot is popular", "type": "general", "reasonName": "globalInteractionReason"}]}, "venue": {"id": "4db2ad864df05e5aaab97e55", "name": "Gamer's HQ", "location": {"address": "Lepsiusstr. 33", "crossStreet": "Schildhornstr.", "lat": 52.462965099442016, "lng": 13.319635391235352, "labeledLatLngs": [{"label": "display", "lat": 52.462965099442016, "lng": 13.319635391235352}], "distance": 348, "postalCode": "12163", "cc": "DE", "city": "Berlin", "state": "Berlin", "country": "Deutschland", "formattedAddress": ["Lepsiusstr. 33 (Schildhornstr.)", "12163 Berlin", "Deutschland"]}, "categories": [{"id": "4bf58dd8d48988d1f3941735", "name": "Toy / Game Store", "pluralName": "Toy / Game Stores", "shortName": "Toys & Games", "icon": {"prefix": "https://ss3.4sqi.net/img/categories_v2/shops/toys_", "suffix": ".png"}, "primary": true}], "photos": {"count": 0, "groups": []}}, "referralId": "e-0-4db2ad864df05e5aaab97e55-0"}, {"reasons": {"count": 0, "items": [{"summary": "This spot is popular", "type": "general", "reasonName": "globalInteractionReason"}]}, "venue": {"id": "51c58db5498e024d8db89498", "name": "Caf\u00e9 Baier", "location": {"address": "Schlo\u00dfstr. 26", "lat": 52.45944748222248, "lng": 13.32310672132395, "labeledLatLngs": [{"label": "display", "lat": 52.45944748222248, "lng": 13.32310672132395}], "distance": 491, "postalCode": "12163", "cc": "DE", "city": "Berlin", "state": "Berlin", "country": "Deutschland", "formattedAddress": ["Schlo\u00dfstr. 26", "12163 Berlin", "Deutschland"]}, "categories": [{"id": "4bf58dd8d48988d16d941735", "name": "Caf\u00e9", "pluralName": "Caf\u00e9s", "shortName": "Caf\u00e9", "icon": {"prefix": "https://ss3.4sqi.net/img/categories_v2/food/cafe_", "suffix": ".png"}, "primary": true}], "photos": {"count": 0, "groups": []}}, "referralId": "e-0-51c58db5498e024d8db89498-1"}, {"reasons": {"count": 0, "items": [{"summary": "This spot is popular", "type": "general", "reasonName": "globalInteractionReason"}]}, "venue": {"id": "51716d67e4b075f813fc7257", "name": "Jungbluth", "location": {"address": "Lepsiusstr. 63", "crossStreet": "Muthesiusstr.", "lat": 52.460309786703384, "lng": 13.316993063881627, "labeledLatLngs": [{"label": "display", "lat": 52.460309786703384, "lng": 13.316993063881627}], "distance": 70, "postalCode": "12163", "cc": "DE", "city": "Berlin", "state": "Berlin", "country": "Deutschland", "formattedAddress": ["Lepsiusstr. 63 (Muthesiusstr.)", "12163 Berlin", "Deutschland"]}, "categories": [{"id": "4bf58dd8d48988d10d941735", "name": "German Restaurant", "pluralName": "German Restaurants", "shortName": "German", "icon": {"prefix": "https://ss3.4sqi.net/img/categories_v2/food/german_", "suffix": ".png"}, "primary": true}], "photos": {"count": 0, "groups": []}}, "referralId": "e-0-51716d67e4b075f813fc7257-2"}, {"reasons": {"count": 0, "items": [{"summary": "This spot is popular", "type": "general", "reasonName": "globalInteractionReason"}]}, "venue": {"id": "4adcda88f964a520724921e3", "name": "Mrhai Life", "location": {"address": "Albrechtstr. 131", "lat": 52.45707484104433, "lng": 13.321644593243967, "labeledLatLngs": [{"label": "display", "lat": 52.45707484104433, "lng": 13.321644593243967}], "distance": 547, "postalCode": "12165", "cc": "DE", "city": "Berlin", "state": "Berlin", "country": "Deutschland", "formattedAddress": ["Albrechtstr. 131", "12165 Berlin", "Deutschland"]}, "categories": [{"id": "4bf58dd8d48988d1d2941735", "name": "Sushi Restaurant", "pluralName": "Sushi Restaurants", "shortName": "Sushi", "icon": {"prefix": "https://ss3.4sqi.net/img/categories_v2/food/sushi_", "suffix": ".png"}, "primary": true}], "photos": {"count": 0, "groups": []}}, "referralId": "e-0-4adcda88f964a520724921e3-3"}, {"reasons": {"count": 0, "items": [{"summary": "This spot is popular", "type": "general", "reasonName": "globalInteractionReason"}]}, "venue": {"id": "4adcda90f964a5205d4b21e3", "name": "Globetrotter", "location": {"address": "Schlo\u00dfstr. 78", "lat": 52.4558818, "lng": 13.3202172, "labeledLatLngs": [{"label": "display", "lat": 52.4558818, "lng": 13.3202172}], "distance": 600, "postalCode": "12165", "cc": "DE", "neighborhood": "Schlo\u00dfstra\u00dfe", "city": "Berlin", "state": "Berlin", "country": "Deutschland", "formattedAddress": ["Schlo\u00dfstr. 78", "12165 Berlin", "Deutschland"]}, "categories": [{"id": "52f2ab2ebcbc57f1066b8b22", "name": "Outdoor Supply Store", "pluralName": "Outdoor Supply Stores", "shortName": "Outdoor Supplies", "icon": {"prefix": "https://ss3.4sqi.net/img/categories_v2/shops/default_", "suffix": ".png"}, "primary": true}], "photos": {"count": 0, "groups": []}, "venuePage": {"id": "557068135"}}, "referralId": "e-0-4adcda90f964a5205d4b21e3-4"}, {"reasons": {"count": 0, "items": [{"summary": "This spot is popular", "type": "general", "reasonName": "globalInteractionReason"}]}, "venue": {"id": "4b3e4dc6f964a520ef9a25e3", "name": "Akiko Sushi", "location": {"address": "Ahornstr. 32", "lat": 52.4606312606575, "lng": 13.323383107999069, "labeledLatLngs": [{"label": "display", "lat": 52.4606312606575, "lng": 13.323383107999069}], "distance": 491, "postalCode": "12163", "cc": "DE", "city": "Berlin", "state": "Berlin", "country": "Deutschland", "formattedAddress": ["Ahornstr. 32", "12163 Berlin", "Deutschland"]}, "categories": [{"id": "4bf58dd8d48988d1d2941735", "name": "Sushi Restaurant", "pluralName": "Sushi Restaurants", "shortName": "Sushi", "icon": {"prefix": "https://ss3.4sqi.net/img/categories_v2/food/sushi_", "suffix": ".png"}, "primary": true}], "photos": {"count": 0, "groups": []}}, "referralId": "e-0-4b3e4dc6f964a520ef9a25e3-5"}, {"reasons": {"count": 0, "items": [{"summary": "This spot is popular", "type": "general", "reasonName": "globalInteractionReason"}]}, "venue": {"id": "4ba252d7f964a5203eed37e3", "name": "zur Bratpfanne", "location": {"address": "Schlo\u00dfstr.", "crossStreet": "Kieler Str.", "lat": 52.45896536941145, "lng": 13.322867632335917, "labeledLatLngs": [{"label": "display", "lat": 52.45896536941145, "lng": 13.322867632335917}], "distance": 494, "postalCode": "12163", "cc": "DE", "city": "Berlin", "state": "Berlin", "country": "Deutschland", "formattedAddress": ["Schlo\u00dfstr. (Kieler Str.)", "12163 Berlin", "Deutschland"]}, "categories": [{"id": "56aa371ce4b08b9a8d57358b", "name": "Currywurst Joint", "pluralName": "Currywurst Joints", "shortName": "Currywurst", "icon": {"prefix": "https://ss3.4sqi.net/img/categories_v2/food/bbqalt_", "suffix": ".png"}, "primary": true}], "photos": {"count": 0, "groups": []}}, "referralId": "e-0-4ba252d7f964a5203eed37e3-6"}, {"reasons": {"count": 0, "items": [{"summary": "This spot is popular", "type": "general", "reasonName": "globalInteractionReason"}]}, "venue": {"id": "4ddc014ad4c082f960bce762", "name": "Mr Hai", "location": {"lat": 52.45714653433303, "lng": 13.321885653871044, "labeledLatLngs": [{"label": "display", "lat": 52.45714653433303, "lng": 13.321885653871044}], "distance": 553, "cc": "DE", "city": "Berlin", "state": "Berlin", "country": "Deutschland", "formattedAddress": ["Berlin", "Deutschland"]}, "categories": [{"id": "4bf58dd8d48988d142941735", "name": "Asian Restaurant", "pluralName": "Asian Restaurants", "shortName": "Asian", "icon": {"prefix": "https://ss3.4sqi.net/img/categories_v2/food/asian_", "suffix": ".png"}, "primary": true}], "photos": {"count": 0, "groups": []}}, "referralId": "e-0-4ddc014ad4c082f960bce762-7"}, {"reasons": {"count": 0, "items": [{"summary": "This spot is popular", "type": "general", "reasonName": "globalInteractionReason"}]}, "venue": {"id": "4f316c36e4b040aec94d53c5", "name": "goodies", "location": {"address": "Schlo\u00dfstr. 78-82", "lat": 52.45628942523345, "lng": 13.320314701105131, "labeledLatLngs": [{"label": "display", "lat": 52.45628942523345, "lng": 13.320314701105131}], "distance": 564, "postalCode": "12165", "cc": "DE", "city": "Berlin", "state": "Berlin", "country": "Deutschland", "formattedAddress": ["Schlo\u00dfstr. 78-82", "12165 Berlin", "Deutschland"]}, "categories": [{"id": "4bf58dd8d48988d1d3941735", "name": "Vegetarian / Vegan Restaurant", "pluralName": "Vegetarian / Vegan Restaurants", "shortName": "Vegetarian / Vegan", "icon": {"prefix": "https://ss3.4sqi.net/img/categories_v2/food/vegetarian_", "suffix": ".png"}, "primary": true}], "photos": {"count": 0, "groups": []}}, "referralId": "e-0-4f316c36e4b040aec94d53c5-8"}, {"reasons": {"count": 0, "items": [{"summary": "This spot is popular", "type": "general", "reasonName": "globalInteractionReason"}]}, "venue": {"id": "51fbab13498ec59500425a38", "name": "Gro\u00dfes Tropenhaus", "location": {"address": "K\u00f6nigin-Luise-Str. 6-8", "lat": 52.4564016609822, "lng": 13.30718994140625, "labeledLatLngs": [{"label": "display", "lat": 52.4564016609822, "lng": 13.30718994140625}], "distance": 771, "postalCode": "14195", "cc": "DE", "city": "Berlin", "state": "Berlin", "country": "Deutschland", "formattedAddress": ["K\u00f6nigin-Luise-Str. 6-8", "14195 Berlin", "Deutschland"]}, "categories": [{"id": "52e81612bcbc57f1066b7a22", "name": "Botanical Garden", "pluralName": "Botanical Gardens", "shortName": "Botanical Garden", "icon": {"prefix": "https://ss3.4sqi.net/img/categories_v2/parks_outdoors/botanicalgarden_", "suffix": ".png"}, "primary": true}], "photos": {"count": 0, "groups": []}}, "referralId": "e-0-51fbab13498ec59500425a38-9"}, {"reasons": {"count": 0, "items": [{"summary": "This spot is popular", "type": "general", "reasonName": "globalInteractionReason"}]}, "venue": {"id": "4bc357294cdfc9b64b319721", "name": "Ishin", "location": {"address": "Schlo\u00dfstr. 101", "crossStreet": "Deitmerstr.", "lat": 52.459571, "lng": 13.323615, "labeledLatLngs": [{"label": "display", "lat": 52.459571, "lng": 13.323615}], "distance": 521, "postalCode": "12163", "cc": "DE", "city": "Berlin", "state": "Berlin", "country": "Deutschland", "formattedAddress": ["Schlo\u00dfstr. 101 (Deitmerstr.)", "12163 Berlin", "Deutschland"]}, "categories": [{"id": "4bf58dd8d48988d1d2941735", "name": "Sushi Restaurant", "pluralName": "Sushi Restaurants", "shortName": "Sushi", "icon": {"prefix": "https://ss3.4sqi.net/img/categories_v2/food/sushi_", "suffix": ".png"}, "primary": true}], "photos": {"count": 0, "groups": []}}, "referralId": "e-0-4bc357294cdfc9b64b319721-10"}, {"reasons": {"count": 0, "items": [{"summary": "This spot is popular", "type": "general", "reasonName": "globalInteractionReason"}]}, "venue": {"id": "4fa4f7d4e4b038e6a2036e2e", "name": "Lindner Esskultur", "location": {"address": "Schlossstr. 15", "lat": 52.462906545662946, "lng": 13.324826663031855, "labeledLatLngs": [{"label": "display", "lat": 52.462906545662946, "lng": 13.324826663031855}], "distance": 639, "postalCode": "12163", "cc": "DE", "city": "Berlin", "state": "Berlin", "country": "Deutschland", "formattedAddress": ["Schlossstr. 15", "12163 Berlin", "Deutschland"]}, "categories": [{"id": "4bf58dd8d48988d1f5941735", "name": "Gourmet Shop", "pluralName": "Gourmet Shops", "shortName": "Gourmet", "icon": {"prefix": "https://ss3.4sqi.net/img/categories_v2/shops/food_gourmet_", "suffix": ".png"}, "primary": true}], "photos": {"count": 0, "groups": []}}, "referralId": "e-0-4fa4f7d4e4b038e6a2036e2e-11"}, {"reasons": {"count": 0, "items": [{"summary": "This spot is popular", "type": "general", "reasonName": "globalInteractionReason"}]}, "venue": {"id": "58109c9d38fa4b202de27895", "name": "Decathlon", "location": {"address": "Schlo\u00dfstr. 110", "lat": 52.4609533, "lng": 13.3251444, "labeledLatLngs": [{"label": "display", "lat": 52.4609533, "lng": 13.3251444}], "distance": 611, "postalCode": "12163", "cc": "DE", "city": "Berlin", "state": "Berlin", "country": "Deutschland", "formattedAddress": ["Schlo\u00dfstr. 110", "12163 Berlin", "Deutschland"]}, "categories": [{"id": "4bf58dd8d48988d1f2941735", "name": "Sporting Goods Shop", "pluralName": "Sporting Goods Shops", "shortName": "Sporting Goods", "icon": {"prefix": "https://ss3.4sqi.net/img/categories_v2/shops/sports_outdoors_", "suffix": ".png"}, "primary": true}], "photos": {"count": 0, "groups": []}}, "referralId": "e-0-58109c9d38fa4b202de27895-12"}, {"reasons": {"count": 0, "items": [{"summary": "This spot is popular", "type": "general", "reasonName": "globalInteractionReason"}]}, "venue": {"id": "4fdb2ecee4b0d5ec9cb29ed2", "name": "Jing Yang", "location": {"address": "Albrechtstra\u00dfe 125", "lat": 52.45589755968263, "lng": 13.32462854633575, "labeledLatLngs": [{"label": "display", "lat": 52.45589755968263, "lng": 13.32462854633575}], "distance": 783, "postalCode": "12165", "cc": "DE", "city": "Berlin", "state": "Berlin", "country": "Deutschland", "formattedAddress": ["Albrechtstra\u00dfe 125", "12165 Berlin", "Deutschland"]}, "categories": [{"id": "4bf58dd8d48988d145941735", "name": "Chinese Restaurant", "pluralName": "Chinese Restaurants", "shortName": "Chinese", "icon": {"prefix": "https://ss3.4sqi.net/img/categories_v2/food/asian_", "suffix": ".png"}, "primary": true}], "photos": {"count": 0, "groups": []}}, "referralId": "e-0-4fdb2ecee4b0d5ec9cb29ed2-13"}, {"reasons": {"count": 0, "items": [{"summary": "This spot is popular", "type": "general", "reasonName": "globalInteractionReason"}]}, "venue": {"id": "530cd841498ec10a2218a1ad", "name": "Any Sushi", "location": {"address": "Hubertusstra\u00dfe 3", "lat": 52.46024679368716, "lng": 13.325181971951032, "labeledLatLngs": [{"label": "display", "lat": 52.46024679368716, "lng": 13.325181971951032}], "distance": 615, "postalCode": "12163", "cc": "DE", "city": "Berlin", "state": "Berlin", "country": "Deutschland", "formattedAddress": ["Hubertusstra\u00dfe 3", "12163 Berlin", "Deutschland"]}, "categories": [{"id": "4bf58dd8d48988d1d2941735", "name": "Sushi Restaurant", "pluralName": "Sushi Restaurants", "shortName": "Sushi", "icon": {"prefix": "https://ss3.4sqi.net/img/categories_v2/food/sushi_", "suffix": ".png"}, "primary": true}], "photos": {"count": 0, "groups": []}}, "referralId": "e-0-530cd841498ec10a2218a1ad-14"}, {"reasons": {"count": 0, "items": [{"summary": "This spot is popular", "type": "general", "reasonName": "globalInteractionReason"}]}, "venue": {"id": "4adcda8bf964a520e04921e3", "name": "Adria Filmtheater", "location": {"address": "Schlo\u00dfstr. 48", "lat": 52.454389267925414, "lng": 13.317956988934926, "labeledLatLngs": [{"label": "display", "lat": 52.454389267925414, "lng": 13.317956988934926}], "distance": 710, "postalCode": "12165", "cc": "DE", "city": "Berlin", "state": "Berlin", "country": "Deutschland", "formattedAddress": ["Schlo\u00dfstr. 48", "12165 Berlin", "Deutschland"]}, "categories": [{"id": "4bf58dd8d48988d17e941735", "name": "Indie Movie Theater", "pluralName": "Indie Movie Theaters", "shortName": "Indie Movies", "icon": {"prefix": "https://ss3.4sqi.net/img/categories_v2/arts_entertainment/movietheater_", "suffix": ".png"}, "primary": true}], "photos": {"count": 0, "groups": []}}, "referralId": "e-0-4adcda8bf964a520e04921e3-15"}, {"reasons": {"count": 0, "items": [{"summary": "This spot is popular", "type": "general", "reasonName": "globalInteractionReason"}]}, "venue": {"id": "4b5ab90ef964a5201cd228e3", "name": "Fitness First", "location": {"address": "Schlo\u00dfstra\u00dfe 110", "lat": 52.460953352649064, "lng": 13.325072228908539, "labeledLatLngs": [{"label": "display", "lat": 52.460953352649064, "lng": 13.325072228908539}], "distance": 606, "postalCode": "12163", "cc": "DE", "city": "Berlin", "state": "Berlin", "country": "Deutschland", "formattedAddress": ["Schlo\u00dfstra\u00dfe 110", "12163 Berlin", "Deutschland"]}, "categories": [{"id": "4bf58dd8d48988d175941735", "name": "Gym / Fitness Center", "pluralName": "Gyms or Fitness Centers", "shortName": "Gym / Fitness", "icon": {"prefix": "https://ss3.4sqi.net/img/categories_v2/building/gym_", "suffix": ".png"}, "primary": true}], "photos": {"count": 0, "groups": []}}, "referralId": "e-0-4b5ab90ef964a5201cd228e3-16"}, {"reasons": {"count": 0, "items": [{"summary": "This spot is popular", "type": "general", "reasonName": "globalInteractionReason"}]}, "venue": {"id": "4c6bf672f2846dcb738561e9", "name": "Metro D\u00f6ner", "location": {"address": "Kuhligkshofstr. 2", "lat": 52.45585764147392, "lng": 13.322318293969857, "labeledLatLngs": [{"label": "display", "lat": 52.45585764147392, "lng": 13.322318293969857}], "distance": 680, "postalCode": "12165", "cc": "DE", "city": "Berlin", "state": "Berlin", "country": "Deutschland", "formattedAddress": ["Kuhligkshofstr. 2", "12165 Berlin", "Deutschland"]}, "categories": [{"id": "5283c7b4e4b094cb91ec88d8", "name": "Doner Restaurant", "pluralName": "Doner Restaurants", "shortName": "Doner", "icon": {"prefix": "https://ss3.4sqi.net/img/categories_v2/food/turkish_", "suffix": ".png"}, "primary": true}], "photos": {"count": 0, "groups": []}}, "referralId": "e-0-4c6bf672f2846dcb738561e9-17"}, {"reasons": {"count": 0, "items": [{"summary": "This spot is popular", "type": "general", "reasonName": "globalInteractionReason"}]}, "venue": {"id": "53befb2c498ebb075bdc2c4c", "name": "Foersters Feine Biere", "location": {"address": "Bornstr. 20", "lat": 52.466740520071596, "lng": 13.321958334912601, "labeledLatLngs": [{"label": "display", "lat": 52.466740520071596, "lng": 13.321958334912601}], "distance": 782, "postalCode": "12163", "cc": "DE", "city": "Berlin", "state": "Berlin", "country": "Deutschland", "formattedAddress": ["Bornstr. 20", "12163 Berlin", "Deutschland"]}, "categories": [{"id": "56aa371ce4b08b9a8d57356c", "name": "Beer Bar", "pluralName": "Beer Bars", "shortName": "Beer Bar", "icon": {"prefix": "https://ss3.4sqi.net/img/categories_v2/nightlife/pub_", "suffix": ".png"}, "primary": true}], "photos": {"count": 0, "groups": []}}, "referralId": "e-0-53befb2c498ebb075bdc2c4c-18"}, {"reasons": {"count": 0, "items": [{"summary": "This spot is popular", "type": "general", "reasonName": "globalInteractionReason"}]}, "venue": {"id": "54634daf498e94400cee4e51", "name": "Die Kaffeenauten", "location": {"address": "Sch\u00fctzenstr. 4", "lat": 52.45493895284516, "lng": 13.324619657945872, "labeledLatLngs": [{"label": "display", "lat": 52.45493895284516, "lng": 13.324619657945872}], "distance": 859, "postalCode": "12165", "cc": "DE", "city": "Berlin", "state": "Berlin", "country": "Deutschland", "formattedAddress": ["Sch\u00fctzenstr. 4", "12165 Berlin", "Deutschland"]}, "categories": [{"id": "4bf58dd8d48988d16d941735", "name": "Caf\u00e9", "pluralName": "Caf\u00e9s", "shortName": "Caf\u00e9", "icon": {"prefix": "https://ss3.4sqi.net/img/categories_v2/food/cafe_", "suffix": ".png"}, "primary": true}], "photos": {"count": 0, "groups": []}}, "referralId": "e-0-54634daf498e94400cee4e51-19"}, {"reasons": {"count": 0, "items": [{"summary": "This spot is popular", "type": "general", "reasonName": "globalInteractionReason"}]}, "venue": {"id": "535a63ce498eb46312ac2570", "name": "Eisfee", "location": {"address": "Forststr. 17", "crossStreet": "Paulsenstr.", "lat": 52.46434825431872, "lng": 13.314114174667885, "labeledLatLngs": [{"label": "display", "lat": 52.46434825431872, "lng": 13.314114174667885}], "distance": 431, "cc": "DE", "city": "Berlin", "state": "Berlin", "country": "Deutschland", "formattedAddress": ["Forststr. 17 (Paulsenstr.)", "Berlin", "Deutschland"]}, "categories": [{"id": "4bf58dd8d48988d1c9941735", "name": "Ice Cream Shop", "pluralName": "Ice Cream Shops", "shortName": "Ice Cream", "icon": {"prefix": "https://ss3.4sqi.net/img/categories_v2/food/icecream_", "suffix": ".png"}, "primary": true}], "photos": {"count": 0, "groups": []}}, "referralId": "e-0-535a63ce498eb46312ac2570-20"}, {"reasons": {"count": 0, "items": [{"summary": "This spot is popular", "type": "general", "reasonName": "globalInteractionReason"}]}, "venue": {"id": "4c0d0ae9336220a17913ca77", "name": "vanille & marille", "location": {"address": "Leydenallee 92", "crossStreet": "Sch\u00fctzenstr.", "lat": 52.45395181725596, "lng": 13.323204057954053, "labeledLatLngs": [{"label": "display", "lat": 52.45395181725596, "lng": 13.323204057954053}], "distance": 888, "postalCode": "12165", "cc": "DE", "city": "Berlin", "state": "Berlin", "country": "Deutschland", "formattedAddress": ["Leydenallee 92 (Sch\u00fctzenstr.)", "12165 Berlin", "Deutschland"]}, "categories": [{"id": "4bf58dd8d48988d1c9941735", "name": "Ice Cream Shop", "pluralName": "Ice Cream Shops", "shortName": "Ice Cream", "icon": {"prefix": "https://ss3.4sqi.net/img/categories_v2/food/icecream_", "suffix": ".png"}, "primary": true}], "photos": {"count": 0, "groups": []}}, "referralId": "e-0-4c0d0ae9336220a17913ca77-21"}, {"reasons": {"count": 0, "items": [{"summary": "This spot is popular", "type": "general", "reasonName": "globalInteractionReason"}]}, "venue": {"id": "524f1aff498e27b717fe372a", "name": "Holmes Place", "location": {"address": "Schildhornstr. 1", "lat": 52.462174940444896, "lng": 13.325138917425651, "labeledLatLngs": [{"label": "display", "lat": 52.462174940444896, "lng": 13.325138917425651}], "distance": 632, "postalCode": "12163", "cc": "DE", "city": "Berlin", "state": "Berlin", "country": "Deutschland", "formattedAddress": ["Schildhornstr. 1", "12163 Berlin", "Deutschland"]}, "categories": [{"id": "4bf58dd8d48988d175941735", "name": "Gym / Fitness Center", "pluralName": "Gyms or Fitness Centers", "shortName": "Gym / Fitness", "icon": {"prefix": "https://ss3.4sqi.net/img/categories_v2/building/gym_", "suffix": ".png"}, "primary": true}], "photos": {"count": 0, "groups": []}}, "referralId": "e-0-524f1aff498e27b717fe372a-22"}, {"reasons": {"count": 0, "items": [{"summary": "This spot is popular", "type": "general", "reasonName": "globalInteractionReason"}]}, "venue": {"id": "4bd09962a8b3a5933537645f", "name": "Mai Phai", "location": {"address": "Feuerbachstr. 16", "lat": 52.463121, "lng": 13.328818, "labeledLatLngs": [{"label": "display", "lat": 52.463121, "lng": 13.328818}], "distance": 901, "postalCode": "12163", "cc": "DE", "city": "Berlin", "state": "Berlin", "country": "Deutschland", "formattedAddress": ["Feuerbachstr. 16", "12163 Berlin", "Deutschland"]}, "categories": [{"id": "4bf58dd8d48988d149941735", "name": "Thai Restaurant", "pluralName": "Thai Restaurants", "shortName": "Thai", "icon": {"prefix": "https://ss3.4sqi.net/img/categories_v2/food/thai_", "suffix": ".png"}, "primary": true}], "photos": {"count": 0, "groups": []}}, "referralId": "e-0-4bd09962a8b3a5933537645f-23"}, {"reasons": {"count": 0, "items": [{"summary": "This spot is popular", "type": "general", "reasonName": "globalInteractionReason"}]}, "venue": {"id": "53a3055c498e8cd9ca2b4575", "name": "GM 26", "location": {"address": "Gutsmuthstra\u00dfe 26", "lat": 52.46440836775246, "lng": 13.326065804198047, "labeledLatLngs": [{"label": "display", "lat": 52.46440836775246, "lng": 13.326065804198047}], "distance": 791, "postalCode": "12163", "cc": "DE", "city": "Berlin", "state": "Berlin", "country": "Deutschland", "formattedAddress": ["Gutsmuthstra\u00dfe 26", "12163 Berlin", "Deutschland"]}, "categories": [{"id": "4bf58dd8d48988d16d941735", "name": "Caf\u00e9", "pluralName": "Caf\u00e9s", "shortName": "Caf\u00e9", "icon": {"prefix": "https://ss3.4sqi.net/img/categories_v2/food/cafe_", "suffix": ".png"}, "primary": true}], "photos": {"count": 0, "groups": []}}, "referralId": "e-0-53a3055c498e8cd9ca2b4575-24"}, {"reasons": {"count": 0, "items": [{"summary": "This spot is popular", "type": "general", "reasonName": "globalInteractionReason"}]}, "venue": {"id": "4ba1289bf964a520619d37e3", "name": "Celtic Cottage", "location": {"address": "Markelstr. 13", "crossStreet": "Hackerstr.", "lat": 52.4645796599391, "lng": 13.323546051979065, "labeledLatLngs": [{"label": "display", "lat": 52.4645796599391, "lng": 13.323546051979065}], "distance": 664, "postalCode": "12163", "cc": "DE", "city": "Berlin", "state": "Berlin", "country": "Deutschland", "formattedAddress": ["Markelstr. 13 (Hackerstr.)", "12163 Berlin", "Deutschland"]}, "categories": [{"id": "52e81612bcbc57f1066b7a06", "name": "Irish Pub", "pluralName": "Irish Pubs", "shortName": "Irish", "icon": {"prefix": "https://ss3.4sqi.net/img/categories_v2/nightlife/pub_", "suffix": ".png"}, "primary": true}], "photos": {"count": 0, "groups": []}, "venuePage": {"id": "68521874"}}, "referralId": "e-0-4ba1289bf964a520619d37e3-25"}, {"reasons": {"count": 0, "items": [{"summary": "This spot is popular", "type": "general", "reasonName": "globalInteractionReason"}]}, "venue": {"id": "4fc0a021e4b0f60183b753b0", "name": "dm-drogerie markt", "location": {"address": "Schlo\u00dfstr. 15", "lat": 52.46196325755358, "lng": 13.324949444264348, "labeledLatLngs": [{"label": "display", "lat": 52.46196325755358, "lng": 13.324949444264348}], "distance": 614, "postalCode": "12163", "cc": "DE", "city": "Berlin", "state": "Berlin", "country": "Deutschland", "formattedAddress": ["Schlo\u00dfstr. 15", "12163 Berlin", "Deutschland"]}, "categories": [{"id": "5745c2e4498e11e7bccabdbd", "name": "Drugstore", "pluralName": "Drugstores", "shortName": "Drugstore", "icon": {"prefix": "https://ss3.4sqi.net/img/categories_v2/shops/pharmacy_", "suffix": ".png"}, "primary": true}], "photos": {"count": 0, "groups": []}, "venuePage": {"id": "455531163"}}, "referralId": "e-0-4fc0a021e4b0f60183b753b0-26"}, {"reasons": {"count": 0, "items": [{"summary": "This spot is popular", "type": "general", "reasonName": "globalInteractionReason"}]}, "venue": {"id": "4dea5c0c18386283a3e2a1e4", "name": "Vinh-Loi Asien-Supermarkt", "location": {"address": "Gutsmuthsstr. 23-24", "lat": 52.46452932489478, "lng": 13.326179970593058, "labeledLatLngs": [{"label": "display", "lat": 52.46452932489478, "lng": 13.326179970593058}], "distance": 804, "postalCode": "12163", "cc": "DE", "city": "Berlin", "state": "Berlin", "country": "Deutschland", "formattedAddress": ["Gutsmuthsstr. 23-24", "12163 Berlin", "Deutschland"]}, "categories": [{"id": "4bf58dd8d48988d118951735", "name": "Grocery Store", "pluralName": "Grocery Stores", "shortName": "Grocery Store", "icon": {"prefix": "https://ss3.4sqi.net/img/categories_v2/shops/food_grocery_", "suffix": ".png"}, "primary": true}], "photos": {"count": 0, "groups": []}}, "referralId": "e-0-4dea5c0c18386283a3e2a1e4-27"}, {"reasons": {"count": 0, "items": [{"summary": "This spot is popular", "type": "general", "reasonName": "globalInteractionReason"}]}, "venue": {"id": "4d91d9109d0f721e09201f73", "name": "Zara", "location": {"address": "Boulevard Berlin", "lat": 52.46344455586442, "lng": 13.323580249679615, "labeledLatLngs": [{"label": "display", "lat": 52.46344455586442, "lng": 13.323580249679615}], "distance": 591, "cc": "DE", "city": "Berlin", "state": "Berlin", "country": "Deutschland", "formattedAddress": ["Boulevard Berlin", "Berlin", "Deutschland"]}, "categories": [{"id": "4bf58dd8d48988d103951735", "name": "Clothing Store", "pluralName": "Clothing Stores", "shortName": "Apparel", "icon": {"prefix": "https://ss3.4sqi.net/img/categories_v2/shops/apparel_", "suffix": ".png"}, "primary": true}], "photos": {"count": 0, "groups": []}}, "referralId": "e-0-4d91d9109d0f721e09201f73-28"}, {"reasons": {"count": 0, "items": [{"summary": "This spot is popular", "type": "general", "reasonName": "globalInteractionReason"}]}, "venue": {"id": "4adcda8ef964a520bb4a21e3", "name": "Werken Spielen Schenken", "location": {"address": "Schlo\u00dfstr. 110B", "lat": 52.461411796447734, "lng": 13.325291772826148, "labeledLatLngs": [{"label": "display", "lat": 52.461411796447734, "lng": 13.325291772826148}], "distance": 626, "postalCode": "12163", "cc": "DE", "city": "Berlin", "state": "Berlin", "country": "Deutschland", "formattedAddress": ["Schlo\u00dfstr. 110B", "12163 Berlin", "Deutschland"]}, "categories": [{"id": "4bf58dd8d48988d1f3941735", "name": "Toy / Game Store", "pluralName": "Toy / Game Stores", "shortName": "Toys & Games", "icon": {"prefix": "https://ss3.4sqi.net/img/categories_v2/shops/toys_", "suffix": ".png"}, "primary": true}], "photos": {"count": 0, "groups": []}, "venuePage": {"id": "165516315"}}, "referralId": "e-0-4adcda8ef964a520bb4a21e3-29"}, {"reasons": {"count": 0, "items": [{"summary": "This spot is popular", "type": "general", "reasonName": "globalInteractionReason"}]}, "venue": {"id": "4b5d79f2f964a520475e29e3", "name": "Nirwana", "location": {"address": "Schlo\u00dfstr. 49", "crossStreet": "Grenzburgstr.", "lat": 52.45405049997922, "lng": 13.31743205348137, "labeledLatLngs": [{"label": "display", "lat": 52.45405049997922, "lng": 13.31743205348137}], "distance": 742, "postalCode": "12165", "cc": "DE", "neighborhood": "Schlo\u00dfstra\u00dfe", "city": "Berlin", "state": "Berlin", "country": "Deutschland", "formattedAddress": ["Schlo\u00dfstr. 49 (Grenzburgstr.)", "12165 Berlin", "Deutschland"]}, "categories": [{"id": "4bf58dd8d48988d10f941735", "name": "Indian Restaurant", "pluralName": "Indian Restaurants", "shortName": "Indian", "icon": {"prefix": "https://ss3.4sqi.net/img/categories_v2/food/indian_", "suffix": ".png"}, "primary": true}], "photos": {"count": 0, "groups": []}}, "referralId": "e-0-4b5d79f2f964a520475e29e3-30"}, {"reasons": {"count": 0, "items": [{"summary": "This spot is popular", "type": "general", "reasonName": "globalInteractionReason"}]}, "venue": {"id": "4adcda81f964a520764821e3", "name": "Botanisches Museum", "location": {"address": "K\u00f6nigin-Luise-Str. 6-8", "lat": 52.45824261193094, "lng": 13.30500011754307, "labeledLatLngs": [{"label": "display", "lat": 52.45824261193094, "lng": 13.30500011754307}], "distance": 802, "postalCode": "14195", "cc": "DE", "city": "Berlin", "state": "Berlin", "country": "Deutschland", "formattedAddress": ["K\u00f6nigin-Luise-Str. 6-8", "14195 Berlin", "Deutschland"]}, "categories": [{"id": "4bf58dd8d48988d191941735", "name": "Science Museum", "pluralName": "Science Museums", "shortName": "Science Museum", "icon": {"prefix": "https://ss3.4sqi.net/img/categories_v2/arts_entertainment/museum_science_", "suffix": ".png"}, "primary": true}], "photos": {"count": 0, "groups": []}}, "referralId": "e-0-4adcda81f964a520764821e3-31"}, {"reasons": {"count": 0, "items": [{"summary": "This spot is popular", "type": "general", "reasonName": "globalInteractionReason"}]}, "venue": {"id": "4adcda8cf964a520184a21e3", "name": "Schlosspark Theater", "location": {"address": "Schlo\u00dfstr. 48", "crossStreet": "Wrangelstr.", "lat": 52.4548685256875, "lng": 13.318015336990356, "labeledLatLngs": [{"label": "display", "lat": 52.4548685256875, "lng": 13.318015336990356}], "distance": 658, "postalCode": "12165", "cc": "DE", "city": "Berlin", "state": "Berlin", "country": "Deutschland", "formattedAddress": ["Schlo\u00dfstr. 48 (Wrangelstr.)", "12165 Berlin", "Deutschland"]}, "categories": [{"id": "4bf58dd8d48988d137941735", "name": "Theater", "pluralName": "Theaters", "shortName": "Theater", "icon": {"prefix": "https://ss3.4sqi.net/img/categories_v2/arts_entertainment/performingarts_theater_", "suffix": ".png"}, "primary": true}], "photos": {"count": 0, "groups": []}}, "referralId": "e-0-4adcda8cf964a520184a21e3-32"}, {"reasons": {"count": 0, "items": [{"summary": "This spot is popular", "type": "general", "reasonName": "globalInteractionReason"}]}, "venue": {"id": "58764c0244689a67c6932586", "name": "UNIQLO", "location": {"address": "Schlo\u00dfstra\u00dfe 110", "lat": 52.46111589126425, "lng": 13.325146602203581, "labeledLatLngs": [{"label": "display", "lat": 52.46111589126425, "lng": 13.325146602203581}], "distance": 612, "postalCode": "12163", "cc": "DE", "city": "Berlin", "state": "Berlin", "country": "Deutschland", "formattedAddress": ["Schlo\u00dfstra\u00dfe 110", "12163 Berlin", "Deutschland"]}, "categories": [{"id": "4bf58dd8d48988d103951735", "name": "Clothing Store", "pluralName": "Clothing Stores", "shortName": "Apparel", "icon": {"prefix": "https://ss3.4sqi.net/img/categories_v2/shops/apparel_", "suffix": ".png"}, "primary": true}], "photos": {"count": 0, "groups": []}}, "referralId": "e-0-58764c0244689a67c6932586-33"}, {"reasons": {"count": 0, "items": [{"summary": "This spot is popular", "type": "general", "reasonName": "globalInteractionReason"}]}, "venue": {"id": "5489d16e498e29837d4ac40b", "name": "BurgerArt", "location": {"address": "Albrechtstr. 131", "lat": 52.45692794352542, "lng": 13.321505694284562, "labeledLatLngs": [{"label": "display", "lat": 52.45692794352542, "lng": 13.321505694284562}], "distance": 553, "postalCode": "12165", "cc": "DE", "city": "Berlin", "state": "Berlin", "country": "Deutschland", "formattedAddress": ["Albrechtstr. 131", "12165 Berlin", "Deutschland"]}, "categories": [{"id": "4bf58dd8d48988d16c941735", "name": "Burger Joint", "pluralName": "Burger Joints", "shortName": "Burgers", "icon": {"prefix": "https://ss3.4sqi.net/img/categories_v2/food/burger_", "suffix": ".png"}, "primary": true}], "photos": {"count": 0, "groups": []}}, "referralId": "e-0-5489d16e498e29837d4ac40b-34"}, {"reasons": {"count": 0, "items": [{"summary": "This spot is popular", "type": "general", "reasonName": "globalInteractionReason"}]}, "venue": {"id": "4f2d90416b740061f407198b", "name": "LUSH", "location": {"address": "Schlossstr. 15", "lat": 52.46202378988424, "lng": 13.325300216674805, "labeledLatLngs": [{"label": "display", "lat": 52.46202378988424, "lng": 13.325300216674805}], "distance": 639, "postalCode": "12163", "cc": "DE", "city": "Berlin", "state": "Berlin", "country": "Deutschland", "formattedAddress": ["Schlossstr. 15", "12163 Berlin", "Deutschland"]}, "categories": [{"id": "4bf58dd8d48988d10c951735", "name": "Cosmetics Shop", "pluralName": "Cosmetics Shops", "shortName": "Cosmetics", "icon": {"prefix": "https://ss3.4sqi.net/img/categories_v2/shops/beauty_cosmetic_", "suffix": ".png"}, "primary": true}], "photos": {"count": 0, "groups": []}}, "referralId": "e-0-4f2d90416b740061f407198b-35"}, {"reasons": {"count": 0, "items": [{"summary": "This spot is popular", "type": "general", "reasonName": "globalInteractionReason"}]}, "venue": {"id": "4f7ad51ee4b0bd4c7c03d8a5", "name": "Boulevard Berlin", "location": {"address": "Schlo\u00dfstr. 10-15", "lat": 52.46276757703697, "lng": 13.324544948606071, "labeledLatLngs": [{"label": "display", "lat": 52.46276757703697, "lng": 13.324544948606071}], "distance": 615, "postalCode": "12163", "cc": "DE", "city": "Berlin", "state": "Berlin", "country": "Deutschland", "formattedAddress": ["Schlo\u00dfstr. 10-15", "12163 Berlin", "Deutschland"]}, "categories": [{"id": "4bf58dd8d48988d1fd941735", "name": "Shopping Mall", "pluralName": "Shopping Malls", "shortName": "Mall", "icon": {"prefix": "https://ss3.4sqi.net/img/categories_v2/shops/mall_", "suffix": ".png"}, "primary": true}], "photos": {"count": 0, "groups": []}, "venuePage": {"id": "68200591"}}, "referralId": "e-0-4f7ad51ee4b0bd4c7c03d8a5-36"}, {"reasons": {"count": 0, "items": [{"summary": "This spot is popular", "type": "general", "reasonName": "globalInteractionReason"}]}, "venue": {"id": "4b62e4edf964a520a7572ae3", "name": "Galeria Karstadt Kaufhof", "location": {"address": "Schlo\u00dfstr. 7-10", "lat": 52.46287074, "lng": 13.32589391, "labeledLatLngs": [{"label": "display", "lat": 52.46287074, "lng": 13.32589391}], "distance": 705, "postalCode": "12163", "cc": "DE", "city": "Berlin", "state": "Berlin", "country": "Deutschland", "formattedAddress": ["Schlo\u00dfstr. 7-10", "12163 Berlin", "Deutschland"]}, "categories": [{"id": "4bf58dd8d48988d1f6941735", "name": "Department Store", "pluralName": "Department Stores", "shortName": "Department Store", "icon": {"prefix": "https://ss3.4sqi.net/img/categories_v2/shops/departmentstore_", "suffix": ".png"}, "primary": true}], "photos": {"count": 0, "groups": []}}, "referralId": "e-0-4b62e4edf964a520a7572ae3-37"}, {"reasons": {"count": 0, "items": [{"summary": "This spot is popular", "type": "general", "reasonName": "globalInteractionReason"}]}, "venue": {"id": "55e70aa4498e15d7b438786c", "name": "Kaffeefleck 41", "location": {"address": "Schlossstr. 128", "lat": 52.4644, "lng": 13.3277, "labeledLatLngs": [{"label": "display", "lat": 52.4644, "lng": 13.3277}], "distance": 886, "postalCode": "12163", "cc": "DE", "city": "Berlin", "state": "Berlin", "country": "Deutschland", "formattedAddress": ["Schlossstr. 128", "12163 Berlin", "Deutschland"]}, "categories": [{"id": "4bf58dd8d48988d16d941735", "name": "Caf\u00e9", "pluralName": "Caf\u00e9s", "shortName": "Caf\u00e9", "icon": {"prefix": "https://ss3.4sqi.net/img/categories_v2/food/cafe_", "suffix": ".png"}, "primary": true}], "photos": {"count": 0, "groups": []}}, "referralId": "e-0-55e70aa4498e15d7b438786c-38"}, {"reasons": {"count": 0, "items": [{"summary": "This spot is popular", "type": "general", "reasonName": "globalInteractionReason"}]}, "venue": {"id": "4c0ced507189c9282c26d6b6", "name": "Falafel Baba", "location": {"address": "Hubertusstr. 1", "lat": 52.46051220292119, "lng": 13.324545535082871, "labeledLatLngs": [{"label": "display", "lat": 52.46051220292119, "lng": 13.324545535082871}], "distance": 570, "postalCode": "12163", "cc": "DE", "city": "Berlin", "state": "Berlin", "country": "Deutschland", "formattedAddress": ["Hubertusstr. 1", "12163 Berlin", "Deutschland"]}, "categories": [{"id": "4bf58dd8d48988d10b941735", "name": "Falafel Restaurant", "pluralName": "Falafel Restaurants", "shortName": "Falafel", "icon": {"prefix": "https://ss3.4sqi.net/img/categories_v2/food/falafel_", "suffix": ".png"}, "primary": true}], "photos": {"count": 0, "groups": []}}, "referralId": "e-0-4c0ced507189c9282c26d6b6-39"}, {"reasons": {"count": 0, "items": [{"summary": "This spot is popular", "type": "general", "reasonName": "globalInteractionReason"}]}, "venue": {"id": "5b115d492f97ec002c69d8a9", "name": "dm-drogerie markt", "location": {"address": "Albrechtstra\u00dfe 3", "crossStreet": "Am Steglitzer Kreisel", "lat": 52.456366, "lng": 13.321946, "labeledLatLngs": [{"label": "display", "lat": 52.456366, "lng": 13.321946}], "distance": 620, "postalCode": "12165", "cc": "DE", "neighborhood": "Schlo\u00dfstra\u00dfe", "city": "Berlin", "state": "Berlin", "country": "Deutschland", "formattedAddress": ["Albrechtstra\u00dfe 3 (Am Steglitzer Kreisel)", "12165 Berlin", "Deutschland"]}, "categories": [{"id": "5745c2e4498e11e7bccabdbd", "name": "Drugstore", "pluralName": "Drugstores", "shortName": "Drugstore", "icon": {"prefix": "https://ss3.4sqi.net/img/categories_v2/shops/pharmacy_", "suffix": ".png"}, "primary": true}], "photos": {"count": 0, "groups": []}}, "referralId": "e-0-5b115d492f97ec002c69d8a9-40"}, {"reasons": {"count": 0, "items": [{"summary": "This spot is popular", "type": "general", "reasonName": "globalInteractionReason"}]}, "venue": {"id": "4c13542ba9c220a1229a559d", "name": "Naturkaufhaus", "location": {"address": "Schlo\u00dfstr. 101", "crossStreet": "Deitmerstr.", "lat": 52.45970710098464, "lng": 13.32367783332205, "labeledLatLngs": [{"label": "display", "lat": 52.45970710098464, "lng": 13.32367783332205}], "distance": 522, "postalCode": "12163", "cc": "DE", "city": "Berlin", "state": "Berlin", "country": "Deutschland", "formattedAddress": ["Schlo\u00dfstr. 101 (Deitmerstr.)", "12163 Berlin", "Deutschland"]}, "categories": [{"id": "4bf58dd8d48988d1f6941735", "name": "Department Store", "pluralName": "Department Stores", "shortName": "Department Store", "icon": {"prefix": "https://ss3.4sqi.net/img/categories_v2/shops/departmentstore_", "suffix": ".png"}, "primary": true}], "photos": {"count": 0, "groups": []}}, "referralId": "e-0-4c13542ba9c220a1229a559d-41"}, {"reasons": {"count": 0, "items": [{"summary": "This spot is popular", "type": "general", "reasonName": "globalInteractionReason"}]}, "venue": {"id": "556efb15498eb14957b869a3", "name": "Caras", "location": {"address": "Schlo\u00dfstr. 120", "crossStreet": "Feuerbachstr.", "lat": 52.46290626818433, "lng": 13.3268666267395, "labeledLatLngs": [{"label": "display", "lat": 52.46290626818433, "lng": 13.3268666267395}], "distance": 768, "postalCode": "12163", "cc": "DE", "city": "Berlin", "state": "Berlin", "country": "Deutschland", "formattedAddress": ["Schlo\u00dfstr. 120 (Feuerbachstr.)", "12163 Berlin", "Deutschland"]}, "categories": [{"id": "4bf58dd8d48988d1e0931735", "name": "Coffee Shop", "pluralName": "Coffee Shops", "shortName": "Coffee Shop", "icon": {"prefix": "https://ss3.4sqi.net/img/categories_v2/food/coffeeshop_", "suffix": ".png"}, "primary": true}], "photos": {"count": 0, "groups": []}}, "referralId": "e-0-556efb15498eb14957b869a3-42"}, {"reasons": {"count": 0, "items": [{"summary": "This spot is popular", "type": "general", "reasonName": "globalInteractionReason"}]}, "venue": {"id": "4c4f4c6892b6a5939f305771", "name": "Udagawa", "location": {"address": "Feuerbachstr. 24", "lat": 52.46331, "lng": 13.329913, "labeledLatLngs": [{"label": "display", "lat": 52.46331, "lng": 13.329913}], "distance": 979, "postalCode": "12163", "cc": "DE", "city": "Berlin", "state": "Berlin", "country": "Deutschland", "formattedAddress": ["Feuerbachstr. 24", "12163 Berlin", "Deutschland"]}, "categories": [{"id": "4bf58dd8d48988d111941735", "name": "Japanese Restaurant", "pluralName": "Japanese Restaurants", "shortName": "Japanese", "icon": {"prefix": "https://ss3.4sqi.net/img/categories_v2/food/japanese_", "suffix": ".png"}, "primary": true}], "photos": {"count": 0, "groups": []}}, "referralId": "e-0-4c4f4c6892b6a5939f305771-43"}, {"reasons": {"count": 0, "items": [{"summary": "This spot is popular", "type": "general", "reasonName": "globalInteractionReason"}]}, "venue": {"id": "5040fc36e4b09fb67a704f4c", "name": "Trattoria Siciliana", "location": {"address": "Bergstr. 7", "lat": 52.45791548, "lng": 13.32898434, "labeledLatLngs": [{"label": "display", "lat": 52.45791548, "lng": 13.32898434}], "distance": 923, "postalCode": "12169", "cc": "DE", "city": "Berlin", "state": "Berlin", "country": "Deutschland", "formattedAddress": ["Bergstr. 7", "12169 Berlin", "Deutschland"]}, "categories": [{"id": "55a5a1ebe4b013909087cb7f", "name": "Trattoria/Osteria", "pluralName": "Trattorias/Osterias", "shortName": "Trattoria/Osteria", "icon": {"prefix": "https://ss3.4sqi.net/img/categories_v2/food/italian_", "suffix": ".png"}, "primary": true}], "photos": {"count": 0, "groups": []}, "venuePage": {"id": "558623067"}}, "referralId": "e-0-5040fc36e4b09fb67a704f4c-44"}, {"reasons": {"count": 0, "items": [{"summary": "This spot is popular", "type": "general", "reasonName": "globalInteractionReason"}]}, "venue": {"id": "4bd9d58d3f01c9b6c15053a5", "name": "Finnegan's Irish Pub", "location": {"address": "Bergstr. 8", "lat": 52.45811897118354, "lng": 13.32949372692403, "labeledLatLngs": [{"label": "display", "lat": 52.45811897118354, "lng": 13.32949372692403}], "distance": 949, "postalCode": "12169", "cc": "DE", "city": "Berlin", "state": "Berlin", "country": "Deutschland", "formattedAddress": ["Bergstr. 8", "12169 Berlin", "Deutschland"]}, "categories": [{"id": "52e81612bcbc57f1066b7a06", "name": "Irish Pub", "pluralName": "Irish Pubs", "shortName": "Irish", "icon": {"prefix": "https://ss3.4sqi.net/img/categories_v2/nightlife/pub_", "suffix": ".png"}, "primary": true}], "photos": {"count": 0, "groups": []}}, "referralId": "e-0-4bd9d58d3f01c9b6c15053a5-45"}, {"reasons": {"count": 0, "items": [{"summary": "This spot is popular", "type": "general", "reasonName": "globalInteractionReason"}]}, "venue": {"id": "51386924e4b008084942c4cf", "name": "Zaim Falafel - libanesische & vegetarische Spezialit\u00e4ten", "location": {"address": "Rheinstra\u00dfe 40", "crossStreet": "Sch\u00f6neberger Stra\u00dfe", "lat": 52.46520368031719, "lng": 13.328580398235358, "labeledLatLngs": [{"label": "display", "lat": 52.46520368031719, "lng": 13.328580398235358}], "distance": 982, "cc": "DE", "city": "Berlin", "state": "Berlin", "country": "Deutschland", "formattedAddress": ["Rheinstra\u00dfe 40 (Sch\u00f6neberger Stra\u00dfe)", "Berlin", "Deutschland"]}, "categories": [{"id": "4bf58dd8d48988d10b941735", "name": "Falafel Restaurant", "pluralName": "Falafel Restaurants", "shortName": "Falafel", "icon": {"prefix": "https://ss3.4sqi.net/img/categories_v2/food/falafel_", "suffix": ".png"}, "primary": true}], "photos": {"count": 0, "groups": []}}, "referralId": "e-0-51386924e4b008084942c4cf-46"}, {"reasons": {"count": 0, "items": [{"summary": "This spot is popular", "type": "general", "reasonName": "globalInteractionReason"}]}, "venue": {"id": "4da744b44b22cb9c5c20212a", "name": "Hee Lam Mun", "location": {"address": "Grunewaldstr. 23", "lat": 52.45986508537131, "lng": 13.312032758818013, "labeledLatLngs": [{"label": "display", "lat": 52.45986508537131, "lng": 13.312032758818013}], "distance": 292, "postalCode": "12163", "cc": "DE", "city": "Berlin", "state": "Berlin", "country": "Deutschland", "formattedAddress": ["Grunewaldstr. 23", "12163 Berlin", "Deutschland"]}, "categories": [{"id": "4bf58dd8d48988d145941735", "name": "Chinese Restaurant", "pluralName": "Chinese Restaurants", "shortName": "Chinese", "icon": {"prefix": "https://ss3.4sqi.net/img/categories_v2/food/asian_", "suffix": ".png"}, "primary": true}], "photos": {"count": 0, "groups": []}}, "referralId": "e-0-4da744b44b22cb9c5c20212a-47"}, {"reasons": {"count": 0, "items": [{"summary": "This spot is popular", "type": "general", "reasonName": "globalInteractionReason"}]}, "venue": {"id": "559e7c48498e877f08540314", "name": "Starbucks", "location": {"address": "Schlo\u00dfstr. 129", "crossStreet": "Walther-Schreiber-Platz", "lat": 52.464548711422275, "lng": 13.328019172769352, "labeledLatLngs": [{"label": "display", "lat": 52.464548711422275, "lng": 13.328019172769352}], "distance": 913, "postalCode": "12163", "cc": "DE", "city": "Berlin", "state": "Berlin", "country": "Deutschland", "formattedAddress": ["Schlo\u00dfstr. 129 (Walther-Schreiber-Platz)", "12163 Berlin", "Deutschland"]}, "categories": [{"id": "4bf58dd8d48988d1e0931735", "name": "Coffee Shop", "pluralName": "Coffee Shops", "shortName": "Coffee Shop", "icon": {"prefix": "https://ss3.4sqi.net/img/categories_v2/food/coffeeshop_", "suffix": ".png"}, "primary": true}], "photos": {"count": 0, "groups": []}}, "referralId": "e-0-559e7c48498e877f08540314-48"}, {"reasons": {"count": 0, "items": [{"summary": "This spot is popular", "type": "general", "reasonName": "globalInteractionReason"}]}, "venue": {"id": "588e1803cf445158613151a8", "name": "Osteria Angelini", "location": {"lat": 52.453682, "lng": 13.315453, "labeledLatLngs": [{"label": "display", "lat": 52.453682, "lng": 13.315453}], "distance": 779, "postalCode": "12165", "cc": "DE", "city": "Berlin", "state": "Berlin", "country": "Deutschland", "formattedAddress": ["12165 Berlin", "Deutschland"]}, "categories": [{"id": "4bf58dd8d48988d110941735", "name": "Italian Restaurant", "pluralName": "Italian Restaurants", "shortName": "Italian", "icon": {"prefix": "https://ss3.4sqi.net/img/categories_v2/food/italian_", "suffix": ".png"}, "primary": true}], "photos": {"count": 0, "groups": []}}, "referralId": "e-0-588e1803cf445158613151a8-49"}, {"reasons": {"count": 0, "items": [{"summary": "This spot is popular", "type": "general", "reasonName": "globalInteractionReason"}]}, "venue": {"id": "509d393ae4b0524f3fdbe8f9", "name": "Clandestine", "location": {"address": "Berlinickestr. 1a", "crossStreet": "Rugestr.", "lat": 52.452930943866434, "lng": 13.319813912438292, "labeledLatLngs": [{"label": "display", "lat": 52.452930943866434, "lng": 13.319813912438292}], "distance": 897, "postalCode": "12165", "cc": "DE", "city": "Berlin", "state": "Berlin", "country": "Deutschland", "formattedAddress": ["Berlinickestr. 1a (Rugestr.)", "12165 Berlin", "Deutschland"]}, "categories": [{"id": "4bf58dd8d48988d116941735", "name": "Bar", "pluralName": "Bars", "shortName": "Bar", "icon": {"prefix": "https://ss3.4sqi.net/img/categories_v2/nightlife/pub_", "suffix": ".png"}, "primary": true}], "photos": {"count": 0, "groups": []}}, "referralId": "e-0-509d393ae4b0524f3fdbe8f9-50"}, {"reasons": {"count": 0, "items": [{"summary": "This spot is popular", "type": "general", "reasonName": "globalInteractionReason"}]}, "venue": {"id": "50d43f0eb0ed8906dde4afbe", "name": "Blumen Olli", "location": {"address": "S\u00fcdwestkorso 32", "lat": 52.46794586081388, "lng": 13.31045150756836, "labeledLatLngs": [{"label": "display", "lat": 52.46794586081388, "lng": 13.31045150756836}], "distance": 896, "postalCode": "14197", "cc": "DE", "city": "Berlin", "state": "Berlin", "country": "Deutschland", "formattedAddress": ["S\u00fcdwestkorso 32", "14197 Berlin", "Deutschland"]}, "categories": [{"id": "4bf58dd8d48988d11b951735", "name": "Flower Shop", "pluralName": "Flower Shops", "shortName": "Flower Shop", "icon": {"prefix": "https://ss3.4sqi.net/img/categories_v2/shops/flowershop_", "suffix": ".png"}, "primary": true}], "photos": {"count": 0, "groups": []}}, "referralId": "e-0-50d43f0eb0ed8906dde4afbe-51"}, {"reasons": {"count": 0, "items": [{"summary": "This spot is popular", "type": "general", "reasonName": "globalInteractionReason"}]}, "venue": {"id": "4dd77ea32271c5d36d3c9222", "name": "Gustav-Mahler-Platz", "location": {"address": "Gustav-Mahler-Platz", "crossStreet": "R\u00fcckertstr. / Englerallee", "lat": 52.46099864886969, "lng": 13.304627475075986, "labeledLatLngs": [{"label": "display", "lat": 52.46099864886969, "lng": 13.304627475075986}], "distance": 781, "postalCode": "12163", "cc": "DE", "city": "Berlin", "state": "Berlin", "country": "Deutschland", "formattedAddress": ["Gustav-Mahler-Platz (R\u00fcckertstr. / Englerallee)", "12163 Berlin", "Deutschland"]}, "categories": [{"id": "4bf58dd8d48988d163941735", "name": "Park", "pluralName": "Parks", "shortName": "Park", "icon": {"prefix": "https://ss3.4sqi.net/img/categories_v2/parks_outdoors/park_", "suffix": ".png"}, "primary": true}], "photos": {"count": 0, "groups": []}}, "referralId": "e-0-4dd77ea32271c5d36d3c9222-52"}, {"reasons": {"count": 0, "items": [{"summary": "This spot is popular", "type": "general", "reasonName": "globalInteractionReason"}]}, "venue": {"id": "4c0106eb19d8c928a3278829", "name": "basic BIO-Supermarkt", "location": {"address": "Bundesallee 104 - 105", "lat": 52.46522875670386, "lng": 13.32851123744503, "labeledLatLngs": [{"label": "display", "lat": 52.46522875670386, "lng": 13.32851123744503}], "distance": 980, "postalCode": "12161", "cc": "DE", "city": "Berlin", "state": "Berlin", "country": "Deutschland", "formattedAddress": ["Bundesallee 104 - 105", "12161 Berlin", "Deutschland"]}, "categories": [{"id": "52f2ab2ebcbc57f1066b8b45", "name": "Organic Grocery", "pluralName": "Organic Groceries", "shortName": "Organic Grocery", "icon": {"prefix": "https://ss3.4sqi.net/img/categories_v2/shops/food_grocery_", "suffix": ".png"}, "primary": true}], "photos": {"count": 0, "groups": []}}, "referralId": "e-0-4c0106eb19d8c928a3278829-53"}, {"reasons": {"count": 0, "items": [{"summary": "This spot is popular", "type": "general", "reasonName": "globalInteractionReason"}]}, "venue": {"id": "4adcda87f964a5202d4921e3", "name": "Ristorante Piazza Michelangelo Trattoria", "location": {"address": "Breitenbachplatz 4", "lat": 52.467864408676995, "lng": 13.309183069457363, "labeledLatLngs": [{"label": "display", "lat": 52.467864408676995, "lng": 13.309183069457363}], "distance": 929, "postalCode": "14195", "cc": "DE", "city": "Berlin", "state": "Berlin", "country": "Deutschland", "formattedAddress": ["Breitenbachplatz 4", "14195 Berlin", "Deutschland"]}, "categories": [{"id": "55a5a1ebe4b013909087cb7f", "name": "Trattoria/Osteria", "pluralName": "Trattorias/Osterias", "shortName": "Trattoria/Osteria", "icon": {"prefix": "https://ss3.4sqi.net/img/categories_v2/food/italian_", "suffix": ".png"}, "primary": true}], "photos": {"count": 0, "groups": []}}, "referralId": "e-0-4adcda87f964a5202d4921e3-54"}, {"reasons": {"count": 0, "items": [{"summary": "This spot is popular", "type": "general", "reasonName": "globalInteractionReason"}]}, "venue": {"id": "4b59e1aaf964a520049e28e3", "name": "Fabecks", "location": {"address": "Englerallee 42", "lat": 52.4591301, "lng": 13.3044112, "labeledLatLngs": [{"label": "display", "lat": 52.4591301, "lng": 13.3044112}], "distance": 813, "postalCode": "14195", "cc": "DE", "city": "Berlin", "state": "Berlin", "country": "Deutschland", "formattedAddress": ["Englerallee 42", "14195 Berlin", "Deutschland"]}, "categories": [{"id": "4bf58dd8d48988d10d941735", "name": "German Restaurant", "pluralName": "German Restaurants", "shortName": "German", "icon": {"prefix": "https://ss3.4sqi.net/img/categories_v2/food/german_", "suffix": ".png"}, "primary": true}], "photos": {"count": 0, "groups": []}}, "referralId": "e-0-4b59e1aaf964a520049e28e3-55"}, {"reasons": {"count": 0, "items": [{"summary": "This spot is popular", "type": "general", "reasonName": "globalInteractionReason"}]}, "venue": {"id": "4bf7bbb15317a593107ffe7e", "name": "Filoxenia", "location": {"address": "Ma\u00dfmannstra\u00dfe 11", "crossStreet": "kreuznacher str", "lat": 52.46686306590093, "lng": 13.320172468633196, "labeledLatLngs": [{"label": "display", "lat": 52.46686306590093, "lng": 13.320172468633196}], "distance": 741, "postalCode": "12163", "cc": "DE", "city": "Berlin", "state": "Berlin", "country": "Deutschland", "formattedAddress": ["Ma\u00dfmannstra\u00dfe 11 (kreuznacher str)", "12163 Berlin", "Deutschland"]}, "categories": [{"id": "4bf58dd8d48988d10e941735", "name": "Greek Restaurant", "pluralName": "Greek Restaurants", "shortName": "Greek", "icon": {"prefix": "https://ss3.4sqi.net/img/categories_v2/food/greek_", "suffix": ".png"}, "primary": true}], "photos": {"count": 0, "groups": []}}, "referralId": "e-0-4bf7bbb15317a593107ffe7e-56"}, {"reasons": {"count": 0, "items": [{"summary": "This spot is popular", "type": "general", "reasonName": "globalInteractionReason"}]}, "venue": {"id": "527b6e5f498e471d7009b10d", "name": "Mittelmeerhaus", "location": {"address": "K\u00f6nigin-Luise-Str. 6-8", "lat": 52.45542098357651, "lng": 13.307554721832275, "labeledLatLngs": [{"label": "display", "lat": 52.45542098357651, "lng": 13.307554721832275}], "distance": 825, "postalCode": "14195", "cc": "DE", "neighborhood": "Drakestra\u00dfe", "city": "Berlin", "state": "Berlin", "country": "Deutschland", "formattedAddress": ["K\u00f6nigin-Luise-Str. 6-8", "14195 Berlin", "Deutschland"]}, "categories": [{"id": "52e81612bcbc57f1066b7a22", "name": "Botanical Garden", "pluralName": "Botanical Gardens", "shortName": "Botanical Garden", "icon": {"prefix": "https://ss3.4sqi.net/img/categories_v2/parks_outdoors/botanicalgarden_", "suffix": ".png"}, "primary": true}], "photos": {"count": 0, "groups": []}}, "referralId": "e-0-527b6e5f498e471d7009b10d-57"}, {"reasons": {"count": 0, "items": [{"summary": "This spot is popular", "type": "general", "reasonName": "globalInteractionReason"}]}, "venue": {"id": "4eca37a88b81dcfdc69a78d9", "name": "SUBWAY", "location": {"address": "Walther Schreiber Platz 1", "lat": 52.465530862080136, "lng": 13.32773863469697, "labeledLatLngs": [{"label": "display", "lat": 52.465530862080136, "lng": 13.32773863469697}], "distance": 954, "postalCode": "12161", "cc": "DE", "city": "Berlin", "state": "Berlin", "country": "Deutschland", "formattedAddress": ["Walther Schreiber Platz 1", "12161 Berlin", "Deutschland"]}, "categories": [{"id": "4bf58dd8d48988d1c5941735", "name": "Sandwich Place", "pluralName": "Sandwich Places", "shortName": "Sandwiches", "icon": {"prefix": "https://ss3.4sqi.net/img/categories_v2/food/deli_", "suffix": ".png"}, "primary": true}], "photos": {"count": 0, "groups": []}, "venuePage": {"id": "574003940"}}, "referralId": "e-0-4eca37a88b81dcfdc69a78d9-58"}, {"reasons": {"count": 0, "items": [{"summary": "This spot is popular", "type": "general", "reasonName": "globalInteractionReason"}]}, "venue": {"id": "4c1a599cb306c928c37360b7", "name": "Cyberport Store", "location": {"address": "Walther-Schreiber-Platz 1", "lat": 52.46561928225642, "lng": 13.328362366387148, "labeledLatLngs": [{"label": "display", "lat": 52.46561928225642, "lng": 13.328362366387148}], "distance": 995, "postalCode": "12161", "cc": "DE", "city": "Berlin", "state": "Berlin", "country": "Deutschland", "formattedAddress": ["Walther-Schreiber-Platz 1", "12161 Berlin", "Deutschland"]}, "categories": [{"id": "4bf58dd8d48988d122951735", "name": "Electronics Store", "pluralName": "Electronics Stores", "shortName": "Electronics", "icon": {"prefix": "https://ss3.4sqi.net/img/categories_v2/shops/technology_", "suffix": ".png"}, "primary": true}], "photos": {"count": 0, "groups": []}}, "referralId": "e-0-4c1a599cb306c928c37360b7-59"}, {"reasons": {"count": 0, "items": [{"summary": "This spot is popular", "type": "general", "reasonName": "globalInteractionReason"}]}, "venue": {"id": "506d9f74e4b09e74d869d8c5", "name": "REWE", "location": {"address": "Walther-Schreiber-Platz 1", "crossStreet": "Schloss-Str.n-Center", "lat": 52.465898, "lng": 13.3277331, "labeledLatLngs": [{"label": "display", "lat": 52.465898, "lng": 13.3277331}], "distance": 977, "postalCode": "12161", "cc": "DE", "city": "Berlin", "state": "Berlin", "country": "Deutschland", "formattedAddress": ["Walther-Schreiber-Platz 1 (Schloss-Str.n-Center)", "12161 Berlin", "Deutschland"]}, "categories": [{"id": "52f2ab2ebcbc57f1066b8b46", "name": "Supermarket", "pluralName": "Supermarkets", "shortName": "Supermarket", "icon": {"prefix": "https://ss3.4sqi.net/img/categories_v2/shops/food_grocery_", "suffix": ".png"}, "primary": true}], "photos": {"count": 0, "groups": []}, "venuePage": {"id": "558114651"}}, "referralId": "e-0-506d9f74e4b09e74d869d8c5-60"}, {"reasons": {"count": 0, "items": [{"summary": "This spot is popular", "type": "general", "reasonName": "globalInteractionReason"}]}, "venue": {"id": "4d7fddc49d78a35d1eb0370f", "name": "Aral", "location": {"address": "Schlo\u00dfstra\u00dfe 63-64", "lat": 52.453220647501304, "lng": 13.315276865442009, "labeledLatLngs": [{"label": "display", "lat": 52.453220647501304, "lng": 13.315276865442009}], "distance": 831, "postalCode": "12165", "cc": "DE", "city": "Berlin", "state": "Berlin", "country": "Deutschland", "formattedAddress": ["Schlo\u00dfstra\u00dfe 63-64", "12165 Berlin", "Deutschland"]}, "categories": [{"id": "4bf58dd8d48988d113951735", "name": "Gas Station", "pluralName": "Gas Stations", "shortName": "Gas Station", "icon": {"prefix": "https://ss3.4sqi.net/img/categories_v2/shops/gas_", "suffix": ".png"}, "primary": true}], "photos": {"count": 0, "groups": []}, "venuePage": {"id": "582195999"}}, "referralId": "e-0-4d7fddc49d78a35d1eb0370f-61"}, {"reasons": {"count": 0, "items": [{"summary": "This spot is popular", "type": "general", "reasonName": "globalInteractionReason"}]}, "venue": {"id": "4e4fa1ffd4c0b6da5d801c8b", "name": "Lidl", "location": {"address": "Bergstr. 86", "lat": 52.4584343, "lng": 13.3300178, "labeledLatLngs": [{"label": "display", "lat": 52.4584343, "lng": 13.3300178}], "distance": 973, "postalCode": "12169", "cc": "DE", "city": "Berlin", "state": "Berlin", "country": "Deutschland", "formattedAddress": ["Bergstr. 86", "12169 Berlin", "Deutschland"]}, "categories": [{"id": "52f2ab2ebcbc57f1066b8b46", "name": "Supermarket", "pluralName": "Supermarkets", "shortName": "Supermarket", "icon": {"prefix": "https://ss3.4sqi.net/img/categories_v2/shops/food_grocery_", "suffix": ".png"}, "primary": true}], "photos": {"count": 0, "groups": []}, "venuePage": {"id": "578267925"}}, "referralId": "e-0-4e4fa1ffd4c0b6da5d801c8b-62"}, {"reasons": {"count": 0, "items": [{"summary": "This spot is popular", "type": "general", "reasonName": "globalInteractionReason"}]}, "venue": {"id": "5c5dc3d6898bdc002cd70026", "name": "REWE", "location": {"address": "S\u00fcdwestkorso 36", "lat": 52.46849371292595, "lng": 13.311755399197182, "labeledLatLngs": [{"label": "display", "lat": 52.46849371292595, "lng": 13.311755399197182}], "distance": 919, "postalCode": "14197", "cc": "DE", "city": "Berlin", "state": "Berlin", "country": "Deutschland", "formattedAddress": ["S\u00fcdwestkorso 36", "14197 Berlin", "Deutschland"]}, "categories": [{"id": "52f2ab2ebcbc57f1066b8b46", "name": "Supermarket", "pluralName": "Supermarkets", "shortName": "Supermarket", "icon": {"prefix": "https://ss3.4sqi.net/img/categories_v2/shops/food_grocery_", "suffix": ".png"}, "primary": true}], "photos": {"count": 0, "groups": []}, "venuePage": {"id": "575027075"}}, "referralId": "e-0-5c5dc3d6898bdc002cd70026-63"}, {"reasons": {"count": 0, "items": [{"summary": "This spot is popular", "type": "general", "reasonName": "globalInteractionReason"}]}, "venue": {"id": "4d74cea09498548199572e7e", "name": "Walther-Schreiber-Platz", "location": {"address": "Walther-Schreiber-Platz", "lat": 52.465235178453845, "lng": 13.328501684910712, "labeledLatLngs": [{"label": "display", "lat": 52.465235178453845, "lng": 13.328501684910712}], "distance": 980, "postalCode": "12161", "cc": "DE", "city": "Berlin", "state": "Berlin", "country": "Deutschland", "formattedAddress": ["Walther-Schreiber-Platz", "12161 Berlin", "Deutschland"]}, "categories": [{"id": "4bf58dd8d48988d164941735", "name": "Plaza", "pluralName": "Plazas", "shortName": "Plaza", "icon": {"prefix": "https://ss3.4sqi.net/img/categories_v2/parks_outdoors/plaza_", "suffix": ".png"}, "primary": true}], "photos": {"count": 0, "groups": []}}, "referralId": "e-0-4d74cea09498548199572e7e-64"}, {"reasons": {"count": 0, "items": [{"summary": "This spot is popular", "type": "general", "reasonName": "globalInteractionReason"}]}, "venue": {"id": "519b2350498e6e1b383120f0", "name": "Fitness First Women Club", "location": {"address": "Walther-Schreiber-Platz 1", "lat": 52.46536894276149, "lng": 13.327805399894714, "labeledLatLngs": [{"label": "display", "lat": 52.46536894276149, "lng": 13.327805399894714}], "distance": 948, "postalCode": "12161", "cc": "DE", "neighborhood": "Friedenau", "city": "Berlin", "state": "Berlin", "country": "Deutschland", "formattedAddress": ["Walther-Schreiber-Platz 1", "12161 Berlin", "Deutschland"]}, "categories": [{"id": "4bf58dd8d48988d175941735", "name": "Gym / Fitness Center", "pluralName": "Gyms or Fitness Centers", "shortName": "Gym / Fitness", "icon": {"prefix": "https://ss3.4sqi.net/img/categories_v2/building/gym_", "suffix": ".png"}, "primary": true}], "photos": {"count": 0, "groups": []}}, "referralId": "e-0-519b2350498e6e1b383120f0-65"}, {"reasons": {"count": 0, "items": [{"summary": "This spot is popular", "type": "general", "reasonName": "globalInteractionReason"}]}, "venue": {"id": "4e08362bd1640223a4a1806d", "name": "Aral", "location": {"address": "S\u00fcdwestkorso 36A", "lat": 52.46820627080912, "lng": 13.311103911638407, "labeledLatLngs": [{"label": "display", "lat": 52.46820627080912, "lng": 13.311103911638407}], "distance": 905, "postalCode": "14197", "cc": "DE", "city": "Berlin", "state": "Berlin", "country": "Deutschland", "formattedAddress": ["S\u00fcdwestkorso 36A", "14197 Berlin", "Deutschland"]}, "categories": [{"id": "4bf58dd8d48988d113951735", "name": "Gas Station", "pluralName": "Gas Stations", "shortName": "Gas Station", "icon": {"prefix": "https://ss3.4sqi.net/img/categories_v2/shops/gas_", "suffix": ".png"}, "primary": true}], "photos": {"count": 0, "groups": []}}, "referralId": "e-0-4e08362bd1640223a4a1806d-66"}, {"reasons": {"count": 0, "items": [{"summary": "This spot is popular", "type": "general", "reasonName": "globalInteractionReason"}]}, "venue": {"id": "511a1f91e4b0f9aeb9bc024c", "name": "Restaurant Englers", "location": {"address": "Englerallee 42", "lat": 52.459, "lng": 13.304266, "labeledLatLngs": [{"label": "display", "lat": 52.459, "lng": 13.304266}], "distance": 826, "postalCode": "14195", "cc": "DE", "city": "Berlin", "state": "Berlin", "country": "Deutschland", "formattedAddress": ["Englerallee 42", "14195 Berlin", "Deutschland"]}, "categories": [{"id": "4bf58dd8d48988d10d941735", "name": "German Restaurant", "pluralName": "German Restaurants", "shortName": "German", "icon": {"prefix": "https://ss3.4sqi.net/img/categories_v2/food/german_", "suffix": ".png"}, "primary": true}], "photos": {"count": 0, "groups": []}, "venuePage": {"id": "192625654"}}, "referralId": "e-0-511a1f91e4b0f9aeb9bc024c-67"}, {"reasons": {"count": 0, "items": [{"summary": "This spot is popular", "type": "general", "reasonName": "globalInteractionReason"}]}, "venue": {"id": "4daac726f7b145b370179831", "name": "Go-G\u00e4rtchen", "location": {"address": "Hackerstr. 3", "lat": 52.466746186689825, "lng": 13.32534343801288, "labeledLatLngs": [{"label": "display", "lat": 52.466746186689825, "lng": 13.32534343801288}], "distance": 920, "postalCode": "12161", "cc": "DE", "city": "Berlin", "state": "Berlin", "country": "Deutschland", "formattedAddress": ["Hackerstr. 3", "12161 Berlin", "Deutschland"]}, "categories": [{"id": "4bf58dd8d48988d10d941735", "name": "German Restaurant", "pluralName": "German Restaurants", "shortName": "German", "icon": {"prefix": "https://ss3.4sqi.net/img/categories_v2/food/german_", "suffix": ".png"}, "primary": true}], "photos": {"count": 0, "groups": []}}, "referralId": "e-0-4daac726f7b145b370179831-68"}, {"reasons": {"count": 0, "items": [{"summary": "This spot is popular", "type": "general", "reasonName": "globalInteractionReason"}]}, "venue": {"id": "4b5ac8d2f964a52080d428e3", "name": "Hoppegarten", "location": {"address": "Schlo\u00dfstr. 56", "lat": 52.453340696824334, "lng": 13.315203300159762, "labeledLatLngs": [{"label": "display", "lat": 52.453340696824334, "lng": 13.315203300159762}], "distance": 818, "postalCode": "12165", "cc": "DE", "neighborhood": "Drakestra\u00dfe", "city": "Berlin", "state": "Berlin", "country": "Deutschland", "formattedAddress": ["Schlo\u00dfstr. 56", "12165 Berlin", "Deutschland"]}, "categories": [{"id": "4bf58dd8d48988d11b941735", "name": "Pub", "pluralName": "Pubs", "shortName": "Pub", "icon": {"prefix": "https://ss3.4sqi.net/img/categories_v2/nightlife/pub_", "suffix": ".png"}, "primary": true}], "photos": {"count": 0, "groups": []}}, "referralId": "e-0-4b5ac8d2f964a52080d428e3-69"}, {"reasons": {"count": 0, "items": [{"summary": "This spot is popular", "type": "general", "reasonName": "globalInteractionReason"}]}, "venue": {"id": "4c3de3397d00d13ab0d83a50", "name": "Trattoria Felino", "location": {"address": "Birkbuschstr. 7", "lat": 52.452506791519276, "lng": 13.320174199925054, "labeledLatLngs": [{"label": "display", "lat": 52.452506791519276, "lng": 13.320174199925054}], "distance": 949, "postalCode": "12165", "cc": "DE", "city": "Berlin", "state": "Berlin", "country": "Deutschland", "formattedAddress": ["Birkbuschstr. 7", "12165 Berlin", "Deutschland"]}, "categories": [{"id": "55a5a1ebe4b013909087cb7f", "name": "Trattoria/Osteria", "pluralName": "Trattorias/Osterias", "shortName": "Trattoria/Osteria", "icon": {"prefix": "https://ss3.4sqi.net/img/categories_v2/food/italian_", "suffix": ".png"}, "primary": true}], "photos": {"count": 0, "groups": []}}, "referralId": "e-0-4c3de3397d00d13ab0d83a50-70"}, {"reasons": {"count": 0, "items": [{"summary": "This spot is popular", "type": "general", "reasonName": "globalInteractionReason"}]}, "venue": {"id": "4b9bcfb5f964a5200f2836e3", "name": "Villa Rosa", "location": {"address": "K\u00f6nigin-Luise-Str. 11", "lat": 52.45870292186737, "lng": 13.302581906318665, "labeledLatLngs": [{"label": "display", "lat": 52.45870292186737, "lng": 13.302581906318665}], "distance": 945, "postalCode": "14195", "cc": "DE", "city": "Berlin", "state": "Berlin", "country": "Deutschland", "formattedAddress": ["K\u00f6nigin-Luise-Str. 11", "14195 Berlin", "Deutschland"]}, "categories": [{"id": "4bf58dd8d48988d110941735", "name": "Italian Restaurant", "pluralName": "Italian Restaurants", "shortName": "Italian", "icon": {"prefix": "https://ss3.4sqi.net/img/categories_v2/food/italian_", "suffix": ".png"}, "primary": true}], "photos": {"count": 0, "groups": []}}, "referralId": "e-0-4b9bcfb5f964a5200f2836e3-71"}, {"reasons": {"count": 0, "items": [{"summary": "This spot is popular", "type": "general", "reasonName": "globalInteractionReason"}]}, "venue": {"id": "4d39b1a7cc48224b6503364f", "name": "Toys\"R\"Us", "location": {"address": "Walther-Schreiber-Platz 1", "lat": 52.465681535770315, "lng": 13.328283824597769, "labeledLatLngs": [{"label": "display", "lat": 52.465681535770315, "lng": 13.328283824597769}], "distance": 994, "postalCode": "12161", "cc": "DE", "city": "Berlin", "state": "Berlin", "country": "Deutschland", "formattedAddress": ["Walther-Schreiber-Platz 1", "12161 Berlin", "Deutschland"]}, "categories": [{"id": "4bf58dd8d48988d1f3941735", "name": "Toy / Game Store", "pluralName": "Toy / Game Stores", "shortName": "Toys & Games", "icon": {"prefix": "https://ss3.4sqi.net/img/categories_v2/shops/toys_", "suffix": ".png"}, "primary": true}], "photos": {"count": 0, "groups": []}}, "referralId": "e-0-4d39b1a7cc48224b6503364f-72"}, {"reasons": {"count": 0, "items": [{"summary": "This spot is popular", "type": "general", "reasonName": "globalInteractionReason"}]}, "venue": {"id": "4bf5643a6a31d13a32d0962e", "name": "kaf'fee", "location": {"address": "Hackerstr. 1", "lat": 52.46702670094589, "lng": 13.325572265413419, "labeledLatLngs": [{"label": "display", "lat": 52.46702670094589, "lng": 13.325572265413419}], "distance": 953, "postalCode": "12161", "cc": "DE", "city": "Berlin", "state": "Berlin", "country": "Deutschland", "formattedAddress": ["Hackerstr. 1", "12161 Berlin", "Deutschland"]}, "categories": [{"id": "4bf58dd8d48988d16d941735", "name": "Caf\u00e9", "pluralName": "Caf\u00e9s", "shortName": "Caf\u00e9", "icon": {"prefix": "https://ss3.4sqi.net/img/categories_v2/food/cafe_", "suffix": ".png"}, "primary": true}], "photos": {"count": 0, "groups": []}}, "referralId": "e-0-4bf5643a6a31d13a32d0962e-73"}, {"reasons": {"count": 0, "items": [{"summary": "This spot is popular", "type": "general", "reasonName": "globalInteractionReason"}]}, "venue": {"id": "584acd2b8ee56059df6bd904", "name": "Steglitzer Fussball-Club Stern 1900", "location": {"address": "Kreuznacher Stra\u00dfe 29", "lat": 52.466574, "lng": 13.315133, "labeledLatLngs": [{"label": "display", "lat": 52.466574, "lng": 13.315133}], "distance": 660, "postalCode": "14197", "cc": "DE", "city": "Berlin", "state": "Berlin", "country": "Deutschland", "formattedAddress": ["Kreuznacher Stra\u00dfe 29", "14197 Berlin", "Deutschland"]}, "categories": [{"id": "4cce455aebf7b749d5e191f5", "name": "Soccer Field", "pluralName": "Soccer Fields", "shortName": "Soccer Field", "icon": {"prefix": "https://ss3.4sqi.net/img/categories_v2/arts_entertainment/stadium_soccer_", "suffix": ".png"}, "primary": true}], "photos": {"count": 0, "groups": []}}, "referralId": "e-0-584acd2b8ee56059df6bd904-74"}, {"reasons": {"count": 0, "items": [{"summary": "This spot is popular", "type": "general", "reasonName": "globalInteractionReason"}]}, "venue": {"id": "4e53c354d4c05e0079f5e4af", "name": "Breitenbachplatz", "location": {"address": "S\u00fcdwestkorso", "crossStreet": "Schorlemerallee", "lat": 52.46696544052683, "lng": 13.308541774749756, "labeledLatLngs": [{"label": "display", "lat": 52.46696544052683, "lng": 13.308541774749756}], "distance": 869, "postalCode": "14195", "cc": "DE", "city": "Berlin", "state": "Berlin", "country": "Deutschland", "formattedAddress": ["S\u00fcdwestkorso (Schorlemerallee)", "14195 Berlin", "Deutschland"]}, "categories": [{"id": "4bf58dd8d48988d164941735", "name": "Plaza", "pluralName": "Plazas", "shortName": "Plaza", "icon": {"prefix": "https://ss3.4sqi.net/img/categories_v2/parks_outdoors/plaza_", "suffix": ".png"}, "primary": true}], "photos": {"count": 0, "groups": []}}, "referralId": "e-0-4e53c354d4c05e0079f5e4af-75"}, {"reasons": {"count": 0, "items": [{"summary": "This spot is popular", "type": "general", "reasonName": "globalInteractionReason"}]}, "venue": {"id": "4f072588e4b09a8a3d962855", "name": "Randori", "location": {"address": "Kuhligkshofstra\u00dfe 4", "lat": 52.45487948306926, "lng": 13.320273689367218, "labeledLatLngs": [{"label": "display", "lat": 52.45487948306926, "lng": 13.320273689367218}], "distance": 703, "postalCode": "12165", "cc": "DE", "city": "Berlin", "state": "Berlin", "country": "Deutschland", "formattedAddress": ["Kuhligkshofstra\u00dfe 4", "12165 Berlin", "Deutschland"]}, "categories": [{"id": "4bf58dd8d48988d101941735", "name": "Martial Arts Dojo", "pluralName": "Martial Arts Dojos", "shortName": "Martial Arts", "icon": {"prefix": "https://ss3.4sqi.net/img/categories_v2/shops/gym_martialarts_", "suffix": ".png"}, "primary": true}], "photos": {"count": 0, "groups": []}}, "referralId": "e-0-4f072588e4b09a8a3d962855-76"}, {"reasons": {"count": 0, "items": [{"summary": "This spot is popular", "type": "general", "reasonName": "globalInteractionReason"}]}, "venue": {"id": "59bacf09270ee77dbfa2f9dc", "name": "UNCLE SAM'S American Diner", "location": {"address": "Schlo\u00dfstr. 49", "lat": 52.454098, "lng": 13.317, "labeledLatLngs": [{"label": "display", "lat": 52.454098, "lng": 13.317}], "distance": 734, "postalCode": "12165", "cc": "DE", "city": "Berlin", "state": "Berlin", "country": "Deutschland", "formattedAddress": ["Schlo\u00dfstr. 49", "12165 Berlin", "Deutschland"]}, "categories": [{"id": "4bf58dd8d48988d147941735", "name": "Diner", "pluralName": "Diners", "shortName": "Diner", "icon": {"prefix": "https://ss3.4sqi.net/img/categories_v2/food/diner_", "suffix": ".png"}, "primary": true}], "photos": {"count": 0, "groups": []}}, "referralId": "e-0-59bacf09270ee77dbfa2f9dc-77"}, {"reasons": {"count": 0, "items": [{"summary": "This spot is popular", "type": "general", "reasonName": "globalInteractionReason"}]}, "venue": {"id": "501be050e4b01c57fef9987b", "name": "Ruth-Andreas-Friedrich-Park", "location": {"address": "Am Fichtenberg 15", "lat": 52.4549633266463, "lng": 13.310644626617432, "labeledLatLngs": [{"label": "display", "lat": 52.4549633266463, "lng": 13.310644626617432}], "distance": 736, "postalCode": "12165", "cc": "DE", "city": "Berlin", "state": "Berlin", "country": "Deutschland", "formattedAddress": ["Am Fichtenberg 15", "12165 Berlin", "Deutschland"]}, "categories": [{"id": "4bf58dd8d48988d163941735", "name": "Park", "pluralName": "Parks", "shortName": "Park", "icon": {"prefix": "https://ss3.4sqi.net/img/categories_v2/parks_outdoors/park_", "suffix": ".png"}, "primary": true}], "photos": {"count": 0, "groups": []}}, "referralId": "e-0-501be050e4b01c57fef9987b-78"}, {"reasons": {"count": 0, "items": [{"summary": "This spot is popular", "type": "general", "reasonName": "globalInteractionReason"}]}, "venue": {"id": "4f4b5e37e4b0570c902c5112", "name": "Primark", "location": {"address": "Walther-Schreiber-Platz 1", "crossStreet": "Bundesallee", "lat": 52.4653028, "lng": 13.3277625, "labeledLatLngs": [{"label": "display", "lat": 52.4653028, "lng": 13.3277625}], "distance": 941, "postalCode": "12161", "cc": "DE", "city": "Berlin", "state": "Berlin", "country": "Deutschland", "formattedAddress": ["Walther-Schreiber-Platz 1 (Bundesallee)", "12161 Berlin", "Deutschland"]}, "categories": [{"id": "4bf58dd8d48988d103951735", "name": "Clothing Store", "pluralName": "Clothing Stores", "shortName": "Apparel", "icon": {"prefix": "https://ss3.4sqi.net/img/categories_v2/shops/apparel_", "suffix": ".png"}, "primary": true}], "photos": {"count": 0, "groups": []}}, "referralId": "e-0-4f4b5e37e4b0570c902c5112-79"}, {"reasons": {"count": 0, "items": [{"summary": "This spot is popular", "type": "general", "reasonName": "globalInteractionReason"}]}, "venue": {"id": "4e19c4e9e4cd49a7e3f5ffee", "name": "Eisfee Steglitz", "location": {"address": "Brentanostr. 5", "lat": 52.466115725280204, "lng": 13.309035301208496, "labeledLatLngs": [{"label": "display", "lat": 52.466115725280204, "lng": 13.309035301208496}], "distance": 774, "postalCode": "12163", "cc": "DE", "city": "Berlin", "state": "Berlin", "country": "Deutschland", "formattedAddress": ["Brentanostr. 5", "12163 Berlin", "Deutschland"]}, "categories": [{"id": "4bf58dd8d48988d1d0941735", "name": "Dessert Shop", "pluralName": "Dessert Shops", "shortName": "Desserts", "icon": {"prefix": "https://ss3.4sqi.net/img/categories_v2/food/dessert_", "suffix": ".png"}, "primary": true}], "photos": {"count": 0, "groups": []}}, "referralId": "e-0-4e19c4e9e4cd49a7e3f5ffee-80"}, {"reasons": {"count": 0, "items": [{"summary": "This spot is popular", "type": "general", "reasonName": "globalInteractionReason"}]}, "venue": {"id": "4e6f7242ae604d1b459f5757", "name": "H Braillestra\u00dfe", "location": {"address": "Schlo\u00dfstr.", "crossStreet": "Braillestr. / Hindenburgdamm", "lat": 52.45360008222304, "lng": 13.315032365968039, "labeledLatLngs": [{"label": "display", "lat": 52.45360008222304, "lng": 13.315032365968039}], "distance": 791, "postalCode": "12165", "cc": "DE", "city": "Berlin", "state": "Berlin", "country": "Deutschland", "formattedAddress": ["Schlo\u00dfstr. (Braillestr. / Hindenburgdamm)", "12165 Berlin", "Deutschland"]}, "categories": [{"id": "52f2ab2ebcbc57f1066b8b4f", "name": "Bus Stop", "pluralName": "Bus Stops", "shortName": "Bus Stop", "icon": {"prefix": "https://ss3.4sqi.net/img/categories_v2/travel/busstation_", "suffix": ".png"}, "primary": true}], "photos": {"count": 0, "groups": []}}, "referralId": "e-0-4e6f7242ae604d1b459f5757-81"}, {"reasons": {"count": 0, "items": [{"summary": "This spot is popular", "type": "general", "reasonName": "globalInteractionReason"}]}, "venue": {"id": "51fb7fc6498e0ad8a2bc63a7", "name": "Caf\u00e9 im neuen Glashaus", "location": {"address": "K\u00f6nigin-Luise-Str. 6-8", "lat": 52.456146686957744, "lng": 13.306750059127808, "labeledLatLngs": [{"label": "display", "lat": 52.456146686957744, "lng": 13.306750059127808}], "distance": 812, "postalCode": "14195", "cc": "DE", "city": "Berlin", "state": "Berlin", "country": "Deutschland", "formattedAddress": ["K\u00f6nigin-Luise-Str. 6-8", "14195 Berlin", "Deutschland"]}, "categories": [{"id": "4bf58dd8d48988d16d941735", "name": "Caf\u00e9", "pluralName": "Caf\u00e9s", "shortName": "Caf\u00e9", "icon": {"prefix": "https://ss3.4sqi.net/img/categories_v2/food/cafe_", "suffix": ".png"}, "primary": true}], "photos": {"count": 0, "groups": []}}, "referralId": "e-0-51fb7fc6498e0ad8a2bc63a7-82"}, {"reasons": {"count": 0, "items": [{"summary": "This spot is popular", "type": "general", "reasonName": "globalInteractionReason"}]}, "venue": {"id": "511a6ab1759629b506188784", "name": "Riller & Schnauck Motorrad", "location": {"address": "Schlo\u00dfstr. 57", "lat": 52.4534358, "lng": 13.3145419, "labeledLatLngs": [{"label": "display", "lat": 52.4534358, "lng": 13.3145419}], "distance": 812, "postalCode": "12165", "cc": "DE", "city": "Berlin", "state": "Berlin", "country": "Deutschland", "formattedAddress": ["Schlo\u00dfstr. 57", "12165 Berlin", "Deutschland"]}, "categories": [{"id": "4eb1c1623b7b52c0e1adc2ec", "name": "Auto Dealership", "pluralName": "Auto Dealerships", "shortName": "Auto Dealer", "icon": {"prefix": "https://ss3.4sqi.net/img/categories_v2/shops/automotive_", "suffix": ".png"}, "primary": true}], "photos": {"count": 0, "groups": []}}, "referralId": "e-0-511a6ab1759629b506188784-83"}, {"reasons": {"count": 0, "items": [{"summary": "This spot is popular", "type": "general", "reasonName": "globalInteractionReason"}]}, "venue": {"id": "59a0033fe96d0c573b7ba890", "name": "Cafe Victoria", "location": {"address": "K\u00f6nigin-Luise-Str. 6", "crossStreet": "Haupteingang Gew\u00e4chsh\u00e4user", "lat": 52.456116, "lng": 13.306604, "labeledLatLngs": [{"label": "display", "lat": 52.456116, "lng": 13.306604}], "distance": 822, "postalCode": "12165", "cc": "DE", "city": "Berlin", "state": "Berlin", "country": "Deutschland", "formattedAddress": ["K\u00f6nigin-Luise-Str. 6 (Haupteingang Gew\u00e4chsh\u00e4user)", "12165 Berlin", "Deutschland"]}, "categories": [{"id": "4bf58dd8d48988d16d941735", "name": "Caf\u00e9", "pluralName": "Caf\u00e9s", "shortName": "Caf\u00e9", "icon": {"prefix": "https://ss3.4sqi.net/img/categories_v2/food/cafe_", "suffix": ".png"}, "primary": true}], "photos": {"count": 0, "groups": []}}, "referralId": "e-0-59a0033fe96d0c573b7ba890-84"}, {"reasons": {"count": 0, "items": [{"summary": "This spot is popular", "type": "general", "reasonName": "globalInteractionReason"}]}, "venue": {"id": "4cb0c145562d224bb6481988", "name": "Santa Caf\u00e9 Restaurant", "location": {"address": "Breitenbachpl. 12", "lat": 52.46691318549069, "lng": 13.307913693887134, "labeledLatLngs": [{"label": "display", "lat": 52.46691318549069, "lng": 13.307913693887134}], "distance": 890, "postalCode": "14195", "cc": "DE", "city": "Berlin", "state": "Berlin", "country": "Deutschland", "formattedAddress": ["Breitenbachpl. 12", "14195 Berlin", "Deutschland"]}, "categories": [{"id": "4bf58dd8d48988d1c1941735", "name": "Mexican Restaurant", "pluralName": "Mexican Restaurants", "shortName": "Mexican", "icon": {"prefix": "https://ss3.4sqi.net/img/categories_v2/food/mexican_", "suffix": ".png"}, "primary": true}], "photos": {"count": 0, "groups": []}}, "referralId": "e-0-4cb0c145562d224bb6481988-85"}, {"reasons": {"count": 0, "items": [{"summary": "This spot is popular", "type": "general", "reasonName": "globalInteractionReason"}]}, "venue": {"id": "59a2d45653159336420daa62", "name": "Ludwig-Barnay-Platz", "location": {"lat": 52.46814679714546, "lng": 13.316037059310633, "labeledLatLngs": [{"label": "display", "lat": 52.46814679714546, "lng": 13.316037059310633}], "distance": 831, "postalCode": "14197", "cc": "DE", "neighborhood": "Wilmersdorf", "city": "Berlin", "state": "Berlin", "country": "Deutschland", "formattedAddress": ["14197 Berlin", "Deutschland"]}, "categories": [{"id": "4bf58dd8d48988d164941735", "name": "Plaza", "pluralName": "Plazas", "shortName": "Plaza", "icon": {"prefix": "https://ss3.4sqi.net/img/categories_v2/parks_outdoors/plaza_", "suffix": ".png"}, "primary": true}], "photos": {"count": 0, "groups": []}}, "referralId": "e-0-59a2d45653159336420daa62-86"}, {"reasons": {"count": 0, "items": [{"summary": "This spot is popular", "type": "general", "reasonName": "globalInteractionReason"}]}, "venue": {"id": "4b1a6b7bf964a52020ea23e3", "name": "U Breitenbachplatz", "location": {"address": "Breitenbachplatz", "lat": 52.46705068058149, "lng": 13.308800533486076, "labeledLatLngs": [{"label": "display", "lat": 52.46705068058149, "lng": 13.308800533486076}], "distance": 867, "postalCode": "14195", "cc": "DE", "city": "Berlin", "state": "Berlin", "country": "Deutschland", "formattedAddress": ["Breitenbachplatz", "14195 Berlin", "Deutschland"]}, "categories": [{"id": "4bf58dd8d48988d1fd931735", "name": "Metro Station", "pluralName": "Metro Stations", "shortName": "Metro", "icon": {"prefix": "https://ss3.4sqi.net/img/categories_v2/travel/subway_", "suffix": ".png"}, "primary": true}], "photos": {"count": 0, "groups": []}}, "referralId": "e-0-4b1a6b7bf964a52020ea23e3-87"}, {"reasons": {"count": 0, "items": [{"summary": "This spot is popular", "type": "general", "reasonName": "globalInteractionReason"}]}, "venue": {"id": "4fb3c7cbe4b0643f9b86a078", "name": "Zirkusspielplatz", "location": {"address": "B\u00fcsingstr.", "crossStreet": "Bornstr.", "lat": 52.465883684803956, "lng": 13.325976133346558, "labeledLatLngs": [{"label": "display", "lat": 52.465883684803956, "lng": 13.325976133346558}], "distance": 883, "postalCode": "12163", "cc": "DE", "city": "Berlin", "state": "Berlin", "country": "Deutschland", "formattedAddress": ["B\u00fcsingstr. (Bornstr.)", "12163 Berlin", "Deutschland"]}, "categories": [{"id": "4bf58dd8d48988d1e7941735", "name": "Playground", "pluralName": "Playgrounds", "shortName": "Playground", "icon": {"prefix": "https://ss3.4sqi.net/img/categories_v2/parks_outdoors/playground_", "suffix": ".png"}, "primary": true}], "photos": {"count": 0, "groups": []}}, "referralId": "e-0-4fb3c7cbe4b0643f9b86a078-88"}, {"reasons": {"count": 0, "items": [{"summary": "This spot is popular", "type": "general", "reasonName": "globalInteractionReason"}]}, "venue": {"id": "4e261bb9a809510950d47bc1", "name": "K\u00f6nigin-Luise-Platz", "location": {"address": "K\u00f6nigin-Luise-Platz", "crossStreet": "K\u00f6nigin-Luise-Str.", "lat": 52.45845639945722, "lng": 13.3036160747164, "labeledLatLngs": [{"label": "display", "lat": 52.45845639945722, "lng": 13.3036160747164}], "distance": 884, "postalCode": "14195", "cc": "DE", "city": "Berlin", "state": "Berlin", "country": "Deutschland", "formattedAddress": ["K\u00f6nigin-Luise-Platz (K\u00f6nigin-Luise-Str.)", "14195 Berlin", "Deutschland"]}, "categories": [{"id": "4bf58dd8d48988d164941735", "name": "Plaza", "pluralName": "Plazas", "shortName": "Plaza", "icon": {"prefix": "https://ss3.4sqi.net/img/categories_v2/parks_outdoors/plaza_", "suffix": ".png"}, "primary": true}], "photos": {"count": 0, "groups": []}}, "referralId": "e-0-4e261bb9a809510950d47bc1-89"}, {"reasons": {"count": 0, "items": [{"summary": "This spot is popular", "type": "general", "reasonName": "globalInteractionReason"}]}, "venue": {"id": "52c03b4b498eb75690cc35cb", "name": "H U Breitenbachplatz", "location": {"address": "S\u00fcdwestkorso", "crossStreet": "Dillenburger Str.", "lat": 52.46759796981547, "lng": 13.309100773321651, "labeledLatLngs": [{"label": "display", "lat": 52.46759796981547, "lng": 13.309100773321651}], "distance": 906, "postalCode": "14195", "cc": "DE", "city": "Berlin", "state": "Berlin", "country": "Deutschland", "formattedAddress": ["S\u00fcdwestkorso (Dillenburger Str.)", "14195 Berlin", "Deutschland"]}, "categories": [{"id": "52f2ab2ebcbc57f1066b8b4f", "name": "Bus Stop", "pluralName": "Bus Stops", "shortName": "Bus Stop", "icon": {"prefix": "https://ss3.4sqi.net/img/categories_v2/travel/busstation_", "suffix": ".png"}, "primary": true}], "photos": {"count": 0, "groups": []}}, "referralId": "e-0-52c03b4b498eb75690cc35cb-90"}, {"reasons": {"count": 0, "items": [{"summary": "This spot is popular", "type": "general", "reasonName": "globalInteractionReason"}]}, "venue": {"id": "52bd338c498edd7c194e98cd", "name": "Carmerplatz", "location": {"address": "Rugerstra\u00dfe", "lat": 52.45266872093004, "lng": 13.320600369468423, "labeledLatLngs": [{"label": "display", "lat": 52.45266872093004, "lng": 13.320600369468423}], "distance": 941, "cc": "DE", "city": "Berlin", "state": "Berlin", "country": "Deutschland", "formattedAddress": ["Rugerstra\u00dfe", "Berlin", "Deutschland"]}, "categories": [{"id": "4bf58dd8d48988d163941735", "name": "Park", "pluralName": "Parks", "shortName": "Park", "icon": {"prefix": "https://ss3.4sqi.net/img/categories_v2/parks_outdoors/park_", "suffix": ".png"}, "primary": true}], "photos": {"count": 0, "groups": []}}, "referralId": "e-0-52bd338c498edd7c194e98cd-91"}]