[{"reasons": {"count": 0, "items": [{"summary": "This spot is popular", "type": "general", "reasonName": "globalInteractionReason"}]}, "venue": {"id": "4adcda7cf964a520564721e3", "name": "Schloss Charlottenburg", "location": {"address": "Spandauer Damm 20", "lat": 52.52089530162469, "lng": 13.29566717147827, "labeledLatLngs": [{"label": "display", "lat": 52.52089530162469, "lng": 13.29566717147827}], "distance": 307, "postalCode": "14059", "cc": "DE", "neighborhood": "Charlottenburg", "city": "Berlin", "state": "Berlin", "country": "Deutschland", "formattedAddress": ["Spandauer Damm 20", "14059 Berlin", "Deutschland"]}, "categories": [{"id": "52e81612bcbc57f1066b7a14", "name": "Palace", "pluralName": "Palaces", "shortName": "Palace", "icon": {"prefix": "https://ss3.4sqi.net/img/categories_v2/parks_outdoors/default_", "suffix": ".png"}, "primary": true}], "photos": {"count": 0, "groups": []}}, "referralId": "e-0-4adcda7cf964a520564721e3-0"}, {"reasons": {"count": 0, "items": [{"summary": "This spot is popular", "type": "general", "reasonName": "globalInteractionReason"}]}, "venue": {"id": "4b1526fff964a520c4a823e3", "name": "Museum Berggruen", "location": {"address": "Schlo\u00dfstr. 1", "lat": 52.51927802378634, "lng": 13.295374451463491, "labeledLatLngs": [{"label": "display", "lat": 52.51927802378634, "lng": 13.295374451463491}], "distance": 271, "postalCode": "14059", "cc": "DE", "city": "Berlin", "state": "Berlin", "country": "Deutschland", "formattedAddress": ["Schlo\u00dfstr. 1", "14059 Berlin", "Deutschland"]}, "categories": [{"id": "4bf58dd8d48988d18f941735", "name": "Art Museum", "pluralName": "Art Museums", "shortName": "Art Museum", "icon": {"prefix": "https://ss3.4sqi.net/img/categories_v2/arts_entertainment/museum_art_", "suffix": ".png"}, "primary": true}], "photos": {"count": 0, "groups": []}}, "referralId": "e-0-4b1526fff964a520c4a823e3-1"}, {"reasons": {"count": 0, "items": [{"summary": "This spot is popular", "type": "general", "reasonName": "globalInteractionReason"}]}, "venue": {"id": "4adcda7df964a5207b4721e3", "name": "Schlossgarten Charlottenburg", "location": {"address": "Spandauer Damm 10-22", "lat": 52.52499, "lng": 13.293499, "labeledLatLngs": [{"label": "display", "lat": 52.52499, "lng": 13.293499}], "distance": 590, "postalCode": "14059", "cc": "DE", "city": "Berlin", "state": "Berlin", "country": "Deutschland", "formattedAddress": ["Spandauer Damm 10-22", "14059 Berlin", "Deutschland"]}, "categories": [{"id": "4bf58dd8d48988d163941735", "name": "Park", "pluralName": "Parks", "shortName": "Park", "icon": {"prefix": "https://ss3.4sqi.net/img/categories_v2/parks_outdoors/park_", "suffix": ".png"}, "primary": true}], "photos": {"count": 0, "groups": []}}, "referralId": "e-0-4adcda7df964a5207b4721e3-2"}, {"reasons": {"count": 0, "items": [{"summary": "This spot is popular", "type": "general", "reasonName": "globalInteractionReason"}]}, "venue": {"id": "562b90a1498efab73537e4b2", "name": "R\u00f6stwerk", "location": {"address": "Seelingstr. 32", "lat": 52.51546892528142, "lng": 13.291978816007804, "labeledLatLngs": [{"label": "display", "lat": 52.51546892528142, "lng": 13.291978816007804}], "distance": 487, "postalCode": "14059", "cc": "DE", "city": "Berlin", "state": "Berlin", "country": "Deutschland", "formattedAddress": ["Seelingstr. 32", "14059 Berlin", "Deutschland"]}, "categories": [{"id": "4bf58dd8d48988d16d941735", "name": "Caf\u00e9", "pluralName": "Caf\u00e9s", "shortName": "Caf\u00e9", "icon": {"prefix": "https://ss3.4sqi.net/img/categories_v2/food/cafe_", "suffix": ".png"}, "primary": true}], "photos": {"count": 0, "groups": []}}, "referralId": "e-0-562b90a1498efab73537e4b2-3"}, {"reasons": {"count": 0, "items": [{"summary": "This spot is popular", "type": "general", "reasonName": "globalInteractionReason"}]}, "venue": {"id": "4b891b0cf964a520021d32e3", "name": "Centro Italia", "location": {"address": "Sophie-Charlotten-Str. 9-10", "lat": 52.5211771843545, "lng": 13.285847413283511, "labeledLatLngs": [{"label": "display", "lat": 52.5211771843545, "lng": 13.285847413283511}], "distance": 409, "postalCode": "14059", "cc": "DE", "city": "Berlin", "state": "Berlin", "country": "Deutschland", "formattedAddress": ["Sophie-Charlotten-Str. 9-10", "14059 Berlin", "Deutschland"]}, "categories": [{"id": "4bf58dd8d48988d118951735", "name": "Grocery Store", "pluralName": "Grocery Stores", "shortName": "Grocery Store", "icon": {"prefix": "https://ss3.4sqi.net/img/categories_v2/shops/food_grocery_", "suffix": ".png"}, "primary": true}], "photos": {"count": 0, "groups": []}}, "referralId": "e-0-4b891b0cf964a520021d32e3-4"}, {"reasons": {"count": 0, "items": [{"summary": "This spot is popular", "type": "general", "reasonName": "globalInteractionReason"}]}, "venue": {"id": "4c7252a313228cfa1eac2a65", "name": "Brotgarten", "location": {"address": "Seelingstr. 30", "lat": 52.515477717516596, "lng": 13.292356279798783, "labeledLatLngs": [{"label": "display", "lat": 52.515477717516596, "lng": 13.292356279798783}], "distance": 488, "postalCode": "14059", "cc": "DE", "city": "Berlin", "state": "Berlin", "country": "Deutschland", "formattedAddress": ["Seelingstr. 30", "14059 Berlin", "Deutschland"]}, "categories": [{"id": "4bf58dd8d48988d16a941735", "name": "Bakery", "pluralName": "Bakeries", "shortName": "Bakery", "icon": {"prefix": "https://ss3.4sqi.net/img/categories_v2/food/bakery_", "suffix": ".png"}, "primary": true}], "photos": {"count": 0, "groups": []}}, "referralId": "e-0-4c7252a313228cfa1eac2a65-5"}, {"reasons": {"count": 0, "items": [{"summary": "This spot is popular", "type": "general", "reasonName": "globalInteractionReason"}]}, "venue": {"id": "4bb785e8cf2fc9b62a559e02", "name": "Opera Italiana", "location": {"address": "Spandauer Damm 5", "lat": 52.51919203802386, "lng": 13.298318691734794, "labeledLatLngs": [{"label": "display", "lat": 52.51919203802386, "lng": 13.298318691734794}], "distance": 469, "postalCode": "14059", "cc": "DE", "city": "Berlin", "state": "Berlin", "country": "Deutschland", "formattedAddress": ["Spandauer Damm 5", "14059 Berlin", "Deutschland"]}, "categories": [{"id": "4bf58dd8d48988d110941735", "name": "Italian Restaurant", "pluralName": "Italian Restaurants", "shortName": "Italian", "icon": {"prefix": "https://ss3.4sqi.net/img/categories_v2/food/italian_", "suffix": ".png"}, "primary": true}], "photos": {"count": 0, "groups": []}}, "referralId": "e-0-4bb785e8cf2fc9b62a559e02-6"}, {"reasons": {"count": 0, "items": [{"summary": "This spot is popular", "type": "general", "reasonName": "globalInteractionReason"}]}, "venue": {"id": "4e8875fb30f8c51a86d706f0", "name": "Schlossgarten", "location": {"address": "Schlo\u00dfstr. 64", "crossStreet": "Wulfsheinstr.", "lat": 52.517539680234776, "lng": 13.296804428100586, "labeledLatLngs": [{"label": "display", "lat": 52.517539680234776, "lng": 13.296804428100586}], "distance": 442, "postalCode": "14059", "cc": "DE", "city": "Berlin", "state": "Berlin", "country": "Deutschland", "formattedAddress": ["Schlo\u00dfstr. 64 (Wulfsheinstr.)", "14059 Berlin", "Deutschland"]}, "categories": [{"id": "4bf58dd8d48988d10d941735", "name": "German Restaurant", "pluralName": "German Restaurants", "shortName": "German", "icon": {"prefix": "https://ss3.4sqi.net/img/categories_v2/food/german_", "suffix": ".png"}, "primary": true}], "photos": {"count": 0, "groups": []}}, "referralId": "e-0-4e8875fb30f8c51a86d706f0-7"}, {"reasons": {"count": 0, "items": [{"summary": "This spot is popular", "type": "general", "reasonName": "globalInteractionReason"}]}, "venue": {"id": "4adcda81f964a520554821e3", "name": "Br\u00f6han-Museum", "location": {"address": "Schlo\u00dfstr. 1a", "crossStreet": "Spandauer Damm", "lat": 52.5188062289259, "lng": 13.2954740524292, "labeledLatLngs": [{"label": "display", "lat": 52.5188062289259, "lng": 13.2954740524292}], "distance": 294, "postalCode": "14059", "cc": "DE", "city": "Berlin", "state": "Berlin", "country": "Deutschland", "formattedAddress": ["Schlo\u00dfstr. 1a (Spandauer Damm)", "14059 Berlin", "Deutschland"]}, "categories": [{"id": "4bf58dd8d48988d18f941735", "name": "Art Museum", "pluralName": "Art Museums", "shortName": "Art Museum", "icon": {"prefix": "https://ss3.4sqi.net/img/categories_v2/arts_entertainment/museum_art_", "suffix": ".png"}, "primary": true}], "photos": {"count": 0, "groups": []}}, "referralId": "e-0-4adcda81f964a520554821e3-8"}, {"reasons": {"count": 0, "items": [{"summary": "This spot is popular", "type": "general", "reasonName": "globalInteractionReason"}]}, "venue": {"id": "4c0a9e12340720a1f4bf8693", "name": "goldesel - Stullen, Bier und Rock'n'Roll", "location": {"address": "Seelingstr. 7", "lat": 52.515683651124725, "lng": 13.29498519531172, "labeledLatLngs": [{"label": "display", "lat": 52.515683651124725, "lng": 13.29498519531172}], "distance": 519, "postalCode": "14059", "cc": "DE", "city": "Berlin", "state": "Berlin", "country": "Deutschland", "formattedAddress": ["Seelingstr. 7", "14059 Berlin", "Deutschland"]}, "categories": [{"id": "4bf58dd8d48988d116941735", "name": "Bar", "pluralName": "Bars", "shortName": "Bar", "icon": {"prefix": "https://ss3.4sqi.net/img/categories_v2/nightlife/pub_", "suffix": ".png"}, "primary": true}], "photos": {"count": 0, "groups": []}, "venuePage": {"id": "137989002"}}, "referralId": "e-0-4c0a9e12340720a1f4bf8693-9"}, {"reasons": {"count": 0, "items": [{"summary": "This spot is popular", "type": "general", "reasonName": "globalInteractionReason"}]}, "venue": {"id": "4cdeeee794c3b60cc49868ea", "name": "Gro\u00dfe Orangerie am Schloss Charlottenburg", "location": {"address": "Spandauer Damm 22-24", "lat": 52.52049078842057, "lng": 13.293383702937604, "labeledLatLngs": [{"label": "display", "lat": 52.52049078842057, "lng": 13.293383702937604}], "distance": 148, "postalCode": "14059", "cc": "DE", "city": "Berlin", "state": "Berlin", "country": "Deutschland", "formattedAddress": ["Spandauer Damm 22-24", "14059 Berlin", "Deutschland"]}, "categories": [{"id": "4bf58dd8d48988d171941735", "name": "Event Space", "pluralName": "Event Spaces", "shortName": "Event Space", "icon": {"prefix": "https://ss3.4sqi.net/img/categories_v2/building/eventspace_", "suffix": ".png"}, "primary": true}], "photos": {"count": 0, "groups": []}, "venuePage": {"id": "78672696"}}, "referralId": "e-0-4cdeeee794c3b60cc49868ea-10"}, {"reasons": {"count": 0, "items": [{"summary": "This spot is popular", "type": "general", "reasonName": "globalInteractionReason"}]}, "venue": {"id": "4da886d45da3ef8bf1607666", "name": "Don Camillo", "location": {"address": "Schlo\u00dfstr. 7", "lat": 52.516682328723164, "lng": 13.296239740758699, "labeledLatLngs": [{"label": "display", "lat": 52.516682328723164, "lng": 13.296239740758699}], "distance": 476, "cc": "DE", "city": "Berlin", "state": "Berlin", "country": "Deutschland", "formattedAddress": ["Schlo\u00dfstr. 7", "Berlin", "Deutschland"]}, "categories": [{"id": "4bf58dd8d48988d110941735", "name": "Italian Restaurant", "pluralName": "Italian Restaurants", "shortName": "Italian", "icon": {"prefix": "https://ss3.4sqi.net/img/categories_v2/food/italian_", "suffix": ".png"}, "primary": true}], "photos": {"count": 0, "groups": []}}, "referralId": "e-0-4da886d45da3ef8bf1607666-11"}, {"reasons": {"count": 0, "items": [{"summary": "This spot is popular", "type": "general", "reasonName": "globalInteractionReason"}]}, "venue": {"id": "4baba4a6f964a5202cbc3ae3", "name": "Brauhaus Lemke am Schloss", "location": {"address": "Luisenplatz 1", "crossStreet": "Otto-Suhr-Allee", "lat": 52.52000745786557, "lng": 13.299829959869385, "labeledLatLngs": [{"label": "display", "lat": 52.52000745786557, "lng": 13.299829959869385}], "distance": 566, "postalCode": "10585", "cc": "DE", "city": "Berlin", "state": "Berlin", "country": "Deutschland", "formattedAddress": ["Luisenplatz 1 (Otto-Suhr-Allee)", "10585 Berlin", "Deutschland"]}, "categories": [{"id": "50327c8591d4c4b30a586d5d", "name": "Brewery", "pluralName": "Breweries", "shortName": "Brewery", "icon": {"prefix": "https://ss3.4sqi.net/img/categories_v2/food/brewery_", "suffix": ".png"}, "primary": true}], "photos": {"count": 0, "groups": []}}, "referralId": "e-0-4baba4a6f964a5202cbc3ae3-12"}, {"reasons": {"count": 0, "items": [{"summary": "This spot is popular", "type": "general", "reasonName": "globalInteractionReason"}]}, "venue": {"id": "4c7a2ba4bd346dcb1bd0f7ef", "name": "Giro d' Espresso", "location": {"address": "Knobelsdorffstr. 47", "lat": 52.51317125347748, "lng": 13.289603134059815, "labeledLatLngs": [{"label": "display", "lat": 52.51317125347748, "lng": 13.289603134059815}], "distance": 752, "postalCode": "14059", "cc": "DE", "city": "Berlin", "state": "Berlin", "country": "Deutschland", "formattedAddress": ["Knobelsdorffstr. 47", "14059 Berlin", "Deutschland"]}, "categories": [{"id": "4bf58dd8d48988d16d941735", "name": "Caf\u00e9", "pluralName": "Caf\u00e9s", "shortName": "Caf\u00e9", "icon": {"prefix": "https://ss3.4sqi.net/img/categories_v2/food/cafe_", "suffix": ".png"}, "primary": true}], "photos": {"count": 0, "groups": []}}, "referralId": "e-0-4c7a2ba4bd346dcb1bd0f7ef-13"}, {"reasons": {"count": 0, "items": [{"summary": "This spot is popular", "type": "general", "reasonName": "globalInteractionReason"}]}, "venue": {"id": "53de16ae498e6dfadde0b759", "name": "Caf\u00e9 Morgenlicht", "location": {"address": "Schlo\u00dfstr. 13", "lat": 52.515887, "lng": 13.296252, "labeledLatLngs": [{"label": "display", "lat": 52.515887, "lng": 13.296252}], "distance": 545, "postalCode": "14059", "cc": "DE", "city": "Berlin", "state": "Berlin", "country": "Deutschland", "formattedAddress": ["Schlo\u00dfstr. 13", "14059 Berlin", "Deutschland"]}, "categories": [{"id": "4bf58dd8d48988d16d941735", "name": "Caf\u00e9", "pluralName": "Caf\u00e9s", "shortName": "Caf\u00e9", "icon": {"prefix": "https://ss3.4sqi.net/img/categories_v2/food/cafe_", "suffix": ".png"}, "primary": true}], "photos": {"count": 0, "groups": []}}, "referralId": "e-0-53de16ae498e6dfadde0b759-14"}, {"reasons": {"count": 0, "items": [{"summary": "This spot is popular", "type": "general", "reasonName": "globalInteractionReason"}]}, "venue": {"id": "4e8883094690839ce048670e", "name": "Trattoria Toscana", "location": {"address": "Schlo\u00dfstrasse 45", "crossStreet": "Zillestr.", "lat": 52.514005290818034, "lng": 13.297156637481791, "labeledLatLngs": [{"label": "display", "lat": 52.514005290818034, "lng": 13.297156637481791}], "distance": 754, "postalCode": "14059", "cc": "DE", "city": "Berlin", "state": "Berlin", "country": "Deutschland", "formattedAddress": ["Schlo\u00dfstrasse 45 (Zillestr.)", "14059 Berlin", "Deutschland"]}, "categories": [{"id": "55a5a1ebe4b013909087cb7f", "name": "Trattoria/Osteria", "pluralName": "Trattorias/Osterias", "shortName": "Trattoria/Osteria", "icon": {"prefix": "https://ss3.4sqi.net/img/categories_v2/food/italian_", "suffix": ".png"}, "primary": true}], "photos": {"count": 0, "groups": []}}, "referralId": "e-0-4e8883094690839ce048670e-15"}, {"reasons": {"count": 0, "items": [{"summary": "This spot is popular", "type": "general", "reasonName": "globalInteractionReason"}]}, "venue": {"id": "4f54893ce4b0b5893a510b71", "name": "Omi Rosis Suppen", "location": {"address": "Sophie-Charlotten-Str. 107", "lat": 52.52019779476808, "lng": 13.286378470592437, "labeledLatLngs": [{"label": "display", "lat": 52.52019779476808, "lng": 13.286378470592437}], "distance": 347, "postalCode": "14059", "cc": "DE", "city": "Berlin", "state": "Berlin", "country": "Deutschland", "formattedAddress": ["Sophie-Charlotten-Str. 107", "14059 Berlin", "Deutschland"]}, "categories": [{"id": "4bf58dd8d48988d1dd931735", "name": "Soup Place", "pluralName": "Soup Places", "shortName": "Soup", "icon": {"prefix": "https://ss3.4sqi.net/img/categories_v2/food/soup_", "suffix": ".png"}, "primary": true}], "photos": {"count": 0, "groups": []}}, "referralId": "e-0-4f54893ce4b0b5893a510b71-16"}, {"reasons": {"count": 0, "items": [{"summary": "This spot is popular", "type": "general", "reasonName": "globalInteractionReason"}]}, "venue": {"id": "57163f55498e79d52ffa1a8a", "name": "BIO COMPANY", "location": {"address": "Neufertstr. 19-21", "lat": 52.5176586, "lng": 13.2932264, "labeledLatLngs": [{"label": "display", "lat": 52.5176586, "lng": 13.2932264}], "distance": 269, "postalCode": "14059", "cc": "DE", "city": "Berlin", "state": "Berlin", "country": "Deutschland", "formattedAddress": ["Neufertstr. 19-21", "14059 Berlin", "Deutschland"]}, "categories": [{"id": "52f2ab2ebcbc57f1066b8b45", "name": "Organic Grocery", "pluralName": "Organic Groceries", "shortName": "Organic Grocery", "icon": {"prefix": "https://ss3.4sqi.net/img/categories_v2/shops/food_grocery_", "suffix": ".png"}, "primary": true}], "photos": {"count": 0, "groups": []}, "venuePage": {"id": "493143304"}}, "referralId": "e-0-57163f55498e79d52ffa1a8a-17"}, {"reasons": {"count": 0, "items": [{"summary": "This spot is popular", "type": "general", "reasonName": "globalInteractionReason"}]}, "venue": {"id": "4cb5ecc18db0a143cc226616", "name": "Samowar", "location": {"address": "Luisenplatz 3", "lat": 52.52103863445722, "lng": 13.299740826741635, "labeledLatLngs": [{"label": "display", "lat": 52.52103863445722, "lng": 13.299740826741635}], "distance": 575, "postalCode": "10585", "cc": "DE", "city": "Charlottenburg", "state": "Berlin", "country": "Deutschland", "formattedAddress": ["Luisenplatz 3", "10585 Charlottenburg", "Deutschland"]}, "categories": [{"id": "5293a7563cf9994f4e043a44", "name": "Russian Restaurant", "pluralName": "Russian Restaurants", "shortName": "Russian", "icon": {"prefix": "https://ss3.4sqi.net/img/categories_v2/food/russian_", "suffix": ".png"}, "primary": true}], "photos": {"count": 0, "groups": []}}, "referralId": "e-0-4cb5ecc18db0a143cc226616-18"}, {"reasons": {"count": 0, "items": [{"summary": "This spot is popular", "type": "general", "reasonName": "globalInteractionReason"}]}, "venue": {"id": "4e1c9b811838367bcf6e9caf", "name": "Klausenerplatz", "location": {"address": "Klausenerplatz", "lat": 52.518676009129756, "lng": 13.291545623159692, "labeledLatLngs": [{"label": "display", "lat": 52.518676009129756, "lng": 13.291545623159692}], "distance": 129, "postalCode": "14059", "cc": "DE", "city": "Berlin", "state": "Berlin", "country": "Deutschland", "formattedAddress": ["Klausenerplatz", "14059 Berlin", "Deutschland"]}, "categories": [{"id": "4bf58dd8d48988d164941735", "name": "Plaza", "pluralName": "Plazas", "shortName": "Plaza", "icon": {"prefix": "https://ss3.4sqi.net/img/categories_v2/parks_outdoors/plaza_", "suffix": ".png"}, "primary": true}], "photos": {"count": 0, "groups": []}}, "referralId": "e-0-4e1c9b811838367bcf6e9caf-19"}, {"reasons": {"count": 0, "items": [{"summary": "This spot is popular", "type": "general", "reasonName": "globalInteractionReason"}]}, "venue": {"id": "538cc059498eb2165bf9dedc", "name": "Trattoria la bella sicilia", "location": {"address": "Knobelsdorffstr. 37", "crossStreet": "Dankelmannstr.", "lat": 52.51313387287784, "lng": 13.29101270804162, "labeledLatLngs": [{"label": "display", "lat": 52.51313387287784, "lng": 13.29101270804162}], "distance": 746, "postalCode": "14059", "cc": "DE", "neighborhood": "Charlottenburg", "city": "Berlin", "state": "Berlin", "country": "Deutschland", "formattedAddress": ["Knobelsdorffstr. 37 (Dankelmannstr.)", "14059 Berlin", "Deutschland"]}, "categories": [{"id": "55a5a1ebe4b013909087cb7f", "name": "Trattoria/Osteria", "pluralName": "Trattorias/Osterias", "shortName": "Trattoria/Osteria", "icon": {"prefix": "https://ss3.4sqi.net/img/categories_v2/food/italian_", "suffix": ".png"}, "primary": true}], "photos": {"count": 0, "groups": []}, "venuePage": {"id": "390746254"}}, "referralId": "e-0-538cc059498eb2165bf9dedc-20"}, {"reasons": {"count": 0, "items": [{"summary": "This spot is popular", "type": "general", "reasonName": "globalInteractionReason"}]}, "venue": {"id": "4b648e01f964a52032bd2ae3", "name": "Sammlung Scharf-Gerstenberg", "location": {"address": "Schlo\u00dfstr. 70", "lat": 52.519282338274394, "lng": 13.297067203388059, "labeledLatLngs": [{"label": "display", "lat": 52.519282338274394, "lng": 13.297067203388059}], "distance": 383, "postalCode": "14059", "cc": "DE", "city": "Berlin", "state": "Berlin", "country": "Deutschland", "formattedAddress": ["Schlo\u00dfstr. 70", "14059 Berlin", "Deutschland"]}, "categories": [{"id": "4bf58dd8d48988d18f941735", "name": "Art Museum", "pluralName": "Art Museums", "shortName": "Art Museum", "icon": {"prefix": "https://ss3.4sqi.net/img/categories_v2/arts_entertainment/museum_art_", "suffix": ".png"}, "primary": true}], "photos": {"count": 0, "groups": []}}, "referralId": "e-0-4b648e01f964a52032bd2ae3-21"}, {"reasons": {"count": 0, "items": [{"summary": "This spot is popular", "type": "general", "reasonName": "globalInteractionReason"}]}, "venue": {"id": "5062d26ae4b0cb8aeace7975", "name": "Mausoleum der K\u00f6nigin Luise", "location": {"address": "Spandauer Damm 10-22", "lat": 52.524090654158385, "lng": 13.291835879350657, "labeledLatLngs": [{"label": "display", "lat": 52.524090654158385, "lng": 13.291835879350657}], "distance": 474, "postalCode": "14059", "cc": "DE", "city": "Berlin", "state": "Berlin", "country": "Deutschland", "formattedAddress": ["Spandauer Damm 10-22", "14059 Berlin", "Deutschland"]}, "categories": [{"id": "4bf58dd8d48988d15c941735", "name": "Cemetery", "pluralName": "Cemeteries", "shortName": "Cemetery", "icon": {"prefix": "https://ss3.4sqi.net/img/categories_v2/parks_outdoors/cemetery_", "suffix": ".png"}, "primary": true}], "photos": {"count": 0, "groups": []}}, "referralId": "e-0-5062d26ae4b0cb8aeace7975-22"}, {"reasons": {"count": 0, "items": [{"summary": "This spot is popular", "type": "general", "reasonName": "globalInteractionReason"}]}, "venue": {"id": "52aaf98111d20cca1861f314", "name": "REWE", "location": {"address": "Sophie-Charlotten-Str. 41", "lat": 52.513192, "lng": 13.287528, "labeledLatLngs": [{"label": "display", "lat": 52.513192, "lng": 13.287528}], "distance": 786, "postalCode": "14059", "cc": "DE", "city": "Berlin", "state": "Berlin", "country": "Deutschland", "formattedAddress": ["Sophie-Charlotten-Str. 41", "14059 Berlin", "Deutschland"]}, "categories": [{"id": "52f2ab2ebcbc57f1066b8b46", "name": "Supermarket", "pluralName": "Supermarkets", "shortName": "Supermarket", "icon": {"prefix": "https://ss3.4sqi.net/img/categories_v2/shops/food_grocery_", "suffix": ".png"}, "primary": true}], "photos": {"count": 0, "groups": []}, "venuePage": {"id": "560859856"}}, "referralId": "e-0-52aaf98111d20cca1861f314-23"}, {"reasons": {"count": 0, "items": [{"summary": "This spot is popular", "type": "general", "reasonName": "globalInteractionReason"}]}, "venue": {"id": "4f64b7e1e4b041039deac6b4", "name": "Ristorante Daniele", "location": {"address": "Otto-Suhr-Allee 144", "lat": 52.519464379436954, "lng": 13.300259177249677, "labeledLatLngs": [{"label": "display", "lat": 52.519464379436954, "lng": 13.300259177249677}], "distance": 596, "postalCode": "10585", "cc": "DE", "neighborhood": "Charlottenburg", "city": "Berlin", "state": "Berlin", "country": "Deutschland", "formattedAddress": ["Otto-Suhr-Allee 144", "10585 Berlin", "Deutschland"]}, "categories": [{"id": "4bf58dd8d48988d110941735", "name": "Italian Restaurant", "pluralName": "Italian Restaurants", "shortName": "Italian", "icon": {"prefix": "https://ss3.4sqi.net/img/categories_v2/food/italian_", "suffix": ".png"}, "primary": true}], "photos": {"count": 0, "groups": []}}, "referralId": "e-0-4f64b7e1e4b041039deac6b4-24"}, {"reasons": {"count": 0, "items": [{"summary": "This spot is popular", "type": "general", "reasonName": "globalInteractionReason"}]}, "venue": {"id": "56adf081498e4f5181f1fae2", "name": "Zur Mieze - Katzenmusikcaf\u00e9", "location": {"address": "Wilmersdorfer Stra\u00dfe 158", "lat": 52.515899, "lng": 13.304765, "labeledLatLngs": [{"label": "display", "lat": 52.515899, "lng": 13.304765}], "distance": 1001, "postalCode": "10585", "cc": "DE", "neighborhood": "Charlottenburg", "city": "Berlin", "state": "Berlin", "country": "Deutschland", "formattedAddress": ["Wilmersdorfer Stra\u00dfe 158", "10585 Berlin", "Deutschland"]}, "categories": [{"id": "56aa371be4b08b9a8d573508", "name": "Pet Caf\u00e9", "pluralName": "Pet Caf\u00e9s", "shortName": "Pet Caf\u00e9", "icon": {"prefix": "https://ss3.4sqi.net/img/categories_v2/parks_outdoors/dogrun_", "suffix": ".png"}, "primary": true}], "photos": {"count": 0, "groups": []}}, "referralId": "e-0-56adf081498e4f5181f1fae2-25"}, {"reasons": {"count": 0, "items": [{"summary": "This spot is popular", "type": "general", "reasonName": "globalInteractionReason"}]}, "venue": {"id": "533fba04498ef9e00e1d47bf", "name": "Steinecke B\u00e4ckerei", "location": {"lat": 52.518635086477104, "lng": 13.286864395402871, "labeledLatLngs": [{"label": "display", "lat": 52.518635086477104, "lng": 13.286864395402871}], "distance": 339, "cc": "DE", "city": "Berlin", "state": "Berlin", "country": "Deutschland", "formattedAddress": ["Berlin", "Deutschland"]}, "categories": [{"id": "4bf58dd8d48988d16a941735", "name": "Bakery", "pluralName": "Bakeries", "shortName": "Bakery", "icon": {"prefix": "https://ss3.4sqi.net/img/categories_v2/food/bakery_", "suffix": ".png"}, "primary": true}], "photos": {"count": 0, "groups": []}}, "referralId": "e-0-533fba04498ef9e00e1d47bf-26"}, {"reasons": {"count": 0, "items": [{"summary": "This spot is popular", "type": "general", "reasonName": "globalInteractionReason"}]}, "venue": {"id": "4e6cc0ae62e15039f81cbefd", "name": "Eiscaf\u00e9 am Schloss", "location": {"address": "Spandauer Damm 1", "lat": 52.51948423219877, "lng": 13.299146346324905, "labeledLatLngs": [{"label": "display", "lat": 52.51948423219877, "lng": 13.299146346324905}], "distance": 521, "postalCode": "14059", "cc": "DE", "neighborhood": "Charlottenburg", "city": "Berlin", "state": "Berlin", "country": "Deutschland", "formattedAddress": ["Spandauer Damm 1", "14059 Berlin", "Deutschland"]}, "categories": [{"id": "4bf58dd8d48988d1c9941735", "name": "Ice Cream Shop", "pluralName": "Ice Cream Shops", "shortName": "Ice Cream", "icon": {"prefix": "https://ss3.4sqi.net/img/categories_v2/food/icecream_", "suffix": ".png"}, "primary": true}], "photos": {"count": 0, "groups": []}}, "referralId": "e-0-4e6cc0ae62e15039f81cbefd-27"}, {"reasons": {"count": 0, "items": [{"summary": "This spot is popular", "type": "general", "reasonName": "globalInteractionReason"}]}, "venue": {"id": "57d19945498e4ddd9445eb8b", "name": "Eisfabrik Alan", "location": {"address": "Wundtstra\u00dfe 4", "lat": 52.513262, "lng": 13.294694, "labeledLatLngs": [{"label": "display", "lat": 52.513262, "lng": 13.294694}], "distance": 763, "postalCode": "14059", "cc": "DE", "city": "Berlin", "state": "Berlin", "country": "Deutschland", "formattedAddress": ["Wundtstra\u00dfe 4", "14059 Berlin", "Deutschland"]}, "categories": [{"id": "4bf58dd8d48988d1c9941735", "name": "Ice Cream Shop", "pluralName": "Ice Cream Shops", "shortName": "Ice Cream", "icon": {"prefix": "https://ss3.4sqi.net/img/categories_v2/food/icecream_", "suffix": ".png"}, "primary": true}], "photos": {"count": 0, "groups": []}}, "referralId": "e-0-57d19945498e4ddd9445eb8b-28"}, {"reasons": {"count": 0, "items": [{"summary": "This spot is popular", "type": "general", "reasonName": "globalInteractionReason"}]}, "venue": {"id": "4d277585467d6ea8d911bd95", "name": "Little Tokyo", "location": {"address": "Kaiser-Friedrich-Str 1", "lat": 52.51930950092406, "lng": 13.299626857274738, "labeledLatLngs": [{"label": "display", "lat": 52.51930950092406, "lng": 13.299626857274738}], "distance": 555, "postalCode": "10585", "cc": "DE", "city": "Berlin", "state": "Berlin", "country": "Deutschland", "formattedAddress": ["Kaiser-Friedrich-Str 1", "10585 Berlin", "Deutschland"]}, "categories": [{"id": "4bf58dd8d48988d1d2941735", "name": "Sushi Restaurant", "pluralName": "Sushi Restaurants", "shortName": "Sushi", "icon": {"prefix": "https://ss3.4sqi.net/img/categories_v2/food/sushi_", "suffix": ".png"}, "primary": true}], "photos": {"count": 0, "groups": []}}, "referralId": "e-0-4d277585467d6ea8d911bd95-29"}, {"reasons": {"count": 0, "items": [{"summary": "This spot is popular", "type": "general", "reasonName": "globalInteractionReason"}]}, "venue": {"id": "4f378293e4b0ea2d7dfc9a8d", "name": "E\u00dfstube", "location": {"address": "Seelingstr. 32", "lat": 52.51549945269542, "lng": 13.292000626025187, "labeledLatLngs": [{"label": "display", "lat": 52.51549945269542, "lng": 13.292000626025187}], "distance": 483, "postalCode": "12321", "cc": "DE", "city": "Charlottenburg", "state": "Berlin", "country": "Deutschland", "formattedAddress": ["Seelingstr. 32", "12321 Charlottenburg", "Deutschland"]}, "categories": [{"id": "4bf58dd8d48988d10d941735", "name": "German Restaurant", "pluralName": "German Restaurants", "shortName": "German", "icon": {"prefix": "https://ss3.4sqi.net/img/categories_v2/food/german_", "suffix": ".png"}, "primary": true}], "photos": {"count": 0, "groups": []}}, "referralId": "e-0-4f378293e4b0ea2d7dfc9a8d-30"}, {"reasons": {"count": 0, "items": [{"summary": "This spot is popular", "type": "general", "reasonName": "globalInteractionReason"}]}, "venue": {"id": "5b509ddd0802d4002c733056", "name": "Gimme Gelato", "location": {"address": "Wundtstra\u00dfe 15", "crossStreet": "Horstweg", "lat": 52.512006, "lng": 13.29415, "labeledLatLngs": [{"label": "display", "lat": 52.512006, "lng": 13.29415}], "distance": 890, "postalCode": "14059", "cc": "DE", "city": "Berlin", "state": "Berlin", "country": "Deutschland", "formattedAddress": ["Wundtstra\u00dfe 15 (Horstweg)", "14059 Berlin", "Deutschland"]}, "categories": [{"id": "4bf58dd8d48988d1c9941735", "name": "Ice Cream Shop", "pluralName": "Ice Cream Shops", "shortName": "Ice Cream", "icon": {"prefix": "https://ss3.4sqi.net/img/categories_v2/food/icecream_", "suffix": ".png"}, "primary": true}], "photos": {"count": 0, "groups": []}, "venuePage": {"id": "574431520"}}, "referralId": "e-0-5b509ddd0802d4002c733056-31"}, {"reasons": {"count": 0, "items": [{"summary": "This spot is popular", "type": "general", "reasonName": "globalInteractionReason"}]}, "venue": {"id": "4d20a3cbbdd7a0936a09efce", "name": "Mr. Wang", "location": {"lat": 52.52410619464294, "lng": 13.301163361015256, "labeledLatLngs": [{"label": "display", "lat": 52.52410619464294, "lng": 13.301163361015256}], "distance": 810, "cc": "DE", "city": "Berlin", "state": "Berlin", "country": "Deutschland", "formattedAddress": ["Berlin", "Deutschland"]}, "categories": [{"id": "4bf58dd8d48988d142941735", "name": "Asian Restaurant", "pluralName": "Asian Restaurants", "shortName": "Asian", "icon": {"prefix": "https://ss3.4sqi.net/img/categories_v2/food/asian_", "suffix": ".png"}, "primary": true}], "photos": {"count": 0, "groups": []}}, "referralId": "e-0-4d20a3cbbdd7a0936a09efce-32"}, {"reasons": {"count": 0, "items": [{"summary": "This spot is popular", "type": "general", "reasonName": "globalInteractionReason"}]}, "venue": {"id": "4da02c3dc41ca143fae441a3", "name": "Back Time", "location": {"address": "Spandauer Damm 1", "crossStreet": "Kaiser-Friedrich-Str.", "lat": 52.51961352978463, "lng": 13.299078060044998, "labeledLatLngs": [{"label": "display", "lat": 52.51961352978463, "lng": 13.299078060044998}], "distance": 515, "postalCode": "14059", "cc": "DE", "city": "Berlin", "state": "Berlin", "country": "Deutschland", "formattedAddress": ["Spandauer Damm 1 (Kaiser-Friedrich-Str.)", "14059 Berlin", "Deutschland"]}, "categories": [{"id": "4bf58dd8d48988d16a941735", "name": "Bakery", "pluralName": "Bakeries", "shortName": "Bakery", "icon": {"prefix": "https://ss3.4sqi.net/img/categories_v2/food/bakery_", "suffix": ".png"}, "primary": true}], "photos": {"count": 0, "groups": []}}, "referralId": "e-0-4da02c3dc41ca143fae441a3-33"}, {"reasons": {"count": 0, "items": [{"summary": "This spot is popular", "type": "general", "reasonName": "globalInteractionReason"}]}, "venue": {"id": "4e68b546d22df5c11f6b9dfa", "name": "The Village Feinkost Caf\u00e9", "location": {"address": "Sophie-Charlotten-Str. 49", "lat": 52.5119015284251, "lng": 13.288774544664374, "labeledLatLngs": [{"label": "display", "lat": 52.5119015284251, "lng": 13.288774544664374}], "distance": 901, "postalCode": "14059", "cc": "DE", "city": "Berlin", "state": "Berlin", "country": "Deutschland", "formattedAddress": ["Sophie-Charlotten-Str. 49", "14059 Berlin", "Deutschland"]}, "categories": [{"id": "4bf58dd8d48988d14e941735", "name": "American Restaurant", "pluralName": "American Restaurants", "shortName": "American", "icon": {"prefix": "https://ss3.4sqi.net/img/categories_v2/food/default_", "suffix": ".png"}, "primary": true}], "photos": {"count": 0, "groups": []}}, "referralId": "e-0-4e68b546d22df5c11f6b9dfa-34"}, {"reasons": {"count": 0, "items": [{"summary": "This spot is popular", "type": "general", "reasonName": "globalInteractionReason"}]}, "venue": {"id": "4c30c0cf7cc0c9b607c6ed9a", "name": "Trattoria Fra Diavolo", "location": {"address": "Neufertstr. 22", "lat": 52.51786611380223, "lng": 13.293049335479736, "labeledLatLngs": [{"label": "display", "lat": 52.51786611380223, "lng": 13.293049335479736}], "distance": 243, "postalCode": "14059", "cc": "DE", "city": "Berlin", "state": "Berlin", "country": "Deutschland", "formattedAddress": ["Neufertstr. 22", "14059 Berlin", "Deutschland"]}, "categories": [{"id": "55a5a1ebe4b013909087cb7f", "name": "Trattoria/Osteria", "pluralName": "Trattorias/Osterias", "shortName": "Trattoria/Osteria", "icon": {"prefix": "https://ss3.4sqi.net/img/categories_v2/food/italian_", "suffix": ".png"}, "primary": true}], "photos": {"count": 0, "groups": []}}, "referralId": "e-0-4c30c0cf7cc0c9b607c6ed9a-35"}, {"reasons": {"count": 0, "items": [{"summary": "This spot is popular", "type": "general", "reasonName": "globalInteractionReason"}]}, "venue": {"id": "4da02007b787a1cdb4ea7910", "name": "Ziegenhof", "location": {"address": "Danckelmannstr. 13", "lat": 52.51427795214045, "lng": 13.290000896913618, "labeledLatLngs": [{"label": "display", "lat": 52.51427795214045, "lng": 13.290000896913618}], "distance": 626, "postalCode": "14059", "cc": "DE", "city": "Berlin", "state": "Berlin", "country": "Deutschland", "formattedAddress": ["Danckelmannstr. 13", "14059 Berlin", "Deutschland"]}, "categories": [{"id": "4bf58dd8d48988d1e7941735", "name": "Playground", "pluralName": "Playgrounds", "shortName": "Playground", "icon": {"prefix": "https://ss3.4sqi.net/img/categories_v2/parks_outdoors/playground_", "suffix": ".png"}, "primary": true}], "photos": {"count": 0, "groups": []}}, "referralId": "e-0-4da02007b787a1cdb4ea7910-36"}, {"reasons": {"count": 0, "items": [{"summary": "This spot is popular", "type": "general", "reasonName": "globalInteractionReason"}]}, "venue": {"id": "4d931a3bb189721eca592f2a", "name": "Ming Jia", "location": {"address": "Schlossstr. 32", "lat": 52.511817, "lng": 13.297099471092224, "labeledLatLngs": [{"label": "display", "lat": 52.511817, "lng": 13.297099471092224}], "distance": 970, "postalCode": "14059", "cc": "DE", "city": "Berlin", "state": "Berlin", "country": "Deutschland", "formattedAddress": ["Schlossstr. 32", "14059 Berlin", "Deutschland"]}, "categories": [{"id": "4bf58dd8d48988d145941735", "name": "Chinese Restaurant", "pluralName": "Chinese Restaurants", "shortName": "Chinese", "icon": {"prefix": "https://ss3.4sqi.net/img/categories_v2/food/asian_", "suffix": ".png"}, "primary": true}], "photos": {"count": 0, "groups": []}}, "referralId": "e-0-4d931a3bb189721eca592f2a-37"}, {"reasons": {"count": 0, "items": [{"summary": "This spot is popular", "type": "general", "reasonName": "globalInteractionReason"}]}, "venue": {"id": "5409f56b498ec23df37c5dca", "name": "Pinoy", "location": {"lat": 52.514804, "lng": 13.290808, "labeledLatLngs": [{"label": "display", "lat": 52.514804, "lng": 13.290808}], "distance": 561, "cc": "DE", "city": "Berlin", "state": "Berlin", "country": "Deutschland", "formattedAddress": ["Berlin", "Deutschland"]}, "categories": [{"id": "4eb1bd1c3b7b55596b4a748f", "name": "Filipino Restaurant", "pluralName": "Filipino Restaurants", "shortName": "Filipino", "icon": {"prefix": "https://ss3.4sqi.net/img/categories_v2/food/filipino_", "suffix": ".png"}, "primary": true}], "photos": {"count": 0, "groups": []}}, "referralId": "e-0-5409f56b498ec23df37c5dca-38"}, {"reasons": {"count": 0, "items": [{"summary": "This spot is popular", "type": "general", "reasonName": "globalInteractionReason"}]}, "venue": {"id": "516024dd805506661078e791", "name": "Caf\u00e9 Villa Oppenheim", "location": {"address": "Schlo\u00dfstr. 55", "crossStreet": "Otto-Gr\u00fcneberg-Weg", "lat": 52.51584871553543, "lng": 13.297995328903198, "labeledLatLngs": [{"label": "display", "lat": 52.51584871553543, "lng": 13.297995328903198}], "distance": 626, "postalCode": "14059", "cc": "DE", "city": "Berlin", "state": "Berlin", "country": "Deutschland", "formattedAddress": ["Schlo\u00dfstr. 55 (Otto-Gr\u00fcneberg-Weg)", "14059 Berlin", "Deutschland"]}, "categories": [{"id": "4bf58dd8d48988d16d941735", "name": "Caf\u00e9", "pluralName": "Caf\u00e9s", "shortName": "Caf\u00e9", "icon": {"prefix": "https://ss3.4sqi.net/img/categories_v2/food/cafe_", "suffix": ".png"}, "primary": true}], "photos": {"count": 0, "groups": []}, "venuePage": {"id": "578551762"}}, "referralId": "e-0-516024dd805506661078e791-39"}, {"reasons": {"count": 0, "items": [{"summary": "This spot is popular", "type": "general", "reasonName": "globalInteractionReason"}]}, "venue": {"id": "4c8aa11c1eafb1f758077c35", "name": "XL D\u00f6ner Sophie", "location": {"address": "Schlo\u00dfstra\u00dfe 28", "lat": 52.511749315386886, "lng": 13.297073495511606, "labeledLatLngs": [{"label": "display", "lat": 52.511749315386886, "lng": 13.297073495511606}], "distance": 976, "postalCode": "14059", "cc": "DE", "city": "Berlin", "state": "Berlin", "country": "Deutschland", "formattedAddress": ["Schlo\u00dfstra\u00dfe 28", "14059 Berlin", "Deutschland"]}, "categories": [{"id": "5283c7b4e4b094cb91ec88d8", "name": "Doner Restaurant", "pluralName": "Doner Restaurants", "shortName": "Doner", "icon": {"prefix": "https://ss3.4sqi.net/img/categories_v2/food/turkish_", "suffix": ".png"}, "primary": true}], "photos": {"count": 0, "groups": []}}, "referralId": "e-0-4c8aa11c1eafb1f758077c35-40"}, {"reasons": {"count": 0, "items": [{"summary": "This spot is popular", "type": "general", "reasonName": "globalInteractionReason"}]}, "venue": {"id": "4cb19a491168a093c17d3423", "name": "Caf\u00e9 Reet", "location": {"address": "Klausenerplatz 5", "lat": 52.51812725890996, "lng": 13.292684555053711, "labeledLatLngs": [{"label": "display", "lat": 52.51812725890996, "lng": 13.292684555053711}], "distance": 207, "postalCode": "14059", "cc": "DE", "city": "Berlin", "state": "Berlin", "country": "Deutschland", "formattedAddress": ["Klausenerplatz 5", "14059 Berlin", "Deutschland"]}, "categories": [{"id": "4bf58dd8d48988d16d941735", "name": "Caf\u00e9", "pluralName": "Caf\u00e9s", "shortName": "Caf\u00e9", "icon": {"prefix": "https://ss3.4sqi.net/img/categories_v2/food/cafe_", "suffix": ".png"}, "primary": true}], "photos": {"count": 0, "groups": []}}, "referralId": "e-0-4cb19a491168a093c17d3423-41"}, {"reasons": {"count": 0, "items": [{"summary": "This spot is popular", "type": "general", "reasonName": "globalInteractionReason"}]}, "venue": {"id": "4da2f7ad0f578cfad0bbad18", "name": "Rossmann", "location": {"address": "Spandauer Damm 57-59", "lat": 52.51880116812298, "lng": 13.287844032173428, "labeledLatLngs": [{"label": "display", "lat": 52.51880116812298, "lng": 13.287844032173428}], "distance": 271, "postalCode": "14059", "cc": "DE", "city": "Berlin", "state": "Berlin", "country": "Deutschland", "formattedAddress": ["Spandauer Damm 57-59", "14059 Berlin", "Deutschland"]}, "categories": [{"id": "5745c2e4498e11e7bccabdbd", "name": "Drugstore", "pluralName": "Drugstores", "shortName": "Drugstore", "icon": {"prefix": "https://ss3.4sqi.net/img/categories_v2/shops/pharmacy_", "suffix": ".png"}, "primary": true}], "photos": {"count": 0, "groups": []}}, "referralId": "e-0-4da2f7ad0f578cfad0bbad18-42"}, {"reasons": {"count": 0, "items": [{"summary": "This spot is popular", "type": "general", "reasonName": "globalInteractionReason"}]}, "venue": {"id": "4caf75f8b4b0a35d6f2f41ce", "name": "Trattoria Bar \"da Peppino\"", "location": {"address": "Wundtstr. 17", "lat": 52.51167798321832, "lng": 13.293247854660219, "labeledLatLngs": [{"label": "display", "lat": 52.51167798321832, "lng": 13.293247854660219}], "distance": 915, "postalCode": "14059", "cc": "DE", "city": "Berlin", "state": "Berlin", "country": "Deutschland", "formattedAddress": ["Wundtstr. 17", "14059 Berlin", "Deutschland"]}, "categories": [{"id": "55a5a1ebe4b013909087cb7f", "name": "Trattoria/Osteria", "pluralName": "Trattorias/Osterias", "shortName": "Trattoria/Osteria", "icon": {"prefix": "https://ss3.4sqi.net/img/categories_v2/food/italian_", "suffix": ".png"}, "primary": true}], "photos": {"count": 0, "groups": []}}, "referralId": "e-0-4caf75f8b4b0a35d6f2f41ce-43"}, {"reasons": {"count": 0, "items": [{"summary": "This spot is popular", "type": "general", "reasonName": "globalInteractionReason"}]}, "venue": {"id": "4df362f822718759f81f828e", "name": "Chenab", "location": {"address": "Knobelsdorffstr. 35", "crossStreet": "Danckelmannstr.", "lat": 52.51311953099236, "lng": 13.291284441947937, "labeledLatLngs": [{"label": "display", "lat": 52.51311953099236, "lng": 13.291284441947937}], "distance": 747, "postalCode": "14059", "cc": "DE", "city": "Berlin", "state": "Berlin", "country": "Deutschland", "formattedAddress": ["Knobelsdorffstr. 35 (Danckelmannstr.)", "14059 Berlin", "Deutschland"]}, "categories": [{"id": "4bf58dd8d48988d10f941735", "name": "Indian Restaurant", "pluralName": "Indian Restaurants", "shortName": "Indian", "icon": {"prefix": "https://ss3.4sqi.net/img/categories_v2/food/indian_", "suffix": ".png"}, "primary": true}], "photos": {"count": 0, "groups": []}}, "referralId": "e-0-4df362f822718759f81f828e-44"}, {"reasons": {"count": 0, "items": [{"summary": "This spot is popular", "type": "general", "reasonName": "globalInteractionReason"}]}, "venue": {"id": "4f172923e4b099ac3b105b5a", "name": "Schustehruspark", "location": {"address": "Schustehrusstr.", "crossStreet": "Hebbelstr.", "lat": 52.516374904696136, "lng": 13.2989501953125, "labeledLatLngs": [{"label": "display", "lat": 52.516374904696136, "lng": 13.2989501953125}], "distance": 636, "postalCode": "10585", "cc": "DE", "city": "Berlin", "state": "Berlin", "country": "Deutschland", "formattedAddress": ["Schustehrusstr. (Hebbelstr.)", "10585 Berlin", "Deutschland"]}, "categories": [{"id": "4bf58dd8d48988d163941735", "name": "Park", "pluralName": "Parks", "shortName": "Park", "icon": {"prefix": "https://ss3.4sqi.net/img/categories_v2/parks_outdoors/park_", "suffix": ".png"}, "primary": true}], "photos": {"count": 0, "groups": []}}, "referralId": "e-0-4f172923e4b099ac3b105b5a-45"}, {"reasons": {"count": 0, "items": [{"summary": "This spot is popular", "type": "general", "reasonName": "globalInteractionReason"}]}, "venue": {"id": "52e7ff9b498e364c24c802c5", "name": "Taverna Elena", "location": {"address": "Gierkezeile 23", "lat": 52.51496883578349, "lng": 13.302944800342402, "labeledLatLngs": [{"label": "display", "lat": 52.51496883578349, "lng": 13.302944800342402}], "distance": 947, "postalCode": "10585", "cc": "DE", "city": "Berlin", "state": "Berlin", "country": "Deutschland", "formattedAddress": ["Gierkezeile 23", "10585 Berlin", "Deutschland"]}, "categories": [{"id": "53d6c1b0e4b02351e88a83d2", "name": "Taverna", "pluralName": "Tavernas", "shortName": "Tavernas", "icon": {"prefix": "https://ss3.4sqi.net/img/categories_v2/food/greek_", "suffix": ".png"}, "primary": true}], "photos": {"count": 0, "groups": []}}, "referralId": "e-0-52e7ff9b498e364c24c802c5-46"}, {"reasons": {"count": 0, "items": [{"summary": "This spot is popular", "type": "general", "reasonName": "globalInteractionReason"}]}, "venue": {"id": "4fc89f73e4b059f59959cb66", "name": "Dasomi", "location": {"address": "Knobelsdorffstr. 27", "lat": 52.51333063322729, "lng": 13.292518837584621, "labeledLatLngs": [{"label": "display", "lat": 52.51333063322729, "lng": 13.292518837584621}], "distance": 727, "postalCode": "14059", "cc": "DE", "city": "Berlin", "state": "Berlin", "country": "Deutschland", "formattedAddress": ["Knobelsdorffstr. 27", "14059 Berlin", "Deutschland"]}, "categories": [{"id": "4bf58dd8d48988d113941735", "name": "Korean Restaurant", "pluralName": "Korean Restaurants", "shortName": "Korean", "icon": {"prefix": "https://ss3.4sqi.net/img/categories_v2/food/korean_", "suffix": ".png"}, "primary": true}], "photos": {"count": 0, "groups": []}}, "referralId": "e-0-4fc89f73e4b059f59959cb66-47"}, {"reasons": {"count": 0, "items": [{"summary": "This spot is popular", "type": "general", "reasonName": "globalInteractionReason"}]}, "venue": {"id": "4ba9f5abf964a520e83f3ae3", "name": "Ristorante Dante", "location": {"address": "Tegeler Weg 16", "lat": 52.526276395117634, "lng": 13.297480051671993, "labeledLatLngs": [{"label": "display", "lat": 52.526276395117634, "lng": 13.297480051671993}], "distance": 824, "postalCode": "10589", "cc": "DE", "city": "Berlin", "state": "Berlin", "country": "Deutschland", "formattedAddress": ["Tegeler Weg 16", "10589 Berlin", "Deutschland"]}, "categories": [{"id": "4bf58dd8d48988d110941735", "name": "Italian Restaurant", "pluralName": "Italian Restaurants", "shortName": "Italian", "icon": {"prefix": "https://ss3.4sqi.net/img/categories_v2/food/italian_", "suffix": ".png"}, "primary": true}], "photos": {"count": 0, "groups": []}}, "referralId": "e-0-4ba9f5abf964a520e83f3ae3-48"}, {"reasons": {"count": 0, "items": [{"summary": "This spot is popular", "type": "general", "reasonName": "globalInteractionReason"}]}, "venue": {"id": "4dee595b31516bf7a047b169", "name": "Belvedere", "location": {"address": "Spandauer Damm 10-22", "lat": 52.52756734529345, "lng": 13.295474551659012, "labeledLatLngs": [{"label": "display", "lat": 52.52756734529345, "lng": 13.295474551659012}], "distance": 902, "postalCode": "14059", "cc": "DE", "city": "Berlin", "state": "Berlin", "country": "Deutschland", "formattedAddress": ["Spandauer Damm 10-22", "14059 Berlin", "Deutschland"]}, "categories": [{"id": "4bf58dd8d48988d181941735", "name": "Museum", "pluralName": "Museums", "shortName": "Museum", "icon": {"prefix": "https://ss3.4sqi.net/img/categories_v2/arts_entertainment/museum_", "suffix": ".png"}, "primary": true}], "photos": {"count": 0, "groups": []}}, "referralId": "e-0-4dee595b31516bf7a047b169-49"}, {"reasons": {"count": 0, "items": [{"summary": "This spot is popular", "type": "general", "reasonName": "globalInteractionReason"}]}, "venue": {"id": "56265f00498ec83fce1d950c", "name": "Manhattan Burger", "location": {"address": "Schlo\u00dfstr. 39", "crossStreet": "Zillestr.", "lat": 52.51308579535182, "lng": 13.29711665247256, "labeledLatLngs": [{"label": "display", "lat": 52.51308579535182, "lng": 13.29711665247256}], "distance": 842, "postalCode": "14059", "cc": "DE", "city": "Berlin", "state": "Berlin", "country": "Deutschland", "formattedAddress": ["Schlo\u00dfstr. 39 (Zillestr.)", "14059 Berlin", "Deutschland"]}, "categories": [{"id": "4bf58dd8d48988d16c941735", "name": "Burger Joint", "pluralName": "Burger Joints", "shortName": "Burgers", "icon": {"prefix": "https://ss3.4sqi.net/img/categories_v2/food/burger_", "suffix": ".png"}, "primary": true}], "photos": {"count": 0, "groups": []}}, "referralId": "e-0-56265f00498ec83fce1d950c-50"}, {"reasons": {"count": 0, "items": [{"summary": "This spot is popular", "type": "general", "reasonName": "globalInteractionReason"}]}, "venue": {"id": "4c6c495f2d9976b0a716133a", "name": "Eiscaf\u00e9 Fedora", "location": {"address": "Nehringstr. 23", "lat": 52.5147827078326, "lng": 13.294294628788057, "labeledLatLngs": [{"label": "display", "lat": 52.5147827078326, "lng": 13.294294628788057}], "distance": 593, "postalCode": "14059", "cc": "DE", "city": "Berlin", "state": "Berlin", "country": "Deutschland", "formattedAddress": ["Nehringstr. 23", "14059 Berlin", "Deutschland"]}, "categories": [{"id": "4bf58dd8d48988d1c9941735", "name": "Ice Cream Shop", "pluralName": "Ice Cream Shops", "shortName": "Ice Cream", "icon": {"prefix": "https://ss3.4sqi.net/img/categories_v2/food/icecream_", "suffix": ".png"}, "primary": true}], "photos": {"count": 0, "groups": []}}, "referralId": "e-0-4c6c495f2d9976b0a716133a-51"}, {"reasons": {"count": 0, "items": [{"summary": "This spot is popular", "type": "general", "reasonName": "globalInteractionReason"}]}, "venue": {"id": "4b86b035f964a5205f9631e3", "name": "Musik Z Cafe", "location": {"address": "Mierendorfstra\u00dfe", "lat": 52.524596398942094, "lng": 13.302840483744465, "labeledLatLngs": [{"label": "display", "lat": 52.524596398942094, "lng": 13.302840483744465}], "distance": 934, "postalCode": "10589", "cc": "DE", "city": "Berlin", "state": "Berlin", "country": "Deutschland", "formattedAddress": ["Mierendorfstra\u00dfe", "10589 Berlin", "Deutschland"]}, "categories": [{"id": "4bf58dd8d48988d116941735", "name": "Bar", "pluralName": "Bars", "shortName": "Bar", "icon": {"prefix": "https://ss3.4sqi.net/img/categories_v2/nightlife/pub_", "suffix": ".png"}, "primary": true}], "photos": {"count": 0, "groups": []}}, "referralId": "e-0-4b86b035f964a5205f9631e3-52"}, {"reasons": {"count": 0, "items": [{"summary": "This spot is popular", "type": "general", "reasonName": "globalInteractionReason"}]}, "venue": {"id": "4bcb7d7b3740b713eba26265", "name": "Zur Linde", "location": {"address": "Sophie-Charlotten-Str. 97", "lat": 52.51674791291405, "lng": 13.287025138710602, "labeledLatLngs": [{"label": "display", "lat": 52.51674791291405, "lng": 13.287025138710602}], "distance": 456, "postalCode": "14059", "cc": "DE", "city": "Berlin", "state": "Berlin", "country": "Deutschland", "formattedAddress": ["Sophie-Charlotten-Str. 97", "14059 Berlin", "Deutschland"]}, "categories": [{"id": "4bf58dd8d48988d117941735", "name": "Beer Garden", "pluralName": "Beer Gardens", "shortName": "Beer Garden", "icon": {"prefix": "https://ss3.4sqi.net/img/categories_v2/nightlife/beergarden_", "suffix": ".png"}, "primary": true}], "photos": {"count": 0, "groups": []}}, "referralId": "e-0-4bcb7d7b3740b713eba26265-53"}, {"reasons": {"count": 0, "items": [{"summary": "This spot is popular", "type": "general", "reasonName": "globalInteractionReason"}]}, "venue": {"id": "53dcd7c9498e33be7840de9c", "name": "Caf\u00e9 con amore", "location": {"address": "Girkezeile 31", "crossStreet": "Haubach Str.", "lat": 52.51571905790991, "lng": 13.3028089578205, "labeledLatLngs": [{"label": "display", "lat": 52.51571905790991, "lng": 13.3028089578205}], "distance": 894, "postalCode": "10585", "cc": "DE", "city": "Berlin", "state": "Berlin", "country": "Deutschland", "formattedAddress": ["Girkezeile 31 (Haubach Str.)", "10585 Berlin", "Deutschland"]}, "categories": [{"id": "4bf58dd8d48988d16d941735", "name": "Caf\u00e9", "pluralName": "Caf\u00e9s", "shortName": "Caf\u00e9", "icon": {"prefix": "https://ss3.4sqi.net/img/categories_v2/food/cafe_", "suffix": ".png"}, "primary": true}], "photos": {"count": 0, "groups": []}}, "referralId": "e-0-53dcd7c9498e33be7840de9c-54"}, {"reasons": {"count": 0, "items": [{"summary": "This spot is popular", "type": "general", "reasonName": "globalInteractionReason"}]}, "venue": {"id": "4e3835408877541e90ed273a", "name": "REWE", "location": {"address": "Otto-Suhr-Allee 141", "lat": 52.51899470410431, "lng": 13.300767599578535, "labeledLatLngs": [{"label": "display", "lat": 52.51899470410431, "lng": 13.300767599578535}], "distance": 636, "postalCode": "10585", "cc": "DE", "city": "Berlin", "state": "Berlin", "country": "Deutschland", "formattedAddress": ["Otto-Suhr-Allee 141", "10585 Berlin", "Deutschland"]}, "categories": [{"id": "52f2ab2ebcbc57f1066b8b46", "name": "Supermarket", "pluralName": "Supermarkets", "shortName": "Supermarket", "icon": {"prefix": "https://ss3.4sqi.net/img/categories_v2/shops/food_grocery_", "suffix": ".png"}, "primary": true}], "photos": {"count": 0, "groups": []}}, "referralId": "e-0-4e3835408877541e90ed273a-55"}, {"reasons": {"count": 0, "items": [{"summary": "This spot is popular", "type": "general", "reasonName": "globalInteractionReason"}]}, "venue": {"id": "4e4d147a149563bcf3091e5e", "name": "Taverna Karagiosis", "location": {"address": "Klausener Platz 4", "lat": 52.51824746438265, "lng": 13.292497454717404, "labeledLatLngs": [{"label": "display", "lat": 52.51824746438265, "lng": 13.292497454717404}], "distance": 189, "postalCode": "14059", "cc": "DE", "city": "Berlin", "state": "Berlin", "country": "Deutschland", "formattedAddress": ["Klausener Platz 4", "14059 Berlin", "Deutschland"]}, "categories": [{"id": "53d6c1b0e4b02351e88a83d2", "name": "Taverna", "pluralName": "Tavernas", "shortName": "Tavernas", "icon": {"prefix": "https://ss3.4sqi.net/img/categories_v2/food/greek_", "suffix": ".png"}, "primary": true}], "photos": {"count": 0, "groups": []}}, "referralId": "e-0-4e4d147a149563bcf3091e5e-56"}, {"reasons": {"count": 0, "items": [{"summary": "This spot is popular", "type": "general", "reasonName": "globalInteractionReason"}]}, "venue": {"id": "518f74c1498e80c1aa14f04e", "name": "\u00d6sterreich Park", "location": {"lat": 52.52179857110962, "lng": 13.30451087523427, "labeledLatLngs": [{"label": "display", "lat": 52.52179857110962, "lng": 13.30451087523427}], "distance": 909, "cc": "DE", "city": "Berlin", "state": "Berlin", "country": "Deutschland", "formattedAddress": ["Berlin", "Deutschland"]}, "categories": [{"id": "4bf58dd8d48988d163941735", "name": "Park", "pluralName": "Parks", "shortName": "Park", "icon": {"prefix": "https://ss3.4sqi.net/img/categories_v2/parks_outdoors/park_", "suffix": ".png"}, "primary": true}], "photos": {"count": 0, "groups": []}}, "referralId": "e-0-518f74c1498e80c1aa14f04e-57"}, {"reasons": {"count": 0, "items": [{"summary": "This spot is popular", "type": "general", "reasonName": "globalInteractionReason"}]}, "venue": {"id": "553fbd93498ef9c5a194e0a0", "name": "Caf\u00e9 La Mouche", "location": {"address": "Charlottenburger Ufer 1", "lat": 52.521314871809274, "lng": 13.299804886716798, "labeledLatLngs": [{"label": "display", "lat": 52.521314871809274, "lng": 13.299804886716798}], "distance": 587, "postalCode": "10587", "cc": "DE", "city": "Berlin", "state": "Berlin", "country": "Deutschland", "formattedAddress": ["Charlottenburger Ufer 1", "10587 Berlin", "Deutschland"]}, "categories": [{"id": "4bf58dd8d48988d16d941735", "name": "Caf\u00e9", "pluralName": "Caf\u00e9s", "shortName": "Caf\u00e9", "icon": {"prefix": "https://ss3.4sqi.net/img/categories_v2/food/cafe_", "suffix": ".png"}, "primary": true}], "photos": {"count": 0, "groups": []}, "venuePage": {"id": "151281251"}}, "referralId": "e-0-553fbd93498ef9c5a194e0a0-58"}, {"reasons": {"count": 0, "items": [{"summary": "This spot is popular", "type": "general", "reasonName": "globalInteractionReason"}]}, "venue": {"id": "4cb19e0dcbab236a463eaa73", "name": "Kleine Orangerie am Schloss Charlottenburg", "location": {"address": "Spandauer Damm 20", "lat": 52.51986546078823, "lng": 13.293798443042727, "labeledLatLngs": [{"label": "display", "lat": 52.51986546078823, "lng": 13.293798443042727}], "distance": 157, "postalCode": "14059", "cc": "DE", "city": "Berlin", "state": "Berlin", "country": "Deutschland", "formattedAddress": ["Spandauer Damm 20", "14059 Berlin", "Deutschland"]}, "categories": [{"id": "4bf58dd8d48988d10d941735", "name": "German Restaurant", "pluralName": "German Restaurants", "shortName": "German", "icon": {"prefix": "https://ss3.4sqi.net/img/categories_v2/food/german_", "suffix": ".png"}, "primary": true}], "photos": {"count": 0, "groups": []}}, "referralId": "e-0-4cb19e0dcbab236a463eaa73-59"}, {"reasons": {"count": 0, "items": [{"summary": "This spot is popular", "type": "general", "reasonName": "globalInteractionReason"}]}, "venue": {"id": "552813c3498e37eed87f8340", "name": "da Capo", "location": {"lat": 52.522811118851436, "lng": 13.30013936546013, "labeledLatLngs": [{"label": "display", "lat": 52.522811118851436, "lng": 13.30013936546013}], "distance": 674, "cc": "DE", "city": "Berlin", "state": "Berlin", "country": "Deutschland", "formattedAddress": ["Berlin", "Deutschland"]}, "categories": [{"id": "4bf58dd8d48988d110941735", "name": "Italian Restaurant", "pluralName": "Italian Restaurants", "shortName": "Italian", "icon": {"prefix": "https://ss3.4sqi.net/img/categories_v2/food/italian_", "suffix": ".png"}, "primary": true}], "photos": {"count": 0, "groups": []}}, "referralId": "e-0-552813c3498e37eed87f8340-60"}, {"reasons": {"count": 0, "items": [{"summary": "This spot is popular", "type": "general", "reasonName": "globalInteractionReason"}]}, "venue": {"id": "4cfd4a78ee9cb60c14c199ad", "name": "Van May", "location": {"address": "Schlo\u00dfstr. 33", "lat": 52.51202086403851, "lng": 13.297198947158115, "labeledLatLngs": [{"label": "display", "lat": 52.51202086403851, "lng": 13.297198947158115}], "distance": 952, "postalCode": "14059", "cc": "DE", "city": "Berlin", "state": "Berlin", "country": "Deutschland", "formattedAddress": ["Schlo\u00dfstr. 33", "14059 Berlin", "Deutschland"]}, "categories": [{"id": "4bf58dd8d48988d14a941735", "name": "Vietnamese Restaurant", "pluralName": "Vietnamese Restaurants", "shortName": "Vietnamese", "icon": {"prefix": "https://ss3.4sqi.net/img/categories_v2/food/vietnamese_", "suffix": ".png"}, "primary": true}], "photos": {"count": 0, "groups": []}}, "referralId": "e-0-4cfd4a78ee9cb60c14c199ad-61"}, {"reasons": {"count": 0, "items": [{"summary": "This spot is popular", "type": "general", "reasonName": "globalInteractionReason"}]}, "venue": {"id": "4cd95ca61647a093537be64c", "name": "EDEKA", "location": {"address": "Tauroggenerstr.", "crossStreet": "Osnabr\u00fccker Str.", "lat": 52.52577369462599, "lng": 13.301872759717963, "labeledLatLngs": [{"label": "display", "lat": 52.52577369462599, "lng": 13.301872759717963}], "distance": 966, "postalCode": "10589", "cc": "DE", "city": "Berlin", "state": "Berlin", "country": "Deutschland", "formattedAddress": ["Tauroggenerstr. (Osnabr\u00fccker Str.)", "10589 Berlin", "Deutschland"]}, "categories": [{"id": "52f2ab2ebcbc57f1066b8b46", "name": "Supermarket", "pluralName": "Supermarkets", "shortName": "Supermarket", "icon": {"prefix": "https://ss3.4sqi.net/img/categories_v2/shops/food_grocery_", "suffix": ".png"}, "primary": true}], "photos": {"count": 0, "groups": []}}, "referralId": "e-0-4cd95ca61647a093537be64c-62"}, {"reasons": {"count": 0, "items": [{"summary": "This spot is popular", "type": "general", "reasonName": "globalInteractionReason"}]}, "venue": {"id": "4debc65ae4cdc079f4a694f3", "name": "Kastanie", "location": {"address": "Schlo\u00dfstr. 22", "lat": 52.514078, "lng": 13.296226, "labeledLatLngs": [{"label": "display", "lat": 52.514078, "lng": 13.296226}], "distance": 717, "postalCode": "14059", "cc": "DE", "city": "Berlin", "state": "Berlin", "country": "Deutschland", "formattedAddress": ["Schlo\u00dfstr. 22", "14059 Berlin", "Deutschland"]}, "categories": [{"id": "4bf58dd8d48988d10d941735", "name": "German Restaurant", "pluralName": "German Restaurants", "shortName": "German", "icon": {"prefix": "https://ss3.4sqi.net/img/categories_v2/food/german_", "suffix": ".png"}, "primary": true}], "photos": {"count": 0, "groups": []}}, "referralId": "e-0-4debc65ae4cdc079f4a694f3-63"}, {"reasons": {"count": 0, "items": [{"summary": "This spot is popular", "type": "general", "reasonName": "globalInteractionReason"}]}, "venue": {"id": "5ac6513f123a1948f8f01189", "name": "REWE", "location": {"address": "Wundtstra\u00dfe 26", "lat": 52.51096183939591, "lng": 13.291853988211415, "labeledLatLngs": [{"label": "display", "lat": 52.51096183939591, "lng": 13.291853988211415}], "distance": 988, "postalCode": "14059", "cc": "DE", "city": "Berlin", "state": "Berlin", "country": "Deutschland", "formattedAddress": ["Wundtstra\u00dfe 26", "14059 Berlin", "Deutschland"]}, "categories": [{"id": "52f2ab2ebcbc57f1066b8b46", "name": "Supermarket", "pluralName": "Supermarkets", "shortName": "Supermarket", "icon": {"prefix": "https://ss3.4sqi.net/img/categories_v2/shops/food_grocery_", "suffix": ".png"}, "primary": true}], "photos": {"count": 0, "groups": []}, "venuePage": {"id": "559615261"}}, "referralId": "e-0-5ac6513f123a1948f8f01189-64"}, {"reasons": {"count": 0, "items": [{"summary": "This spot is popular", "type": "general", "reasonName": "globalInteractionReason"}]}, "venue": {"id": "4c0803adbbc676b073de45d5", "name": "Queens 45bc", "location": {"address": "K\u00f6nigin-elisabeth-str. 45", "lat": 52.514246710502505, "lng": 13.280679500119293, "labeledLatLngs": [{"label": "display", "lat": 52.514246710502505, "lng": 13.280679500119293}], "distance": 959, "postalCode": "14059", "cc": "DE", "city": "Berlin", "state": "Berlin", "country": "Deutschland", "formattedAddress": ["K\u00f6nigin-elisabeth-str. 45", "14059 Berlin", "Deutschland"]}, "categories": [{"id": "4bf58dd8d48988d18e941735", "name": "Comedy Club", "pluralName": "Comedy Clubs", "shortName": "Comedy Club", "icon": {"prefix": "https://ss3.4sqi.net/img/categories_v2/arts_entertainment/comedyclub_", "suffix": ".png"}, "primary": true}], "photos": {"count": 0, "groups": []}}, "referralId": "e-0-4c0803adbbc676b073de45d5-65"}, {"reasons": {"count": 0, "items": [{"summary": "This spot is popular", "type": "general", "reasonName": "globalInteractionReason"}]}, "venue": {"id": "4dbb230b6e815ab0de63c743", "name": "Anfora", "location": {"address": "Spandauer Damm 112", "lat": 52.51857706292357, "lng": 13.280389520614309, "labeledLatLngs": [{"label": "display", "lat": 52.51857706292357, "lng": 13.280389520614309}], "distance": 763, "postalCode": "14059", "cc": "DE", "city": "Berlin", "state": "Berlin", "country": "Deutschland", "formattedAddress": ["Spandauer Damm 112", "14059 Berlin", "Deutschland"]}, "categories": [{"id": "4bf58dd8d48988d1ce941735", "name": "Seafood Restaurant", "pluralName": "Seafood Restaurants", "shortName": "Seafood", "icon": {"prefix": "https://ss3.4sqi.net/img/categories_v2/food/seafood_", "suffix": ".png"}, "primary": true}], "photos": {"count": 0, "groups": []}}, "referralId": "e-0-4dbb230b6e815ab0de63c743-66"}, {"reasons": {"count": 0, "items": [{"summary": "This spot is popular", "type": "general", "reasonName": "globalInteractionReason"}]}, "venue": {"id": "53e65a7b498ee0a807f0c818", "name": "The Grill", "location": {"lat": 52.518734236009664, "lng": 13.285916214383484, "labeledLatLngs": [{"label": "display", "lat": 52.518734236009664, "lng": 13.285916214383484}], "distance": 395, "cc": "DE", "city": "Berlin", "state": "Berlin", "country": "Deutschland", "formattedAddress": ["Berlin", "Deutschland"]}, "categories": [{"id": "4bf58dd8d48988d16c941735", "name": "Burger Joint", "pluralName": "Burger Joints", "shortName": "Burgers", "icon": {"prefix": "https://ss3.4sqi.net/img/categories_v2/food/burger_", "suffix": ".png"}, "primary": true}], "photos": {"count": 0, "groups": []}}, "referralId": "e-0-53e65a7b498ee0a807f0c818-67"}, {"reasons": {"count": 0, "items": [{"summary": "This spot is popular", "type": "general", "reasonName": "globalInteractionReason"}]}, "venue": {"id": "4c767a81c219224bc249a528", "name": "Powerhouse Berlin", "location": {"address": "Sophie-Charlotten-Str. 5", "lat": 52.522068335057945, "lng": 13.285359435695506, "labeledLatLngs": [{"label": "display", "lat": 52.522068335057945, "lng": 13.285359435695506}], "distance": 482, "postalCode": "14059", "cc": "DE", "city": "Berlin", "state": "Berlin", "country": "Deutschland", "formattedAddress": ["Sophie-Charlotten-Str. 5", "14059 Berlin", "Deutschland"]}, "categories": [{"id": "4bf58dd8d48988d175941735", "name": "Gym / Fitness Center", "pluralName": "Gyms or Fitness Centers", "shortName": "Gym / Fitness", "icon": {"prefix": "https://ss3.4sqi.net/img/categories_v2/building/gym_", "suffix": ".png"}, "primary": true}], "photos": {"count": 0, "groups": []}}, "referralId": "e-0-4c767a81c219224bc249a528-68"}, {"reasons": {"count": 0, "items": [{"summary": "This spot is popular", "type": "general", "reasonName": "globalInteractionReason"}]}, "venue": {"id": "4ba2601cf964a520aef237e3", "name": "Lidl", "location": {"address": "Sophie-Charlotten-Stra\u00dfe 31", "lat": 52.51538032137377, "lng": 13.287262648607339, "labeledLatLngs": [{"label": "display", "lat": 52.51538032137377, "lng": 13.287262648607339}], "distance": 571, "postalCode": "14059", "cc": "DE", "city": "Berlin", "state": "Berlin", "country": "Deutschland", "formattedAddress": ["Sophie-Charlotten-Stra\u00dfe 31", "14059 Berlin-Charlottenburg-Wilmersdorf", "Deutschland"]}, "categories": [{"id": "52f2ab2ebcbc57f1066b8b46", "name": "Supermarket", "pluralName": "Supermarkets", "shortName": "Supermarket", "icon": {"prefix": "https://ss3.4sqi.net/img/categories_v2/shops/food_grocery_", "suffix": ".png"}, "primary": true}], "photos": {"count": 0, "groups": []}, "venuePage": {"id": "580017189"}}, "referralId": "e-0-4ba2601cf964a520aef237e3-69"}, {"reasons": {"count": 0, "items": [{"summary": "This spot is popular", "type": "general", "reasonName": "globalInteractionReason"}]}, "venue": {"id": "553cdaa2498e16d132d3f769", "name": "Karpfenteich", "location": {"address": "Schlossgarten Charlottenburg", "lat": 52.525229810560624, "lng": 13.29493761062622, "labeledLatLngs": [{"label": "display", "lat": 52.525229810560624, "lng": 13.29493761062622}], "distance": 644, "postalCode": "14059", "cc": "DE", "city": "Berlin", "state": "Berlin", "country": "Deutschland", "formattedAddress": ["Schlossgarten Charlottenburg", "14059 Berlin", "Deutschland"]}, "categories": [{"id": "4bf58dd8d48988d161941735", "name": "Lake", "pluralName": "Lakes", "shortName": "Lake", "icon": {"prefix": "https://ss3.4sqi.net/img/categories_v2/parks_outdoors/lake_", "suffix": ".png"}, "primary": true}], "photos": {"count": 0, "groups": []}}, "referralId": "e-0-553cdaa2498e16d132d3f769-70"}, {"reasons": {"count": 0, "items": [{"summary": "This spot is popular", "type": "general", "reasonName": "globalInteractionReason"}]}, "venue": {"id": "4bdd86a1645e0f47e7a46b19", "name": "Carpe Diem Bistro", "location": {"address": "Spandauer Damm 102", "lat": 52.51847247414217, "lng": 13.281805522018324, "labeledLatLngs": [{"label": "display", "lat": 52.51847247414217, "lng": 13.281805522018324}], "distance": 672, "postalCode": "14059", "cc": "DE", "city": "Berlin", "state": "Berlin", "country": "Deutschland", "formattedAddress": ["Spandauer Damm 102", "14059 Berlin", "Deutschland"]}, "categories": [{"id": "4bf58dd8d48988d16d941735", "name": "Caf\u00e9", "pluralName": "Caf\u00e9s", "shortName": "Caf\u00e9", "icon": {"prefix": "https://ss3.4sqi.net/img/categories_v2/food/cafe_", "suffix": ".png"}, "primary": true}], "photos": {"count": 0, "groups": []}}, "referralId": "e-0-4bdd86a1645e0f47e7a46b19-71"}, {"reasons": {"count": 0, "items": [{"summary": "This spot is popular", "type": "general", "reasonName": "globalInteractionReason"}]}, "venue": {"id": "4e663bfd315114bf60d8fdb8", "name": "Dassbach K\u00fcchen Werksverkauf", "location": {"address": "Sophie-Charlotten-Str. 1", "lat": 52.5244595525717, "lng": 13.284852504730225, "labeledLatLngs": [{"label": "display", "lat": 52.5244595525717, "lng": 13.284852504730225}], "distance": 682, "postalCode": "14059", "cc": "DE", "city": "Berlin", "state": "Berlin", "country": "Deutschland", "formattedAddress": ["Sophie-Charlotten-Str. 1", "14059 Berlin", "Deutschland"]}, "categories": [{"id": "4bf58dd8d48988d1f8941735", "name": "Furniture / Home Store", "pluralName": "Furniture / Home Stores", "shortName": "Furniture / Home", "icon": {"prefix": "https://ss3.4sqi.net/img/categories_v2/shops/furniture_", "suffix": ".png"}, "primary": true}], "photos": {"count": 0, "groups": []}}, "referralId": "e-0-4e663bfd315114bf60d8fdb8-72"}, {"reasons": {"count": 0, "items": [{"summary": "This spot is popular", "type": "general", "reasonName": "globalInteractionReason"}]}, "venue": {"id": "4b5d7b59f964a5206e5e29e3", "name": "Cinegate Film+Fotostudio", "location": {"address": "Sophie-Charlotte-Str. 4c", "lat": 52.52418522020962, "lng": 13.283794581918265, "labeledLatLngs": [{"label": "display", "lat": 52.52418522020962, "lng": 13.283794581918265}], "distance": 710, "cc": "DE", "city": "Berlin", "state": "Berlin", "country": "Deutschland", "formattedAddress": ["Sophie-Charlotte-Str. 4c", "Berlin", "Deutschland"]}, "categories": [{"id": "56aa371be4b08b9a8d573523", "name": "Film Studio", "pluralName": "Film Studios", "shortName": "Film Studio", "icon": {"prefix": "https://ss3.4sqi.net/img/categories_v2/arts_entertainment/movietheater_", "suffix": ".png"}, "primary": true}], "photos": {"count": 0, "groups": []}}, "referralId": "e-0-4b5d7b59f964a5206e5e29e3-73"}, {"reasons": {"count": 0, "items": [{"summary": "This spot is popular", "type": "general", "reasonName": "globalInteractionReason"}]}, "venue": {"id": "4ea2760e99117fc56c7b66c2", "name": "MyPlace - SelfStorage", "location": {"address": "F\u00fcrstenbrunner Weg 34", "lat": 52.521992025025575, "lng": 13.280260562896729, "labeledLatLngs": [{"label": "display", "lat": 52.521992025025575, "lng": 13.280260562896729}], "distance": 796, "postalCode": "14059", "cc": "DE", "city": "Berlin", "state": "Berlin", "country": "Deutschland", "formattedAddress": ["F\u00fcrstenbrunner Weg 34", "14059 Berlin", "Deutschland"]}, "categories": [{"id": "4f04b1572fb6e1c99f3db0bf", "name": "Storage Facility", "pluralName": "Storage Facilities", "shortName": "Storage", "icon": {"prefix": "https://ss3.4sqi.net/img/categories_v2/shops/storage_", "suffix": ".png"}, "primary": true}], "photos": {"count": 0, "groups": []}, "venuePage": {"id": "494224477"}}, "referralId": "e-0-4ea2760e99117fc56c7b66c2-74"}, {"reasons": {"count": 0, "items": [{"summary": "This spot is popular", "type": "general", "reasonName": "globalInteractionReason"}]}, "venue": {"id": "4e47b9c5c65bd6ffbea2bb6a", "name": "La Manife", "location": {"lat": 52.51836781089851, "lng": 13.279740665754996, "labeledLatLngs": [{"label": "display", "lat": 52.51836781089851, "lng": 13.279740665754996}], "distance": 811, "cc": "DE", "city": "Berlin", "state": "Berlin", "country": "Deutschland", "formattedAddress": ["Berlin", "Deutschland"]}, "categories": [{"id": "4bf58dd8d48988d16d941735", "name": "Caf\u00e9", "pluralName": "Caf\u00e9s", "shortName": "Caf\u00e9", "icon": {"prefix": "https://ss3.4sqi.net/img/categories_v2/food/cafe_", "suffix": ".png"}, "primary": true}], "photos": {"count": 0, "groups": []}}, "referralId": "e-0-4e47b9c5c65bd6ffbea2bb6a-75"}, {"reasons": {"count": 0, "items": [{"summary": "This spot is popular", "type": "general", "reasonName": "globalInteractionReason"}]}, "venue": {"id": "4e1f004862e19e27e24f1dc2", "name": "H K\u00f6nigin-Elisabeth-Stra\u00dfe / Spandauer Damm", "location": {"address": "K\u00f6nigin-Elisabeth-Str", "crossStreet": "Spandauer Damm", "lat": 52.51833748408313, "lng": 13.279727770695995, "labeledLatLngs": [{"label": "display", "lat": 52.51833748408313, "lng": 13.279727770695995}], "distance": 812, "postalCode": "14050", "cc": "DE", "city": "Berlin", "state": "Berlin", "country": "Deutschland", "formattedAddress": ["K\u00f6nigin-Elisabeth-Str (Spandauer Damm)", "14050 Berlin", "Deutschland"]}, "categories": [{"id": "52f2ab2ebcbc57f1066b8b4f", "name": "Bus Stop", "pluralName": "Bus Stops", "shortName": "Bus Stop", "icon": {"prefix": "https://ss3.4sqi.net/img/categories_v2/travel/busstation_", "suffix": ".png"}, "primary": true}], "photos": {"count": 0, "groups": []}}, "referralId": "e-0-4e1f004862e19e27e24f1dc2-76"}, {"reasons": {"count": 0, "items": [{"summary": "This spot is popular", "type": "general", "reasonName": "globalInteractionReason"}]}, "venue": {"id": "57c7180fcd10622c6d9bd008", "name": "Prema", "location": {"lat": 52.512588, "lng": 13.294223, "labeledLatLngs": [{"label": "display", "lat": 52.512588, "lng": 13.294223}], "distance": 827, "cc": "DE", "city": "Berlin", "state": "Berlin", "country": "Deutschland", "formattedAddress": ["Berlin", "Deutschland"]}, "categories": [{"id": "4bf58dd8d48988d10f941735", "name": "Indian Restaurant", "pluralName": "Indian Restaurants", "shortName": "Indian", "icon": {"prefix": "https://ss3.4sqi.net/img/categories_v2/food/indian_", "suffix": ".png"}, "primary": true}], "photos": {"count": 0, "groups": []}}, "referralId": "e-0-57c7180fcd10622c6d9bd008-77"}, {"reasons": {"count": 0, "items": [{"summary": "This spot is popular", "type": "general", "reasonName": "globalInteractionReason"}]}, "venue": {"id": "4eef5c588b81bbbf5f54dd00", "name": "Lidl", "location": {"address": "F\u00fcrstenbrunner Weg 14-16", "lat": 52.5198294, "lng": 13.2808203, "labeledLatLngs": [{"label": "display", "lat": 52.5198294, "lng": 13.2808203}], "distance": 721, "postalCode": "14059", "cc": "DE", "city": "Berlin", "state": "Berlin", "country": "Deutschland", "formattedAddress": ["F\u00fcrstenbrunner Weg 14-16", "14059 Berlin-Charlottenburg-Wilmersdorf", "Deutschland"]}, "categories": [{"id": "52f2ab2ebcbc57f1066b8b46", "name": "Supermarket", "pluralName": "Supermarkets", "shortName": "Supermarket", "icon": {"prefix": "https://ss3.4sqi.net/img/categories_v2/shops/food_grocery_", "suffix": ".png"}, "primary": true}], "photos": {"count": 0, "groups": []}, "venuePage": {"id": "575774133"}}, "referralId": "e-0-4eef5c588b81bbbf5f54dd00-78"}, {"reasons": {"count": 0, "items": [{"summary": "This spot is popular", "type": "general", "reasonName": "globalInteractionReason"}]}, "venue": {"id": "4e58dfc6483b865169d619fb", "name": "ALDI NORD", "location": {"address": "F\u00fcrstenbrunner Weg 44", "lat": 52.52362582381942, "lng": 13.280156973692993, "labeledLatLngs": [{"label": "display", "lat": 52.52362582381942, "lng": 13.280156973692993}], "distance": 874, "postalCode": "14059", "cc": "DE", "city": "Berlin", "state": "Berlin", "country": "Deutschland", "formattedAddress": ["F\u00fcrstenbrunner Weg 44", "14059 Berlin", "Deutschland"]}, "categories": [{"id": "52f2ab2ebcbc57f1066b8b46", "name": "Supermarket", "pluralName": "Supermarkets", "shortName": "Supermarket", "icon": {"prefix": "https://ss3.4sqi.net/img/categories_v2/shops/food_grocery_", "suffix": ".png"}, "primary": true}], "photos": {"count": 0, "groups": []}}, "referralId": "e-0-4e58dfc6483b865169d619fb-79"}, {"reasons": {"count": 0, "items": [{"summary": "This spot is popular", "type": "general", "reasonName": "globalInteractionReason"}]}, "venue": {"id": "53b5289d498e31f84ce8d12e", "name": "Reederei Wolff (RRW) - Schiffahrt Berlin", "location": {"address": "Tegeler Weg 80", "lat": 52.52719759785015, "lng": 13.296925877553898, "labeledLatLngs": [{"label": "display", "lat": 52.52719759785015, "lng": 13.296925877553898}], "distance": 899, "postalCode": "10589", "cc": "DE", "city": "Berlin", "state": "Berlin", "country": "Deutschland", "formattedAddress": ["Tegeler Weg 80", "10589 Berlin", "Deutschland"]}, "categories": [{"id": "4bf58dd8d48988d12d951735", "name": "Boat or Ferry", "pluralName": "Boats or Ferries", "shortName": "Boat / Ferry", "icon": {"prefix": "https://ss3.4sqi.net/img/categories_v2/travel/boat_", "suffix": ".png"}, "primary": true}], "photos": {"count": 0, "groups": []}}, "referralId": "e-0-53b5289d498e31f84ce8d12e-80"}, {"reasons": {"count": 0, "items": [{"summary": "This spot is popular", "type": "general", "reasonName": "globalInteractionReason"}]}, "venue": {"id": "4c35c5faed37a593e0f87003", "name": "Cafeteria", "location": {"address": "DRK Kliniken Westend", "lat": 52.520889970491304, "lng": 13.27685879141047, "labeledLatLngs": [{"label": "display", "lat": 52.520889970491304, "lng": 13.27685879141047}], "distance": 996, "postalCode": "14050", "cc": "DE", "city": "Berlin", "state": "Berlin", "country": "Deutschland", "formattedAddress": ["DRK Kliniken Westend", "14050 Berlin", "Deutschland"]}, "categories": [{"id": "4bf58dd8d48988d128941735", "name": "Cafeteria", "pluralName": "Cafeterias", "shortName": "Cafeteria", "icon": {"prefix": "https://ss3.4sqi.net/img/categories_v2/education/cafeteria_", "suffix": ".png"}, "primary": true}], "photos": {"count": 0, "groups": []}}, "referralId": "e-0-4c35c5faed37a593e0f87003-81"}]