[{"reasons": {"count": 0, "items": [{"summary": "This spot is popular", "type": "general", "reasonName": "globalInteractionReason"}]}, "venue": {"id": "4c3edc900e0d0f473417167f", "name": "Eis da Dalt", "location": {"address": "Breite Str. 14", "lat": 52.474504310809266, "lng": 13.293784260749817, "labeledLatLngs": [{"label": "display", "lat": 52.474504310809266, "lng": 13.293784260749817}], "distance": 253, "postalCode": "14199", "cc": "DE", "city": "Berlin", "state": "Berlin", "country": "Deutschland", "formattedAddress": ["Breite Str. 14", "14199 Berlin", "Deutschland"]}, "categories": [{"id": "4bf58dd8d48988d1c9941735", "name": "Ice Cream Shop", "pluralName": "Ice Cream Shops", "shortName": "Ice Cream", "icon": {"prefix": "https://ss3.4sqi.net/img/categories_v2/food/icecream_", "suffix": ".png"}, "primary": true}], "photos": {"count": 0, "groups": []}}, "referralId": "e-0-4c3edc900e0d0f473417167f-0"}, {"reasons": {"count": 0, "items": [{"summary": "This spot is popular", "type": "general", "reasonName": "globalInteractionReason"}]}, "venue": {"id": "4f928760e4b06ce8579df9e6", "name": "Hofladen im Kiez", "location": {"address": "Kolberger Platz 5", "lat": 52.476835656124074, "lng": 13.290552324044706, "labeledLatLngs": [{"label": "display", "lat": 52.476835656124074, "lng": 13.290552324044706}], "distance": 284, "postalCode": "14199", "cc": "DE", "city": "Berlin", "state": "Berlin", "country": "Deutschland", "formattedAddress": ["Kolberger Platz 5", "14199 Berlin", "Deutschland"]}, "categories": [{"id": "4bf58dd8d48988d146941735", "name": "Deli / Bodega", "pluralName": "Delis / Bodegas", "shortName": "Deli / Bodega", "icon": {"prefix": "https://ss3.4sqi.net/img/categories_v2/food/deli_", "suffix": ".png"}, "primary": true}], "photos": {"count": 0, "groups": []}}, "referralId": "e-0-4f928760e4b06ce8579df9e6-1"}, {"reasons": {"count": 0, "items": [{"summary": "This spot is popular", "type": "general", "reasonName": "globalInteractionReason"}]}, "venue": {"id": "4e3830351838d056d27a15f1", "name": "Nuovo Mario", "location": {"address": "Reichenhaller Stra\u00dfe 4", "crossStreet": "Kolberger Platz", "lat": 52.47727097716936, "lng": 13.290030076632476, "labeledLatLngs": [{"label": "display", "lat": 52.47727097716936, "lng": 13.290030076632476}], "distance": 325, "postalCode": "14199", "cc": "DE", "city": "Berlin", "state": "Berlin", "country": "Deutschland", "formattedAddress": ["Reichenhaller Stra\u00dfe 4 (Kolberger Platz)", "14199 Berlin", "Deutschland"]}, "categories": [{"id": "4bf58dd8d48988d110941735", "name": "Italian Restaurant", "pluralName": "Italian Restaurants", "shortName": "Italian", "icon": {"prefix": "https://ss3.4sqi.net/img/categories_v2/food/italian_", "suffix": ".png"}, "primary": true}], "photos": {"count": 0, "groups": []}}, "referralId": "e-0-4e3830351838d056d27a15f1-2"}, {"reasons": {"count": 0, "items": [{"summary": "This spot is popular", "type": "general", "reasonName": "globalInteractionReason"}]}, "venue": {"id": "4b9cd29cf964a5204d7d36e3", "name": "Wiener Conditorei Caffeehaus", "location": {"address": "Hohenzollerndamm 92", "lat": 52.47763886349294, "lng": 13.282030158893958, "labeledLatLngs": [{"label": "display", "lat": 52.47763886349294, "lng": 13.282030158893958}], "distance": 868, "postalCode": "14199", "cc": "DE", "city": "Berlin", "state": "Berlin", "country": "Deutschland", "formattedAddress": ["Hohenzollerndamm 92", "14199 Berlin", "Deutschland"]}, "categories": [{"id": "4bf58dd8d48988d1d0941735", "name": "Dessert Shop", "pluralName": "Dessert Shops", "shortName": "Desserts", "icon": {"prefix": "https://ss3.4sqi.net/img/categories_v2/food/dessert_", "suffix": ".png"}, "primary": true}], "photos": {"count": 0, "groups": []}}, "referralId": "e-0-4b9cd29cf964a5204d7d36e3-3"}, {"reasons": {"count": 0, "items": [{"summary": "This spot is popular", "type": "general", "reasonName": "globalInteractionReason"}]}, "venue": {"id": "4b11307cf964a520b77823e3", "name": "EDEKA", "location": {"address": "Wiesbadener Str. 53-55", "lat": 52.4734862, "lng": 13.3022803, "labeledLatLngs": [{"label": "display", "lat": 52.4734862, "lng": 13.3022803}], "distance": 624, "postalCode": "14197", "cc": "DE", "city": "Berlin", "state": "Berlin", "country": "Deutschland", "formattedAddress": ["Wiesbadener Str. 53-55", "14197 Berlin", "Deutschland"]}, "categories": [{"id": "52f2ab2ebcbc57f1066b8b46", "name": "Supermarket", "pluralName": "Supermarkets", "shortName": "Supermarket", "icon": {"prefix": "https://ss3.4sqi.net/img/categories_v2/shops/food_grocery_", "suffix": ".png"}, "primary": true}], "photos": {"count": 0, "groups": []}, "venuePage": {"id": "553441292"}}, "referralId": "e-0-4b11307cf964a520b77823e3-4"}, {"reasons": {"count": 0, "items": [{"summary": "This spot is popular", "type": "general", "reasonName": "globalInteractionReason"}]}, "venue": {"id": "4c93721c6cfea093ad2dba8b", "name": "Trattoria Don Carlo", "location": {"address": "Elgersburgerstr. 29", "lat": 52.48231265010107, "lng": 13.289507619948278, "labeledLatLngs": [{"label": "display", "lat": 52.48231265010107, "lng": 13.289507619948278}], "distance": 717, "postalCode": "14193", "cc": "DE", "neighborhood": "Schmargendorf", "city": "Berlin", "state": "Berlin", "country": "Deutschland", "formattedAddress": ["Elgersburgerstr. 29", "14193 Berlin", "Deutschland"]}, "categories": [{"id": "55a5a1ebe4b013909087cb7f", "name": "Trattoria/Osteria", "pluralName": "Trattorias/Osterias", "shortName": "Trattoria/Osteria", "icon": {"prefix": "https://ss3.4sqi.net/img/categories_v2/food/italian_", "suffix": ".png"}, "primary": true}], "photos": {"count": 0, "groups": []}}, "referralId": "e-0-4c93721c6cfea093ad2dba8b-5"}, {"reasons": {"count": 0, "items": [{"summary": "This spot is popular", "type": "general", "reasonName": "globalInteractionReason"}]}, "venue": {"id": "4e46538bc65bd6ffbe8f9b26", "name": "JoCaff\u00e8 R\u00f6sterei", "location": {"address": "Reichenhaller Str. 1", "lat": 52.47678777564289, "lng": 13.290627732400011, "labeledLatLngs": [{"label": "display", "lat": 52.47678777564289, "lng": 13.290627732400011}], "distance": 279, "postalCode": "14199", "cc": "DE", "city": "Berlin", "state": "Berlin", "country": "Deutschland", "formattedAddress": ["Reichenhaller Str. 1", "14199 Berlin", "Deutschland"]}, "categories": [{"id": "4bf58dd8d48988d1e0931735", "name": "Coffee Shop", "pluralName": "Coffee Shops", "shortName": "Coffee Shop", "icon": {"prefix": "https://ss3.4sqi.net/img/categories_v2/food/coffeeshop_", "suffix": ".png"}, "primary": true}], "photos": {"count": 0, "groups": []}}, "referralId": "e-0-4e46538bc65bd6ffbe8f9b26-6"}, {"reasons": {"count": 0, "items": [{"summary": "This spot is popular", "type": "general", "reasonName": "globalInteractionReason"}]}, "venue": {"id": "4cf7f90cc020b60ce54d2875", "name": "Dschunke", "location": {"address": "Breite Str. 15", "lat": 52.47468, "lng": 13.293508, "labeledLatLngs": [{"label": "display", "lat": 52.47468, "lng": 13.293508}], "distance": 240, "postalCode": "14199", "cc": "DE", "city": "Berlin", "state": "Berlin", "country": "Deutschland", "formattedAddress": ["Breite Str. 15", "14199 Berlin", "Deutschland"]}, "categories": [{"id": "4bf58dd8d48988d145941735", "name": "Chinese Restaurant", "pluralName": "Chinese Restaurants", "shortName": "Chinese", "icon": {"prefix": "https://ss3.4sqi.net/img/categories_v2/food/asian_", "suffix": ".png"}, "primary": true}], "photos": {"count": 0, "groups": []}}, "referralId": "e-0-4cf7f90cc020b60ce54d2875-7"}, {"reasons": {"count": 0, "items": [{"summary": "This spot is popular", "type": "general", "reasonName": "globalInteractionReason"}]}, "venue": {"id": "4db0305f6e81a2637ed3f7d4", "name": "Roseneck", "location": {"address": "Hohenzollerndamm", "crossStreet": "Teplitzer Str.", "lat": 52.477168363495366, "lng": 13.280800957749223, "labeledLatLngs": [{"label": "display", "lat": 52.477168363495366, "lng": 13.280800957749223}], "distance": 946, "postalCode": "14193", "cc": "DE", "city": "Berlin", "state": "Berlin", "country": "Deutschland", "formattedAddress": ["Hohenzollerndamm (Teplitzer Str.)", "14193 Berlin", "Deutschland"]}, "categories": [{"id": "4bf58dd8d48988d164941735", "name": "Plaza", "pluralName": "Plazas", "shortName": "Plaza", "icon": {"prefix": "https://ss3.4sqi.net/img/categories_v2/parks_outdoors/plaza_", "suffix": ".png"}, "primary": true}], "photos": {"count": 0, "groups": []}}, "referralId": "e-0-4db0305f6e81a2637ed3f7d4-8"}, {"reasons": {"count": 0, "items": [{"summary": "This spot is popular", "type": "general", "reasonName": "globalInteractionReason"}]}, "venue": {"id": "4f903487e4b04cce8a47a160", "name": "Lucas-Tierwelt.de", "location": {"address": "Forckenbeckstr. 95", "lat": 52.478808923788954, "lng": 13.308287298915925, "labeledLatLngs": [{"label": "display", "lat": 52.478808923788954, "lng": 13.308287298915925}], "distance": 947, "postalCode": "14199", "cc": "DE", "city": "Berlin", "state": "Berlin", "country": "Deutschland", "formattedAddress": ["Forckenbeckstr. 95", "14199 Berlin", "Deutschland"]}, "categories": [{"id": "4bf58dd8d48988d100951735", "name": "Pet Store", "pluralName": "Pet Stores", "shortName": "Pet Store", "icon": {"prefix": "https://ss3.4sqi.net/img/categories_v2/shops/pet_store_", "suffix": ".png"}, "primary": true}], "photos": {"count": 0, "groups": []}}, "referralId": "e-0-4f903487e4b04cce8a47a160-9"}, {"reasons": {"count": 0, "items": [{"summary": "This spot is popular", "type": "general", "reasonName": "globalInteractionReason"}]}, "venue": {"id": "4c0a39d2a1b32d7f7bee98f0", "name": "Sommerbad Wilmersdorf", "location": {"address": "Forckenbeckstr. 14", "lat": 52.48181926989956, "lng": 13.303370787799956, "labeledLatLngs": [{"label": "display", "lat": 52.48181926989956, "lng": 13.303370787799956}], "distance": 815, "postalCode": "14199", "cc": "DE", "city": "Berlin", "state": "Berlin", "country": "Deutschland", "formattedAddress": ["Forckenbeckstr. 14", "14199 Berlin", "Deutschland"]}, "categories": [{"id": "4bf58dd8d48988d15e941735", "name": "Pool", "pluralName": "Pools", "shortName": "Pool", "icon": {"prefix": "https://ss3.4sqi.net/img/categories_v2/parks_outdoors/pool_", "suffix": ".png"}, "primary": true}], "photos": {"count": 0, "groups": []}}, "referralId": "e-0-4c0a39d2a1b32d7f7bee98f0-10"}, {"reasons": {"count": 0, "items": [{"summary": "This spot is popular", "type": "general", "reasonName": "globalInteractionReason"}]}, "venue": {"id": "4c112a1f3ce120a14142091c", "name": "Fr\u00fchsammers Restaurant", "location": {"address": "Flinsberger Platz 8", "lat": 52.48371641280662, "lng": 13.29018526128719, "labeledLatLngs": [{"label": "display", "lat": 52.48371641280662, "lng": 13.29018526128719}], "distance": 839, "postalCode": "14193", "cc": "DE", "city": "Berlin", "state": "Berlin", "country": "Deutschland", "formattedAddress": ["Flinsberger Platz 8", "14193 Berlin", "Deutschland"]}, "categories": [{"id": "4bf58dd8d48988d1c4941735", "name": "Restaurant", "pluralName": "Restaurants", "shortName": "Restaurant", "icon": {"prefix": "https://ss3.4sqi.net/img/categories_v2/food/default_", "suffix": ".png"}, "primary": true}], "photos": {"count": 0, "groups": []}}, "referralId": "e-0-4c112a1f3ce120a14142091c-11"}, {"reasons": {"count": 0, "items": [{"summary": "This spot is popular", "type": "general", "reasonName": "globalInteractionReason"}]}, "venue": {"id": "4ecba6d5f5b90c1c3384b4e1", "name": "Prometheus", "location": {"address": "Schlangenbader Stra\u00dfe 17", "lat": 52.47422683610944, "lng": 13.30821802571668, "labeledLatLngs": [{"label": "display", "lat": 52.47422683610944, "lng": 13.30821802571668}], "distance": 954, "postalCode": "14197", "cc": "DE", "city": "Berlin", "state": "Berlin", "country": "Deutschland", "formattedAddress": ["Schlangenbader Stra\u00dfe 17", "14197 Berlin", "Deutschland"]}, "categories": [{"id": "4bf58dd8d48988d10e941735", "name": "Greek Restaurant", "pluralName": "Greek Restaurants", "shortName": "Greek", "icon": {"prefix": "https://ss3.4sqi.net/img/categories_v2/food/greek_", "suffix": ".png"}, "primary": true}], "photos": {"count": 0, "groups": []}}, "referralId": "e-0-4ecba6d5f5b90c1c3384b4e1-12"}, {"reasons": {"count": 0, "items": [{"summary": "This spot is popular", "type": "general", "reasonName": "globalInteractionReason"}]}, "venue": {"id": "56c3472ecd10628ed48681c0", "name": "dm-drogerie markt", "location": {"address": "Berkaer Str. 2-3", "lat": 52.476139, "lng": 13.289884, "labeledLatLngs": [{"label": "display", "lat": 52.476139, "lng": 13.289884}], "distance": 335, "postalCode": "14199", "cc": "DE", "city": "Berlin", "state": "Berlin", "country": "Deutschland", "formattedAddress": ["Berkaer Str. 2-3", "14199 Berlin", "Deutschland"]}, "categories": [{"id": "5745c2e4498e11e7bccabdbd", "name": "Drugstore", "pluralName": "Drugstores", "shortName": "Drugstore", "icon": {"prefix": "https://ss3.4sqi.net/img/categories_v2/shops/pharmacy_", "suffix": ".png"}, "primary": true}], "photos": {"count": 0, "groups": []}, "venuePage": {"id": "456820033"}}, "referralId": "e-0-56c3472ecd10628ed48681c0-13"}, {"reasons": {"count": 0, "items": [{"summary": "This spot is popular", "type": "general", "reasonName": "globalInteractionReason"}]}, "venue": {"id": "4d84e4c45e70224b8c8c1609", "name": "Da Antonello", "location": {"address": "Breite Str. 28", "lat": 52.47507235146681, "lng": 13.291605169343462, "labeledLatLngs": [{"label": "display", "lat": 52.47507235146681, "lng": 13.291605169343462}], "distance": 280, "postalCode": "14199", "cc": "DE", "city": "Berlin", "state": "Berlin", "country": "Deutschland", "formattedAddress": ["Breite Str. 28", "14199 Berlin", "Deutschland"]}, "categories": [{"id": "4bf58dd8d48988d110941735", "name": "Italian Restaurant", "pluralName": "Italian Restaurants", "shortName": "Italian", "icon": {"prefix": "https://ss3.4sqi.net/img/categories_v2/food/italian_", "suffix": ".png"}, "primary": true}], "photos": {"count": 0, "groups": []}}, "referralId": "e-0-4d84e4c45e70224b8c8c1609-14"}, {"reasons": {"count": 0, "items": [{"summary": "This spot is popular", "type": "general", "reasonName": "globalInteractionReason"}]}, "venue": {"id": "4b07cb4ef964a520140023e3", "name": "Horst-Dohm-Eisstadion", "location": {"address": "Fritz-Wildung-Stra\u00dfe 9", "lat": 52.48450857726302, "lng": 13.30111431543289, "labeledLatLngs": [{"label": "display", "lat": 52.48450857726302, "lng": 13.30111431543289}], "distance": 969, "postalCode": "14199", "cc": "DE", "city": "Berlin", "state": "Berlin", "country": "Deutschland", "formattedAddress": ["Fritz-Wildung-Stra\u00dfe 9", "14199 Berlin", "Deutschland"]}, "categories": [{"id": "4bf58dd8d48988d168941735", "name": "Skating Rink", "pluralName": "Skating Rinks", "shortName": "Skating Rink", "icon": {"prefix": "https://ss3.4sqi.net/img/categories_v2/parks_outdoors/skatingrink_", "suffix": ".png"}, "primary": true}], "photos": {"count": 0, "groups": []}}, "referralId": "e-0-4b07cb4ef964a520140023e3-15"}, {"reasons": {"count": 0, "items": [{"summary": "This spot is popular", "type": "general", "reasonName": "globalInteractionReason"}]}, "venue": {"id": "5b61a6df270ee7002ccd72cb", "name": "Rossmann", "location": {"address": "Breite Str. 25", "lat": 52.475277, "lng": 13.290125, "labeledLatLngs": [{"label": "display", "lat": 52.475277, "lng": 13.290125}], "distance": 351, "postalCode": "14199", "cc": "DE", "city": "Berlin", "state": "Berlin", "country": "Deutschland", "formattedAddress": ["Breite Str. 25", "14199 Berlin", "Deutschland"]}, "categories": [{"id": "5745c2e4498e11e7bccabdbd", "name": "Drugstore", "pluralName": "Drugstores", "shortName": "Drugstore", "icon": {"prefix": "https://ss3.4sqi.net/img/categories_v2/shops/pharmacy_", "suffix": ".png"}, "primary": true}], "photos": {"count": 0, "groups": []}}, "referralId": "e-0-5b61a6df270ee7002ccd72cb-16"}, {"reasons": {"count": 0, "items": [{"summary": "This spot is popular", "type": "general", "reasonName": "globalInteractionReason"}]}, "venue": {"id": "4d3874069516236ae46d9651", "name": "Habel-Weinstube", "location": {"address": "Hohenzollerndamm 93", "lat": 52.4774680141545, "lng": 13.28166719834087, "labeledLatLngs": [{"label": "display", "lat": 52.4774680141545, "lng": 13.28166719834087}], "distance": 890, "postalCode": "14199", "cc": "DE", "city": "Berlin", "state": "Berlin", "country": "Deutschland", "formattedAddress": ["Hohenzollerndamm 93", "14199 Berlin", "Deutschland"]}, "categories": [{"id": "4bf58dd8d48988d11b941735", "name": "Pub", "pluralName": "Pubs", "shortName": "Pub", "icon": {"prefix": "https://ss3.4sqi.net/img/categories_v2/nightlife/pub_", "suffix": ".png"}, "primary": true}], "photos": {"count": 0, "groups": []}}, "referralId": "e-0-4d3874069516236ae46d9651-17"}, {"reasons": {"count": 0, "items": [{"summary": "This spot is popular", "type": "general", "reasonName": "globalInteractionReason"}]}, "venue": {"id": "52bdd3f6498e7bdc78c86cb3", "name": "Rosengarten Roseneck", "location": {"address": "Hohenzollerndamm 110a", "lat": 52.47734975308606, "lng": 13.2819874996517, "labeledLatLngs": [{"label": "display", "lat": 52.47734975308606, "lng": 13.2819874996517}], "distance": 868, "postalCode": "14199", "cc": "DE", "city": "Berlin", "state": "Berlin", "country": "Deutschland", "formattedAddress": ["Hohenzollerndamm 110a", "14199 Berlin", "Deutschland"]}, "categories": [{"id": "4bf58dd8d48988d145941735", "name": "Chinese Restaurant", "pluralName": "Chinese Restaurants", "shortName": "Chinese", "icon": {"prefix": "https://ss3.4sqi.net/img/categories_v2/food/asian_", "suffix": ".png"}, "primary": true}], "photos": {"count": 0, "groups": []}}, "referralId": "e-0-52bdd3f6498e7bdc78c86cb3-18"}, {"reasons": {"count": 0, "items": [{"summary": "This spot is popular", "type": "general", "reasonName": "globalInteractionReason"}]}, "venue": {"id": "4b91347cf964a520eaa933e3", "name": "REWE", "location": {"address": "Schlangenbader Str. 25", "lat": 52.473011831137576, "lng": 13.307444165924949, "labeledLatLngs": [{"label": "display", "lat": 52.473011831137576, "lng": 13.307444165924949}], "distance": 954, "postalCode": "14197", "cc": "DE", "city": "Berlin", "state": "Berlin", "country": "Deutschland", "formattedAddress": ["Schlangenbader Str. 25", "14197 Berlin", "Deutschland"]}, "categories": [{"id": "52f2ab2ebcbc57f1066b8b46", "name": "Supermarket", "pluralName": "Supermarkets", "shortName": "Supermarket", "icon": {"prefix": "https://ss3.4sqi.net/img/categories_v2/shops/food_grocery_", "suffix": ".png"}, "primary": true}], "photos": {"count": 0, "groups": []}, "venuePage": {"id": "579023885"}}, "referralId": "e-0-4b91347cf964a520eaa933e3-19"}, {"reasons": {"count": 0, "items": [{"summary": "This spot is popular", "type": "general", "reasonName": "globalInteractionReason"}]}, "venue": {"id": "537a2046498e7942dab184f0", "name": "I Scream", "location": {"address": "Warnem\u00fcnder Str. 29", "lat": 52.47518973730828, "lng": 13.290095538807467, "labeledLatLngs": [{"label": "display", "lat": 52.47518973730828, "lng": 13.290095538807467}], "distance": 357, "cc": "DE", "city": "Berlin", "state": "Berlin", "country": "Deutschland", "formattedAddress": ["Warnem\u00fcnder Str. 29", "Berlin", "Deutschland"]}, "categories": [{"id": "4bf58dd8d48988d1c9941735", "name": "Ice Cream Shop", "pluralName": "Ice Cream Shops", "shortName": "Ice Cream", "icon": {"prefix": "https://ss3.4sqi.net/img/categories_v2/food/icecream_", "suffix": ".png"}, "primary": true}], "photos": {"count": 0, "groups": []}}, "referralId": "e-0-537a2046498e7942dab184f0-20"}, {"reasons": {"count": 0, "items": [{"summary": "This spot is popular", "type": "general", "reasonName": "globalInteractionReason"}]}, "venue": {"id": "5102d28ce4b01cf87daebc70", "name": "Deutsche Bank Filiale", "location": {"address": "Breite Stra\u00dfe 36", "lat": 52.474268238444736, "lng": 13.29329464112186, "labeledLatLngs": [{"label": "display", "lat": 52.474268238444736, "lng": 13.29329464112186}], "distance": 288, "postalCode": "14199", "cc": "DE", "city": "Berlin", "state": "Berlin", "country": "Deutschland", "formattedAddress": ["Breite Stra\u00dfe 36", "14199 Berlin", "Deutschland"]}, "categories": [{"id": "4bf58dd8d48988d10a951735", "name": "Bank", "pluralName": "Banks", "shortName": "Bank", "icon": {"prefix": "https://ss3.4sqi.net/img/categories_v2/shops/financial_", "suffix": ".png"}, "primary": true}], "photos": {"count": 0, "groups": []}}, "referralId": "e-0-5102d28ce4b01cf87daebc70-21"}, {"reasons": {"count": 0, "items": [{"summary": "This spot is popular", "type": "general", "reasonName": "globalInteractionReason"}]}, "venue": {"id": "4f730b03e4b059045afa0f8f", "name": "Elsterplatz", "location": {"address": "Hohenzollerndamm", "crossStreet": "Berkaer Str.", "lat": 52.48006399245025, "lng": 13.285378217697144, "labeledLatLngs": [{"label": "display", "lat": 52.48006399245025, "lng": 13.285378217697144}], "distance": 736, "postalCode": "14193", "cc": "DE", "city": "Berlin", "state": "Berlin", "country": "Deutschland", "formattedAddress": ["Hohenzollerndamm (Berkaer Str.)", "14193 Berlin", "Deutschland"]}, "categories": [{"id": "4bf58dd8d48988d164941735", "name": "Plaza", "pluralName": "Plazas", "shortName": "Plaza", "icon": {"prefix": "https://ss3.4sqi.net/img/categories_v2/parks_outdoors/plaza_", "suffix": ".png"}, "primary": true}], "photos": {"count": 0, "groups": []}}, "referralId": "e-0-4f730b03e4b059045afa0f8f-22"}, {"reasons": {"count": 0, "items": [{"summary": "This spot is popular", "type": "general", "reasonName": "globalInteractionReason"}]}, "venue": {"id": "51a8f2f6498ef7983d47d58a", "name": "Looms", "location": {"address": "Berkaer Str. 40", "crossStreet": "K\u00f6sener Str.", "lat": 52.47706417072388, "lng": 13.288147842437526, "labeledLatLngs": [{"label": "display", "lat": 52.47706417072388, "lng": 13.288147842437526}], "distance": 449, "postalCode": "14199", "cc": "DE", "city": "Berlin", "state": "Berlin", "country": "Deutschland", "formattedAddress": ["Berkaer Str. 40 (K\u00f6sener Str.)", "14199 Berlin", "Deutschland"]}, "categories": [{"id": "4bf58dd8d48988d16d941735", "name": "Caf\u00e9", "pluralName": "Caf\u00e9s", "shortName": "Caf\u00e9", "icon": {"prefix": "https://ss3.4sqi.net/img/categories_v2/food/cafe_", "suffix": ".png"}, "primary": true}], "photos": {"count": 0, "groups": []}}, "referralId": "e-0-51a8f2f6498ef7983d47d58a-23"}, {"reasons": {"count": 0, "items": [{"summary": "This spot is popular", "type": "general", "reasonName": "globalInteractionReason"}]}, "venue": {"id": "4c5ae0c6d3aee21e09bb6b55", "name": "Coffee Oase", "location": {"address": "Breite Str. 32", "lat": 52.47481020871978, "lng": 13.292175887527808, "labeledLatLngs": [{"label": "display", "lat": 52.47481020871978, "lng": 13.292175887527808}], "distance": 273, "postalCode": "14199", "cc": "DE", "city": "Berlin", "state": "Berlin", "country": "Deutschland", "formattedAddress": ["Breite Str. 32", "14199 Berlin", "Deutschland"]}, "categories": [{"id": "4bf58dd8d48988d16d941735", "name": "Caf\u00e9", "pluralName": "Caf\u00e9s", "shortName": "Caf\u00e9", "icon": {"prefix": "https://ss3.4sqi.net/img/categories_v2/food/cafe_", "suffix": ".png"}, "primary": true}], "photos": {"count": 0, "groups": []}}, "referralId": "e-0-4c5ae0c6d3aee21e09bb6b55-24"}, {"reasons": {"count": 0, "items": [{"summary": "This spot is popular", "type": "general", "reasonName": "globalInteractionReason"}]}, "venue": {"id": "4c3a0e0a3849c9280b49c2b1", "name": "Ristorante La Maremma", "location": {"address": "Hagenstr. 79", "lat": 52.47736350955775, "lng": 13.280082041207848, "labeledLatLngs": [{"label": "display", "lat": 52.47736350955775, "lng": 13.280082041207848}], "distance": 996, "postalCode": "14193", "cc": "DE", "city": "Berlin", "state": "Berlin", "country": "Deutschland", "formattedAddress": ["Hagenstr. 79", "14193 Berlin", "Deutschland"]}, "categories": [{"id": "4bf58dd8d48988d110941735", "name": "Italian Restaurant", "pluralName": "Italian Restaurants", "shortName": "Italian", "icon": {"prefix": "https://ss3.4sqi.net/img/categories_v2/food/italian_", "suffix": ".png"}, "primary": true}], "photos": {"count": 0, "groups": []}}, "referralId": "e-0-4c3a0e0a3849c9280b49c2b1-25"}, {"reasons": {"count": 0, "items": [{"summary": "This spot is popular", "type": "general", "reasonName": "globalInteractionReason"}]}, "venue": {"id": "4ec0c0946da15b4ddf6ff317", "name": "Der Havelb\u00e4cker", "location": {"lat": 52.475331971976445, "lng": 13.295590762787677, "labeledLatLngs": [{"label": "display", "lat": 52.475331971976445, "lng": 13.295590762787677}], "distance": 163, "cc": "DE", "city": "Berlin", "state": "Berlin", "country": "Deutschland", "formattedAddress": ["Berlin", "Deutschland"]}, "categories": [{"id": "4bf58dd8d48988d16a941735", "name": "Bakery", "pluralName": "Bakeries", "shortName": "Bakery", "icon": {"prefix": "https://ss3.4sqi.net/img/categories_v2/food/bakery_", "suffix": ".png"}, "primary": true}], "photos": {"count": 0, "groups": []}}, "referralId": "e-0-4ec0c0946da15b4ddf6ff317-26"}, {"reasons": {"count": 0, "items": [{"summary": "This spot is popular", "type": "general", "reasonName": "globalInteractionReason"}]}, "venue": {"id": "4fc743b2e4b0a9a5f20ba750", "name": "Vodafone Shop", "location": {"address": "Breite Strasse 18", "lat": 52.47486797892311, "lng": 13.294279008915424, "labeledLatLngs": [{"label": "display", "lat": 52.47486797892311, "lng": 13.294279008915424}], "distance": 207, "postalCode": "14199", "cc": "DE", "city": "Berlin", "state": "Berlin", "country": "Deutschland", "formattedAddress": ["Breite Strasse 18", "14199 Berlin", "Deutschland"]}, "categories": [{"id": "4f04afc02fb6e1c99f3db0bc", "name": "Mobile Phone Shop", "pluralName": "Mobile Phone Shops", "shortName": "Mobile Phones", "icon": {"prefix": "https://ss3.4sqi.net/img/categories_v2/shops/mobilephoneshop_", "suffix": ".png"}, "primary": true}], "photos": {"count": 0, "groups": []}}, "referralId": "e-0-4fc743b2e4b0a9a5f20ba750-27"}, {"reasons": {"count": 0, "items": [{"summary": "This spot is popular", "type": "general", "reasonName": "globalInteractionReason"}]}, "venue": {"id": "517c1c33498e2f0192de80e5", "name": "BSV 92", "location": {"address": "Fritz-Wildung Stra\u00dfe", "lat": 52.483323936933665, "lng": 13.29760511608405, "labeledLatLngs": [{"label": "display", "lat": 52.483323936933665, "lng": 13.29760511608405}], "distance": 761, "postalCode": "14199", "cc": "DE", "city": "Berlin", "state": "Berlin", "country": "Deutschland", "formattedAddress": ["Fritz-Wildung Stra\u00dfe", "14199 Berlin", "Deutschland"]}, "categories": [{"id": "4e39a956bd410d7aed40cbc3", "name": "Tennis Court", "pluralName": "Tennis Courts", "shortName": "Tennis Court", "icon": {"prefix": "https://ss3.4sqi.net/img/categories_v2/arts_entertainment/stadium_tennis_", "suffix": ".png"}, "primary": true}], "photos": {"count": 0, "groups": []}}, "referralId": "e-0-517c1c33498e2f0192de80e5-28"}, {"reasons": {"count": 0, "items": [{"summary": "This spot is popular", "type": "general", "reasonName": "globalInteractionReason"}]}, "venue": {"id": "5728d591498e955246299ffd", "name": "Berlin's International Rugby Club", "location": {"lat": 52.480801, "lng": 13.299449, "labeledLatLngs": [{"label": "display", "lat": 52.480801, "lng": 13.299449}], "distance": 555, "cc": "DE", "city": "Berlin", "state": "Berlin", "country": "Deutschland", "formattedAddress": ["Berlin", "Deutschland"]}, "categories": [{"id": "52e81612bcbc57f1066b7a2e", "name": "Sports Club", "pluralName": "Sports Clubs", "shortName": "Sports Club", "icon": {"prefix": "https://ss3.4sqi.net/img/categories_v2/shops/sports_outdoors_", "suffix": ".png"}, "primary": true}], "photos": {"count": 0, "groups": []}}, "referralId": "e-0-5728d591498e955246299ffd-29"}, {"reasons": {"count": 0, "items": [{"summary": "This spot is popular", "type": "general", "reasonName": "globalInteractionReason"}]}, "venue": {"id": "4ea993477ee5cc4193dc923b", "name": "Harald-Mellerowicz-Sporthalle", "location": {"address": "Forckenbeckstr. 20", "lat": 52.48099146879708, "lng": 13.299526597892758, "labeledLatLngs": [{"label": "display", "lat": 52.48099146879708, "lng": 13.299526597892758}], "distance": 576, "cc": "DE", "city": "Berlin", "state": "Berlin", "country": "Deutschland", "formattedAddress": ["Forckenbeckstr. 20", "Berlin", "Deutschland"]}, "categories": [{"id": "4bf58dd8d48988d176941735", "name": "Gym", "pluralName": "Gyms", "shortName": "Gym", "icon": {"prefix": "https://ss3.4sqi.net/img/categories_v2/building/gym_", "suffix": ".png"}, "primary": true}], "photos": {"count": 0, "groups": []}}, "referralId": "e-0-4ea993477ee5cc4193dc923b-30"}, {"reasons": {"count": 0, "items": [{"summary": "This spot is popular", "type": "general", "reasonName": "globalInteractionReason"}]}, "venue": {"id": "4e146b1dd22d401417178bb5", "name": "Sport-Gesundheitspark Berlin e.V.", "location": {"address": "Forckenbeckstra\u00dfe 21", "lat": 52.480960064345865, "lng": 13.299643804448822, "labeledLatLngs": [{"label": "display", "lat": 52.480960064345865, "lng": 13.299643804448822}], "distance": 578, "postalCode": "14199", "cc": "DE", "city": "Berlin", "state": "Berlin", "country": "Deutschland", "formattedAddress": ["Forckenbeckstra\u00dfe 21", "14199 Berlin", "Deutschland"]}, "categories": [{"id": "4bf58dd8d48988d176941735", "name": "Gym", "pluralName": "Gyms", "shortName": "Gym", "icon": {"prefix": "https://ss3.4sqi.net/img/categories_v2/building/gym_", "suffix": ".png"}, "primary": true}], "photos": {"count": 0, "groups": []}}, "referralId": "e-0-4e146b1dd22d401417178bb5-31"}, {"reasons": {"count": 0, "items": [{"summary": "This spot is popular", "type": "general", "reasonName": "globalInteractionReason"}]}, "venue": {"id": "4da1aabe540ea1cdf50f6cde", "name": "Werner-Ruhemann-Sporthalle", "location": {"address": "Forckenbeckstr.", "lat": 52.4817244881558, "lng": 13.297113304904661, "labeledLatLngs": [{"label": "display", "lat": 52.4817244881558, "lng": 13.297113304904661}], "distance": 580, "postalCode": "10713", "cc": "DE", "city": "Berlin", "state": "Berlin", "country": "Deutschland", "formattedAddress": ["Forckenbeckstr.", "10713 Berlin", "Deutschland"]}, "categories": [{"id": "4bf58dd8d48988d176941735", "name": "Gym", "pluralName": "Gyms", "shortName": "Gym", "icon": {"prefix": "https://ss3.4sqi.net/img/categories_v2/building/gym_", "suffix": ".png"}, "primary": true}], "photos": {"count": 0, "groups": []}}, "referralId": "e-0-4da1aabe540ea1cdf50f6cde-32"}, {"reasons": {"count": 0, "items": [{"summary": "This spot is popular", "type": "general", "reasonName": "globalInteractionReason"}]}, "venue": {"id": "4c94de6d82b56dcbd000d3aa", "name": "Kieser Training", "location": {"address": "Forckenbeckstr. 9-13", "lat": 52.48002824895229, "lng": 13.305574988395296, "labeledLatLngs": [{"label": "display", "lat": 52.48002824895229, "lng": 13.305574988395296}], "distance": 821, "postalCode": "14199", "cc": "DE", "city": "Berlin", "state": "Berlin", "country": "Deutschland", "formattedAddress": ["Forckenbeckstr. 9-13", "14199 Berlin", "Deutschland"]}, "categories": [{"id": "4bf58dd8d48988d176941735", "name": "Gym", "pluralName": "Gyms", "shortName": "Gym", "icon": {"prefix": "https://ss3.4sqi.net/img/categories_v2/building/gym_", "suffix": ".png"}, "primary": true}], "photos": {"count": 0, "groups": []}, "venuePage": {"id": "580276748"}}, "referralId": "e-0-4c94de6d82b56dcbd000d3aa-33"}, {"reasons": {"count": 0, "items": [{"summary": "This spot is popular", "type": "general", "reasonName": "globalInteractionReason"}]}, "venue": {"id": "4f6c61a7e4b0a6b77064de31", "name": "Nagelstation", "location": {"lat": 52.47110259595562, "lng": 13.291080429175386, "labeledLatLngs": [{"label": "display", "lat": 52.47110259595562, "lng": 13.291080429175386}], "distance": 671, "postalCode": "14193", "cc": "DE", "city": "Berlin", "state": "Berlin", "country": "Deutschland", "formattedAddress": ["14193 Berlin", "Deutschland"]}, "categories": [{"id": "4bf58dd8d48988d10c951735", "name": "Cosmetics Shop", "pluralName": "Cosmetics Shops", "shortName": "Cosmetics", "icon": {"prefix": "https://ss3.4sqi.net/img/categories_v2/shops/beauty_cosmetic_", "suffix": ".png"}, "primary": true}], "photos": {"count": 0, "groups": []}}, "referralId": "e-0-4f6c61a7e4b0a6b77064de31-34"}, {"reasons": {"count": 0, "items": [{"summary": "This spot is popular", "type": "general", "reasonName": "globalInteractionReason"}]}, "venue": {"id": "4f9a3dd1e4b00baa6d7b3189", "name": "H Salzbrunner Stra\u00dfe", "location": {"address": "Hohenzollerndamm", "crossStreet": "Salzbrunner Str.", "lat": 52.48397438576149, "lng": 13.293432622146117, "labeledLatLngs": [{"label": "display", "lat": 52.48397438576149, "lng": 13.293432622146117}], "distance": 813, "postalCode": "14199", "cc": "DE", "city": "Berlin", "state": "Berlin", "country": "Deutschland", "formattedAddress": ["Hohenzollerndamm (Salzbrunner Str.)", "14199 Berlin", "Deutschland"]}, "categories": [{"id": "52f2ab2ebcbc57f1066b8b4f", "name": "Bus Stop", "pluralName": "Bus Stops", "shortName": "Bus Stop", "icon": {"prefix": "https://ss3.4sqi.net/img/categories_v2/travel/busstation_", "suffix": ".png"}, "primary": true}], "photos": {"count": 0, "groups": []}}, "referralId": "e-0-4f9a3dd1e4b00baa6d7b3189-35"}, {"reasons": {"count": 0, "items": [{"summary": "This spot is popular", "type": "general", "reasonName": "globalInteractionReason"}]}, "venue": {"id": "4e1dcf7e52b1944a828cb072", "name": "Grunewald Tennis Club", "location": {"lat": 52.483560684976304, "lng": 13.28998480316447, "labeledLatLngs": [{"label": "display", "lat": 52.483560684976304, "lng": 13.28998480316447}], "distance": 828, "cc": "DE", "city": "Berlin", "state": "Berlin", "country": "Deutschland", "formattedAddress": ["Berlin", "Deutschland"]}, "categories": [{"id": "52e81612bcbc57f1066b7a2e", "name": "Sports Club", "pluralName": "Sports Clubs", "shortName": "Sports Club", "icon": {"prefix": "https://ss3.4sqi.net/img/categories_v2/shops/sports_outdoors_", "suffix": ".png"}, "primary": true}], "photos": {"count": 0, "groups": []}}, "referralId": "e-0-4e1dcf7e52b1944a828cb072-36"}, {"reasons": {"count": 0, "items": [{"summary": "This spot is popular", "type": "general", "reasonName": "globalInteractionReason"}]}, "venue": {"id": "4b140547f964a520e29b23e3", "name": "McDonald's", "location": {"address": "Mecklenburgischestr. 65-68", "lat": 52.47734935846621, "lng": 13.307913367796267, "labeledLatLngs": [{"label": "display", "lat": 52.47734935846621, "lng": 13.307913367796267}], "distance": 895, "postalCode": "14197", "cc": "DE", "city": "Berlin", "state": "Berlin", "country": "Deutschland", "formattedAddress": ["Mecklenburgischestr. 65-68", "14197 Berlin", "Deutschland"]}, "categories": [{"id": "4bf58dd8d48988d16e941735", "name": "Fast Food Restaurant", "pluralName": "Fast Food Restaurants", "shortName": "Fast Food", "icon": {"prefix": "https://ss3.4sqi.net/img/categories_v2/food/fastfood_", "suffix": ".png"}, "primary": true}], "photos": {"count": 0, "groups": []}}, "referralId": "e-0-4b140547f964a520e29b23e3-37"}, {"reasons": {"count": 0, "items": [{"summary": "This spot is popular", "type": "general", "reasonName": "globalInteractionReason"}]}, "venue": {"id": "4f648f2fe4b0fb96f5e4363b", "name": "Stadtbad Wilmersdorf II", "location": {"lat": 52.48202808867926, "lng": 13.304027760481418, "labeledLatLngs": [{"label": "display", "lat": 52.48202808867926, "lng": 13.304027760481418}], "distance": 864, "cc": "DE", "city": "Berlin", "state": "Berlin", "country": "Deutschland", "formattedAddress": ["Berlin", "Deutschland"]}, "categories": [{"id": "4bf58dd8d48988d15e941735", "name": "Pool", "pluralName": "Pools", "shortName": "Pool", "icon": {"prefix": "https://ss3.4sqi.net/img/categories_v2/parks_outdoors/pool_", "suffix": ".png"}, "primary": true}], "photos": {"count": 0, "groups": []}}, "referralId": "e-0-4f648f2fe4b0fb96f5e4363b-38"}, {"reasons": {"count": 0, "items": [{"summary": "This spot is popular", "type": "general", "reasonName": "globalInteractionReason"}]}, "venue": {"id": "5cbffb40c876c8002cec9488", "name": "Ziegfeld Art", "location": {"address": "Podbielskiallee 12", "lat": 52.4689793, "lng": 13.2917415, "labeledLatLngs": [{"label": "display", "lat": 52.4689793, "lng": 13.2917415}], "distance": 884, "postalCode": "14195", "cc": "DE", "city": "Berlin", "state": "Berlin", "country": "Deutschland", "formattedAddress": ["Podbielskiallee 12", "14195 Berlin", "Deutschland"]}, "categories": [{"id": "4bf58dd8d48988d105951735", "name": "Kids Store", "pluralName": "Kids Stores", "shortName": "Kids Store", "icon": {"prefix": "https://ss3.4sqi.net/img/categories_v2/shops/apparel_kids_", "suffix": ".png"}, "primary": true}], "photos": {"count": 0, "groups": []}}, "referralId": "e-0-5cbffb40c876c8002cec9488-39"}, {"reasons": {"count": 0, "items": [{"summary": "This spot is popular", "type": "general", "reasonName": "globalInteractionReason"}]}, "venue": {"id": "4d879c9f7e8ef04dcee34abe", "name": "Horst-K\u00e4sler-Sporthalle", "location": {"address": "Fritz-Wildung-Stra\u00dfe", "lat": 52.484028919851326, "lng": 13.301506390581027, "labeledLatLngs": [{"label": "display", "lat": 52.484028919851326, "lng": 13.301506390581027}], "distance": 934, "postalCode": "10713", "cc": "DE", "city": "Berlin", "state": "Berlin", "country": "Deutschland", "formattedAddress": ["Fritz-Wildung-Stra\u00dfe", "10713 Berlin", "Deutschland"]}, "categories": [{"id": "4bf58dd8d48988d175941735", "name": "Gym / Fitness Center", "pluralName": "Gyms or Fitness Centers", "shortName": "Gym / Fitness", "icon": {"prefix": "https://ss3.4sqi.net/img/categories_v2/building/gym_", "suffix": ".png"}, "primary": true}], "photos": {"count": 0, "groups": []}}, "referralId": "e-0-4d879c9f7e8ef04dcee34abe-40"}, {"reasons": {"count": 0, "items": [{"summary": "This spot is popular", "type": "general", "reasonName": "globalInteractionReason"}]}, "venue": {"id": "4b23bf99f964a520ff5824e3", "name": "NETTO", "location": {"address": "Mecklenburgische Str. 27", "crossStreet": "Forckenbeckstr", "lat": 52.4791791, "lng": 13.308348, "labeledLatLngs": [{"label": "display", "lat": 52.4791791, "lng": 13.308348}], "distance": 962, "postalCode": "14197", "cc": "DE", "city": "Berlin", "state": "Berlin", "country": "Deutschland", "formattedAddress": ["Mecklenburgische Str. 27 (Forckenbeckstr)", "14197 Berlin", "Deutschland"]}, "categories": [{"id": "52f2ab2ebcbc57f1066b8b46", "name": "Supermarket", "pluralName": "Supermarkets", "shortName": "Supermarket", "icon": {"prefix": "https://ss3.4sqi.net/img/categories_v2/shops/food_grocery_", "suffix": ".png"}, "primary": true}], "photos": {"count": 0, "groups": []}, "venuePage": {"id": "454782272"}}, "referralId": "e-0-4b23bf99f964a520ff5824e3-41"}]