[{"reasons": {"count": 0, "items": [{"summary": "This spot is popular", "type": "general", "reasonName": "globalInteractionReason"}]}, "venue": {"id": "4c5432f072cf0f47c93122d4", "name": "Restaurant Strandlust", "location": {"address": "Seddinpromenade 3 A", "lat": 52.37630658096029, "lng": 13.657328133279583, "labeledLatLngs": [{"label": "display", "lat": 52.37630658096029, "lng": 13.657328133279583}], "distance": 258, "postalCode": "12527", "cc": "DE", "city": "Berlin", "state": "Berlin", "country": "Deutschland", "formattedAddress": ["Seddinpromenade 3 A", "12527 Berlin", "Deutschland"]}, "categories": [{"id": "4bf58dd8d48988d10d941735", "name": "German Restaurant", "pluralName": "German Restaurants", "shortName": "German", "icon": {"prefix": "https://ss3.4sqi.net/img/categories_v2/food/german_", "suffix": ".png"}, "primary": true}], "photos": {"count": 0, "groups": []}}, "referralId": "e-0-4c5432f072cf0f47c93122d4-0"}, {"reasons": {"count": 0, "items": [{"summary": "This spot is popular", "type": "general", "reasonName": "globalInteractionReason"}]}, "venue": {"id": "4d84ba5c8de9721ec7c33651", "name": "Aral", "location": {"address": "Adlergestell 748", "lat": 52.37875727, "lng": 13.64435773, "labeledLatLngs": [{"label": "display", "lat": 52.37875727, "lng": 13.64435773}], "distance": 778, "postalCode": "12527", "cc": "DE", "city": "Berlin", "state": "Berlin", "country": "Deutschland", "formattedAddress": ["Adlergestell 748", "12527 Berlin", "Deutschland"]}, "categories": [{"id": "4bf58dd8d48988d113951735", "name": "Gas Station", "pluralName": "Gas Stations", "shortName": "Gas Station", "icon": {"prefix": "https://ss3.4sqi.net/img/categories_v2/shops/gas_", "suffix": ".png"}, "primary": true}], "photos": {"count": 0, "groups": []}, "venuePage": {"id": "585945685"}}, "referralId": "e-0-4d84ba5c8de9721ec7c33651-1"}, {"reasons": {"count": 0, "items": [{"summary": "This spot is popular", "type": "general", "reasonName": "globalInteractionReason"}]}, "venue": {"id": "5245d6f28bbd04ad040618ac", "name": "H Alt-Schm\u00f6ckwitz", "location": {"address": "Alt-Schm\u00f6ckwitz", "crossStreet": "Wernsdorfer Str.", "lat": 52.37532408559151, "lng": 13.649439811706543, "labeledLatLngs": [{"label": "display", "lat": 52.37532408559151, "lng": 13.649439811706543}], "distance": 317, "postalCode": "12527", "cc": "DE", "city": "Berlin", "state": "Berlin", "country": "Deutschland", "formattedAddress": ["Alt-Schm\u00f6ckwitz (Wernsdorfer Str.)", "12527 Berlin", "Deutschland"]}, "categories": [{"id": "52f2ab2ebcbc57f1066b8b51", "name": "Tram Station", "pluralName": "Tram Stations", "shortName": "Tram", "icon": {"prefix": "https://ss3.4sqi.net/img/categories_v2/travel/trainstation_", "suffix": ".png"}, "primary": true}], "photos": {"count": 0, "groups": []}}, "referralId": "e-0-5245d6f28bbd04ad040618ac-2"}, {"reasons": {"count": 0, "items": [{"summary": "This spot is popular", "type": "general", "reasonName": "globalInteractionReason"}]}, "venue": {"id": "4e2f0cb9b0fbdc2b64fd5817", "name": "Villa Toscana", "location": {"address": "Adlergestell 776", "lat": 52.37603896628201, "lng": 13.648759979138934, "labeledLatLngs": [{"label": "display", "lat": 52.37603896628201, "lng": 13.648759979138934}], "distance": 378, "cc": "DE", "city": "Schm\u00f6ckwitz", "state": "Berlin", "country": "Deutschland", "formattedAddress": ["Adlergestell 776", "Schm\u00f6ckwitz", "Deutschland"]}, "categories": [{"id": "4bf58dd8d48988d110941735", "name": "Italian Restaurant", "pluralName": "Italian Restaurants", "shortName": "Italian", "icon": {"prefix": "https://ss3.4sqi.net/img/categories_v2/food/italian_", "suffix": ".png"}, "primary": true}], "photos": {"count": 0, "groups": []}}, "referralId": "e-0-4e2f0cb9b0fbdc2b64fd5817-3"}, {"reasons": {"count": 0, "items": [{"summary": "This spot is popular", "type": "general", "reasonName": "globalInteractionReason"}]}, "venue": {"id": "4fc114fce4b07c20e9a6a1b8", "name": "Wassersportzentrum der HU", "location": {"address": "Alt-Schm\u00f6ckwitz 8", "lat": 52.373572121635306, "lng": 13.648960488338858, "labeledLatLngs": [{"label": "display", "lat": 52.373572121635306, "lng": 13.648960488338858}], "distance": 387, "postalCode": "12527", "cc": "DE", "city": "Berlin", "state": "Berlin", "country": "Deutschland", "formattedAddress": ["Alt-Schm\u00f6ckwitz 8", "12527 Berlin", "Deutschland"]}, "categories": [{"id": "4bf58dd8d48988d1e0941735", "name": "Harbor / Marina", "pluralName": "Harbors / Marinas", "shortName": "Harbor / Marina", "icon": {"prefix": "https://ss3.4sqi.net/img/categories_v2/parks_outdoors/harbor_", "suffix": ".png"}, "primary": true}], "photos": {"count": 0, "groups": []}}, "referralId": "e-0-4fc114fce4b07c20e9a6a1b8-4"}, {"reasons": {"count": 0, "items": [{"summary": "This spot is popular", "type": "general", "reasonName": "globalInteractionReason"}]}, "venue": {"id": "4ca5d3d2a6e08cfa2e4e7494", "name": "REWE", "location": {"address": "H\u00f6nower Str. 76-80", "crossStreet": "Treskowstr.", "lat": 52.37924973, "lng": 13.64346591, "labeledLatLngs": [{"label": "display", "lat": 52.37924973, "lng": 13.64346591}], "distance": 858, "postalCode": "12623", "cc": "DE", "city": "Berlin", "state": "Berlin", "country": "Deutschland", "formattedAddress": ["H\u00f6nower Str. 76-80 (Treskowstr.)", "12623 Berlin", "Deutschland"]}, "categories": [{"id": "52f2ab2ebcbc57f1066b8b46", "name": "Supermarket", "pluralName": "Supermarkets", "shortName": "Supermarket", "icon": {"prefix": "https://ss3.4sqi.net/img/categories_v2/shops/food_grocery_", "suffix": ".png"}, "primary": true}], "photos": {"count": 0, "groups": []}, "venuePage": {"id": "564612081"}}, "referralId": "e-0-4ca5d3d2a6e08cfa2e4e7494-5"}, {"reasons": {"count": 0, "items": [{"summary": "This spot is popular", "type": "general", "reasonName": "globalInteractionReason"}]}, "venue": {"id": "57b6d281498eed4f67b5b748", "name": "Bootshaus Krampenblick", "location": {"address": "Weiselpfad 20", "lat": 52.37939, "lng": 13.64873, "labeledLatLngs": [{"label": "display", "lat": 52.37939, "lng": 13.64873}], "distance": 602, "postalCode": "12527", "cc": "DE", "city": "Berlin", "state": "Berlin", "country": "Deutschland", "formattedAddress": ["Weiselpfad 20", "12527 Berlin", "Deutschland"]}, "categories": [{"id": "4bf58dd8d48988d1e0941735", "name": "Harbor / Marina", "pluralName": "Harbors / Marinas", "shortName": "Harbor / Marina", "icon": {"prefix": "https://ss3.4sqi.net/img/categories_v2/parks_outdoors/harbor_", "suffix": ".png"}, "primary": true}], "photos": {"count": 0, "groups": []}, "venuePage": {"id": "327788934"}}, "referralId": "e-0-57b6d281498eed4f67b5b748-6"}, {"reasons": {"count": 0, "items": [{"summary": "This spot is popular", "type": "general", "reasonName": "globalInteractionReason"}]}, "venue": {"id": "5352cf20498e25b22ede9cf0", "name": "Teikyo Hotel", "location": {"address": "Schm\u00f6ckwitzer Damm 1G", "lat": 52.36908996532679, "lng": 13.651195393374367, "labeledLatLngs": [{"label": "display", "lat": 52.36908996532679, "lng": 13.651195393374367}], "distance": 695, "postalCode": "12527", "cc": "DE", "city": "Berlin", "state": "Berlin", "country": "Deutschland", "formattedAddress": ["Schm\u00f6ckwitzer Damm 1G", "12527 Berlin", "Deutschland"]}, "categories": [{"id": "4bf58dd8d48988d1fa931735", "name": "Hotel", "pluralName": "Hotels", "shortName": "Hotel", "icon": {"prefix": "https://ss3.4sqi.net/img/categories_v2/travel/hotel_", "suffix": ".png"}, "primary": true}], "photos": {"count": 0, "groups": []}, "venuePage": {"id": "478387111"}}, "referralId": "e-0-5352cf20498e25b22ede9cf0-7"}, {"reasons": {"count": 0, "items": [{"summary": "This spot is popular", "type": "general", "reasonName": "globalInteractionReason"}]}, "venue": {"id": "4f675d02e4b087553f7d47aa", "name": "Eisdiele Winklers", "location": {"address": "Adlergestell 751", "lat": 52.37880039108156, "lng": 13.645090214235037, "labeledLatLngs": [{"label": "display", "lat": 52.37880039108156, "lng": 13.645090214235037}], "distance": 739, "postalCode": "12527", "cc": "DE", "city": "Berlin", "state": "Berlin", "country": "Deutschland", "formattedAddress": ["Adlergestell 751", "12527 Berlin", "Deutschland"]}, "categories": [{"id": "4bf58dd8d48988d1c9941735", "name": "Ice Cream Shop", "pluralName": "Ice Cream Shops", "shortName": "Ice Cream", "icon": {"prefix": "https://ss3.4sqi.net/img/categories_v2/food/icecream_", "suffix": ".png"}, "primary": true}], "photos": {"count": 0, "groups": []}}, "referralId": "e-0-4f675d02e4b087553f7d47aa-8"}]