[{"reasons": {"count": 0, "items": [{"summary": "This spot is popular", "type": "general", "reasonName": "globalInteractionReason"}]}, "venue": {"id": "4b852260f964a520754d31e3", "name": "Winterfeldt Schokoladen", "location": {"address": "Goltzstr. 23", "lat": 52.49460282010145, "lng": 13.353968911488423, "labeledLatLngs": [{"label": "display", "lat": 52.49460282010145, "lng": 13.353968911488423}], "distance": 136, "postalCode": "10781", "cc": "DE", "city": "Berlin", "state": "Berlin", "country": "Deutschland", "formattedAddress": ["Goltzstr. 23", "10781 Berlin", "Deutschland"]}, "categories": [{"id": "52f2ab2ebcbc57f1066b8b31", "name": "Chocolate Shop", "pluralName": "Chocolate Shops", "shortName": "Chocolate Shop", "icon": {"prefix": "https://ss3.4sqi.net/img/categories_v2/shops/candystore_", "suffix": ".png"}, "primary": true}], "photos": {"count": 0, "groups": []}}, "referralId": "e-0-4b852260f964a520754d31e3-0"}, {"reasons": {"count": 0, "items": [{"summary": "This spot is popular", "type": "general", "reasonName": "globalInteractionReason"}]}, "venue": {"id": "4adcda8ef964a520a34a21e3", "name": "Wochenmarkt Winterfeldtplatz", "location": {"address": "Winterfeldtplatz", "lat": 52.49650554554704, "lng": 13.354381300746889, "labeledLatLngs": [{"label": "display", "lat": 52.49650554554704, "lng": 13.354381300746889}], "distance": 90, "postalCode": "10781", "cc": "DE", "city": "Berlin", "state": "Berlin", "country": "Deutschland", "formattedAddress": ["Winterfeldtplatz", "10781 Berlin", "Deutschland"]}, "categories": [{"id": "4bf58dd8d48988d1fa941735", "name": "Farmers Market", "pluralName": "Farmers Markets", "shortName": "Farmer's Market", "icon": {"prefix": "https://ss3.4sqi.net/img/categories_v2/shops/food_farmersmarket_", "suffix": ".png"}, "primary": true}], "photos": {"count": 0, "groups": []}}, "referralId": "e-0-4adcda8ef964a520a34a21e3-1"}, {"reasons": {"count": 0, "items": [{"summary": "This spot is popular", "type": "general", "reasonName": "globalInteractionReason"}]}, "venue": {"id": "5daee40c6874c50007f19edc", "name": "Sironi (Il Pane di Milano)", "location": {"address": "Goltzstra\u00dfe 36", "lat": 52.493745, "lng": 13.353641, "labeledLatLngs": [{"label": "display", "lat": 52.493745, "lng": 13.353641}], "distance": 233, "postalCode": "10781", "cc": "DE", "city": "Berlin", "state": "Berlin", "country": "Deutschland", "formattedAddress": ["Goltzstra\u00dfe 36", "10781 Berlin", "Deutschland"]}, "categories": [{"id": "4bf58dd8d48988d16a941735", "name": "Bakery", "pluralName": "Bakeries", "shortName": "Bakery", "icon": {"prefix": "https://ss3.4sqi.net/img/categories_v2/food/bakery_", "suffix": ".png"}, "primary": true}], "photos": {"count": 0, "groups": []}}, "referralId": "e-0-5daee40c6874c50007f19edc-2"}, {"reasons": {"count": 0, "items": [{"summary": "This spot is popular", "type": "general", "reasonName": "globalInteractionReason"}]}, "venue": {"id": "4b520580f964a520de6127e3", "name": "Ixthys", "location": {"address": "Pallasstr. 21", "lat": 52.494595, "lng": 13.354297, "labeledLatLngs": [{"label": "display", "lat": 52.494595, "lng": 13.354297}], "distance": 130, "postalCode": "10781", "cc": "DE", "city": "Berlin", "state": "Berlin", "country": "Deutschland", "formattedAddress": ["Pallasstr. 21", "10781 Berlin", "Deutschland"]}, "categories": [{"id": "4bf58dd8d48988d113941735", "name": "Korean Restaurant", "pluralName": "Korean Restaurants", "shortName": "Korean", "icon": {"prefix": "https://ss3.4sqi.net/img/categories_v2/food/korean_", "suffix": ".png"}, "primary": true}], "photos": {"count": 0, "groups": []}}, "referralId": "e-0-4b520580f964a520de6127e3-3"}, {"reasons": {"count": 0, "items": [{"summary": "This spot is popular", "type": "general", "reasonName": "globalInteractionReason"}]}, "venue": {"id": "4babc643f964a52076c83ae3", "name": "Berkis", "location": {"address": "Winterfeldtstr. 45", "lat": 52.49686496762393, "lng": 13.353624343872069, "labeledLatLngs": [{"label": "display", "lat": 52.49686496762393, "lng": 13.353624343872069}], "distance": 149, "postalCode": "10781", "cc": "DE", "city": "Berlin", "state": "Berlin", "country": "Deutschland", "formattedAddress": ["Winterfeldtstr. 45", "10781 Berlin", "Deutschland"]}, "categories": [{"id": "4bf58dd8d48988d10e941735", "name": "Greek Restaurant", "pluralName": "Greek Restaurants", "shortName": "Greek", "icon": {"prefix": "https://ss3.4sqi.net/img/categories_v2/food/greek_", "suffix": ".png"}, "primary": true}], "photos": {"count": 0, "groups": []}}, "referralId": "e-0-4babc643f964a52076c83ae3-4"}, {"reasons": {"count": 0, "items": [{"summary": "This spot is popular", "type": "general", "reasonName": "globalInteractionReason"}]}, "venue": {"id": "528751dc498eda5ad5a82a5e", "name": "Meyan", "location": {"address": "Goltzstr. 36", "lat": 52.49377950974741, "lng": 13.353748841881423, "labeledLatLngs": [{"label": "display", "lat": 52.49377950974741, "lng": 13.353748841881423}], "distance": 227, "postalCode": "10781", "cc": "DE", "city": "Berlin", "state": "Berlin", "country": "Deutschland", "formattedAddress": ["Goltzstr. 36", "10781 Berlin", "Deutschland"]}, "categories": [{"id": "4bf58dd8d48988d1c0941735", "name": "Mediterranean Restaurant", "pluralName": "Mediterranean Restaurants", "shortName": "Mediterranean", "icon": {"prefix": "https://ss3.4sqi.net/img/categories_v2/food/mediterranean_", "suffix": ".png"}, "primary": true}], "photos": {"count": 0, "groups": []}}, "referralId": "e-0-528751dc498eda5ad5a82a5e-5"}, {"reasons": {"count": 0, "items": [{"summary": "This spot is popular", "type": "general", "reasonName": "globalInteractionReason"}]}, "venue": {"id": "4cf7846771538cfa32d1bb2e", "name": "Winterfeldtplatz", "location": {"address": "Winterfeldtstr.", "crossStreet": "Goltzstr.", "lat": 52.49734743029638, "lng": 13.353790143325856, "labeledLatLngs": [{"label": "display", "lat": 52.49734743029638, "lng": 13.353790143325856}], "distance": 192, "postalCode": "10781", "cc": "DE", "city": "Berlin", "state": "Berlin", "country": "Deutschland", "formattedAddress": ["Winterfeldtstr. (Goltzstr.)", "10781 Berlin", "Deutschland"]}, "categories": [{"id": "4bf58dd8d48988d164941735", "name": "Plaza", "pluralName": "Plazas", "shortName": "Plaza", "icon": {"prefix": "https://ss3.4sqi.net/img/categories_v2/parks_outdoors/plaza_", "suffix": ".png"}, "primary": true}], "photos": {"count": 0, "groups": []}}, "referralId": "e-0-4cf7846771538cfa32d1bb2e-6"}, {"reasons": {"count": 0, "items": [{"summary": "This spot is popular", "type": "general", "reasonName": "globalInteractionReason"}]}, "venue": {"id": "4adcda74f964a5206f4521e3", "name": "Green Door", "location": {"address": "Winterfeldtstr. 50", "lat": 52.49693323125304, "lng": 13.353077482756406, "labeledLatLngs": [{"label": "display", "lat": 52.49693323125304, "lng": 13.353077482756406}], "distance": 177, "postalCode": "10781", "cc": "DE", "city": "Berlin", "state": "Berlin", "country": "Deutschland", "formattedAddress": ["Winterfeldtstr. 50", "10781 Berlin", "Deutschland"]}, "categories": [{"id": "4bf58dd8d48988d11e941735", "name": "Cocktail Bar", "pluralName": "Cocktail Bars", "shortName": "Cocktail", "icon": {"prefix": "https://ss3.4sqi.net/img/categories_v2/nightlife/cocktails_", "suffix": ".png"}, "primary": true}], "photos": {"count": 0, "groups": []}}, "referralId": "e-0-4adcda74f964a5206f4521e3-7"}, {"reasons": {"count": 0, "items": [{"summary": "This spot is popular", "type": "general", "reasonName": "globalInteractionReason"}]}, "venue": {"id": "59073961cad1b6166cb4dd30", "name": "Kiez Eis", "location": {"address": "Winterfeldtstr. 46", "lat": 52.496941782707246, "lng": 13.353624026622834, "labeledLatLngs": [{"label": "display", "lat": 52.496941782707246, "lng": 13.353624026622834}], "distance": 156, "postalCode": "10781", "cc": "DE", "city": "Berlin", "state": "Berlin", "country": "Deutschland", "formattedAddress": ["Winterfeldtstr. 46", "10781 Berlin", "Deutschland"]}, "categories": [{"id": "4bf58dd8d48988d16d941735", "name": "Caf\u00e9", "pluralName": "Caf\u00e9s", "shortName": "Caf\u00e9", "icon": {"prefix": "https://ss3.4sqi.net/img/categories_v2/food/cafe_", "suffix": ".png"}, "primary": true}], "photos": {"count": 0, "groups": []}}, "referralId": "e-0-59073961cad1b6166cb4dd30-8"}, {"reasons": {"count": 0, "items": [{"summary": "This spot is popular", "type": "general", "reasonName": "globalInteractionReason"}]}, "venue": {"id": "4c1fb112fcf8c9b6cb0aaf0b", "name": "Habibi", "location": {"address": "Goltzstr. 24", "lat": 52.496702737743355, "lng": 13.354166146849401, "labeledLatLngs": [{"label": "display", "lat": 52.496702737743355, "lng": 13.354166146849401}], "distance": 116, "postalCode": "10781", "cc": "DE", "city": "Berlin", "state": "Berlin", "country": "Deutschland", "formattedAddress": ["Goltzstr. 24", "10781 Berlin", "Deutschland"]}, "categories": [{"id": "4bf58dd8d48988d10b941735", "name": "Falafel Restaurant", "pluralName": "Falafel Restaurants", "shortName": "Falafel", "icon": {"prefix": "https://ss3.4sqi.net/img/categories_v2/food/falafel_", "suffix": ".png"}, "primary": true}], "photos": {"count": 0, "groups": []}}, "referralId": "e-0-4c1fb112fcf8c9b6cb0aaf0b-9"}, {"reasons": {"count": 0, "items": [{"summary": "This spot is popular", "type": "general", "reasonName": "globalInteractionReason"}]}, "venue": {"id": "4bc607656c26b713282cecf3", "name": "Stagger Lee", "location": {"address": "Nollendorfstr. 27", "lat": 52.49771761410062, "lng": 13.35154363135249, "labeledLatLngs": [{"label": "display", "lat": 52.49771761410062, "lng": 13.35154363135249}], "distance": 311, "postalCode": "10777", "cc": "DE", "city": "Berlin", "state": "Berlin", "country": "Deutschland", "formattedAddress": ["Nollendorfstr. 27", "10777 Berlin", "Deutschland"]}, "categories": [{"id": "4bf58dd8d48988d11e941735", "name": "Cocktail Bar", "pluralName": "Cocktail Bars", "shortName": "Cocktail", "icon": {"prefix": "https://ss3.4sqi.net/img/categories_v2/nightlife/cocktails_", "suffix": ".png"}, "primary": true}], "photos": {"count": 0, "groups": []}}, "referralId": "e-0-4bc607656c26b713282cecf3-10"}, {"reasons": {"count": 0, "items": [{"summary": "This spot is popular", "type": "general", "reasonName": "globalInteractionReason"}]}, "venue": {"id": "54cd29af498ec48ec89de626", "name": "Urban Nation", "location": {"address": "B\u00fclowstr. 7", "lat": 52.498676, "lng": 13.356538, "labeledLatLngs": [{"label": "display", "lat": 52.498676, "lng": 13.356538}], "distance": 349, "postalCode": "10783", "cc": "DE", "city": "Berlin", "state": "Berlin", "country": "Deutschland", "formattedAddress": ["B\u00fclowstr. 7", "10783 Berlin", "Deutschland"]}, "categories": [{"id": "4bf58dd8d48988d1e2931735", "name": "Art Gallery", "pluralName": "Art Galleries", "shortName": "Art Gallery", "icon": {"prefix": "https://ss3.4sqi.net/img/categories_v2/arts_entertainment/artgallery_", "suffix": ".png"}, "primary": true}], "photos": {"count": 0, "groups": []}}, "referralId": "e-0-54cd29af498ec48ec89de626-11"}, {"reasons": {"count": 0, "items": [{"summary": "This spot is popular", "type": "general", "reasonName": "globalInteractionReason"}]}, "venue": {"id": "5810e4b7d67cadfa1e4528bb", "name": "W - Der Imbiss", "location": {"address": "Nollendorfstr. 10", "crossStreet": "Nollendorfplatz", "lat": 52.498094941276634, "lng": 13.35315222268769, "labeledLatLngs": [{"label": "display", "lat": 52.498094941276634, "lng": 13.35315222268769}], "distance": 285, "postalCode": "10777", "cc": "DE", "city": "Berlin", "state": "Berlin", "country": "Deutschland", "formattedAddress": ["Nollendorfstr. 10 (Nollendorfplatz)", "10777 Berlin", "Deutschland"]}, "categories": [{"id": "4bf58dd8d48988d1d3941735", "name": "Vegetarian / Vegan Restaurant", "pluralName": "Vegetarian / Vegan Restaurants", "shortName": "Vegetarian / Vegan", "icon": {"prefix": "https://ss3.4sqi.net/img/categories_v2/food/vegetarian_", "suffix": ".png"}, "primary": true}], "photos": {"count": 0, "groups": []}}, "referralId": "e-0-5810e4b7d67cadfa1e4528bb-12"}, {"reasons": {"count": 0, "items": [{"summary": "This spot is popular", "type": "general", "reasonName": "globalInteractionReason"}]}, "venue": {"id": "5cfc0bb6bfc6d0002cad0a19", "name": "Bonvivant Cocktail Bistro", "location": {"address": "Goltzstr. 32", "lat": 52.49452, "lng": 13.353691, "labeledLatLngs": [{"label": "display", "lat": 52.49452, "lng": 13.353691}], "distance": 153, "postalCode": "10781", "cc": "DE", "city": "Berlin", "state": "Berlin", "country": "Deutschland", "formattedAddress": ["Goltzstr. 32", "10781 Berlin", "Deutschland"]}, "categories": [{"id": "4bf58dd8d48988d11e941735", "name": "Cocktail Bar", "pluralName": "Cocktail Bars", "shortName": "Cocktail", "icon": {"prefix": "https://ss3.4sqi.net/img/categories_v2/nightlife/cocktails_", "suffix": ".png"}, "primary": true}], "photos": {"count": 0, "groups": []}, "venuePage": {"id": "549917093"}}, "referralId": "e-0-5cfc0bb6bfc6d0002cad0a19-13"}, {"reasons": {"count": 0, "items": [{"summary": "This spot is popular", "type": "general", "reasonName": "globalInteractionReason"}]}, "venue": {"id": "4d6a4be8de28224b54074ebe", "name": "Maxway Coffee", "location": {"address": "Maa\u00dfenstr. 13", "lat": 52.49745659911064, "lng": 13.354411170186017, "labeledLatLngs": [{"label": "display", "lat": 52.49745659911064, "lng": 13.354411170186017}], "distance": 194, "postalCode": "10777", "cc": "DE", "city": "Berlin", "state": "Berlin", "country": "Deutschland", "formattedAddress": ["Maa\u00dfenstr. 13", "10777 Berlin", "Deutschland"]}, "categories": [{"id": "4bf58dd8d48988d1e0931735", "name": "Coffee Shop", "pluralName": "Coffee Shops", "shortName": "Coffee Shop", "icon": {"prefix": "https://ss3.4sqi.net/img/categories_v2/food/coffeeshop_", "suffix": ".png"}, "primary": true}], "photos": {"count": 0, "groups": []}}, "referralId": "e-0-4d6a4be8de28224b54074ebe-14"}, {"reasons": {"count": 0, "items": [{"summary": "This spot is popular", "type": "general", "reasonName": "globalInteractionReason"}]}, "venue": {"id": "4d7b70d6ea35236af54e4523", "name": "Caramia", "location": {"address": "Golzstr. 32", "lat": 52.494504, "lng": 13.353744, "labeledLatLngs": [{"label": "display", "lat": 52.494504, "lng": 13.353744}], "distance": 153, "cc": "DE", "city": "Berlin", "state": "Berlin", "country": "Deutschland", "formattedAddress": ["Golzstr. 32", "Berlin", "Deutschland"]}, "categories": [{"id": "4bf58dd8d48988d110941735", "name": "Italian Restaurant", "pluralName": "Italian Restaurants", "shortName": "Italian", "icon": {"prefix": "https://ss3.4sqi.net/img/categories_v2/food/italian_", "suffix": ".png"}, "primary": true}], "photos": {"count": 0, "groups": []}}, "referralId": "e-0-4d7b70d6ea35236af54e4523-15"}, {"reasons": {"count": 0, "items": [{"summary": "This spot is popular", "type": "general", "reasonName": "globalInteractionReason"}]}, "venue": {"id": "4e3988b01850faa59d6ef21e", "name": "Cupcakeladen", "location": {"address": "Frankenstr. 15", "lat": 52.4932674, "lng": 13.3527255, "labeledLatLngs": [{"label": "display", "lat": 52.4932674, "lng": 13.3527255}], "distance": 307, "postalCode": "10781", "cc": "DE", "city": "Berlin", "state": "Berlin", "country": "Deutschland", "formattedAddress": ["Frankenstr. 15", "10781 Berlin", "Deutschland"]}, "categories": [{"id": "4bf58dd8d48988d1bc941735", "name": "Cupcake Shop", "pluralName": "Cupcake Shops", "shortName": "Cupcakes", "icon": {"prefix": "https://ss3.4sqi.net/img/categories_v2/food/cupcakes_", "suffix": ".png"}, "primary": true}], "photos": {"count": 0, "groups": []}, "venuePage": {"id": "38533035"}}, "referralId": "e-0-4e3988b01850faa59d6ef21e-16"}, {"reasons": {"count": 0, "items": [{"summary": "This spot is popular", "type": "general", "reasonName": "globalInteractionReason"}]}, "venue": {"id": "57b769df498e6100804aa5ac", "name": "Nachbar", "location": {"address": "Maa\u00dfenstr. 12", "lat": 52.497356, "lng": 13.354218, "labeledLatLngs": [{"label": "display", "lat": 52.497356, "lng": 13.354218}], "distance": 185, "postalCode": "10777", "cc": "DE", "city": "Berlin", "state": "Berlin", "country": "Deutschland", "formattedAddress": ["Maa\u00dfenstr. 12", "10777 Berlin", "Deutschland"]}, "categories": [{"id": "4bf58dd8d48988d11e941735", "name": "Cocktail Bar", "pluralName": "Cocktail Bars", "shortName": "Cocktail", "icon": {"prefix": "https://ss3.4sqi.net/img/categories_v2/nightlife/cocktails_", "suffix": ".png"}, "primary": true}], "photos": {"count": 0, "groups": []}}, "referralId": "e-0-57b769df498e6100804aa5ac-17"}, {"reasons": {"count": 0, "items": [{"summary": "This spot is popular", "type": "general", "reasonName": "globalInteractionReason"}]}, "venue": {"id": "4c01343e783720a12340c62e", "name": "Brunos - Gay Shopping World", "location": {"address": "Maa\u00dfenstr. 14", "crossStreet": "Nollendorfplatz", "lat": 52.497384, "lng": 13.354049, "labeledLatLngs": [{"label": "display", "lat": 52.497384, "lng": 13.354049}], "distance": 191, "postalCode": "10777", "cc": "DE", "city": "Berlin", "state": "Berlin", "country": "Deutschland", "formattedAddress": ["Maa\u00dfenstr. 14 (Nollendorfplatz)", "10777 Berlin", "Deutschland"]}, "categories": [{"id": "4bf58dd8d48988d106951735", "name": "Men's Store", "pluralName": "Men's Stores", "shortName": "Men's Store", "icon": {"prefix": "https://ss3.4sqi.net/img/categories_v2/shops/apparel_men_", "suffix": ".png"}, "primary": true}], "photos": {"count": 0, "groups": []}}, "referralId": "e-0-4c01343e783720a12340c62e-18"}, {"reasons": {"count": 0, "items": [{"summary": "This spot is popular", "type": "general", "reasonName": "globalInteractionReason"}]}, "venue": {"id": "56fda993498e86ddd4d46538", "name": "Mmaah", "location": {"address": "Nollendorfstr. 31", "lat": 52.49796380961263, "lng": 13.352626749514283, "labeledLatLngs": [{"label": "display", "lat": 52.49796380961263, "lng": 13.352626749514283}], "distance": 288, "postalCode": "10777", "cc": "DE", "city": "Berlin", "state": "Berlin", "country": "Deutschland", "formattedAddress": ["Nollendorfstr. 31", "10777 Berlin", "Deutschland"]}, "categories": [{"id": "4bf58dd8d48988d113941735", "name": "Korean Restaurant", "pluralName": "Korean Restaurants", "shortName": "Korean", "icon": {"prefix": "https://ss3.4sqi.net/img/categories_v2/food/korean_", "suffix": ".png"}, "primary": true}], "photos": {"count": 0, "groups": []}}, "referralId": "e-0-56fda993498e86ddd4d46538-19"}, {"reasons": {"count": 0, "items": [{"summary": "This spot is popular", "type": "general", "reasonName": "globalInteractionReason"}]}, "venue": {"id": "5401e6c9498ec87c144a5adf", "name": "Boxer Berlin", "location": {"address": "Eisenacher Str. 11", "crossStreet": "Nollendorfstr.", "lat": 52.497484540918535, "lng": 13.349587865148509, "labeledLatLngs": [{"label": "display", "lat": 52.497484540918535, "lng": 13.349587865148509}], "distance": 402, "postalCode": "10777", "cc": "DE", "city": "Berlin Sch\u00f6neberg", "state": "Berlin", "country": "Deutschland", "formattedAddress": ["Eisenacher Str. 11 (Nollendorfstr.)", "10777 Sch\u00f6neberg", "Deutschland"]}, "categories": [{"id": "4bf58dd8d48988d106951735", "name": "Men's Store", "pluralName": "Men's Stores", "shortName": "Men's Store", "icon": {"prefix": "https://ss3.4sqi.net/img/categories_v2/shops/apparel_men_", "suffix": ".png"}, "primary": true}], "photos": {"count": 0, "groups": []}}, "referralId": "e-0-5401e6c9498ec87c144a5adf-20"}, {"reasons": {"count": 0, "items": [{"summary": "This spot is popular", "type": "general", "reasonName": "globalInteractionReason"}]}, "venue": {"id": "4b2be2f7f964a52007bd24e3", "name": "Berlin Burrito Company", "location": {"address": "Pallasstr. 21", "lat": 52.494457, "lng": 13.354356, "labeledLatLngs": [{"label": "display", "lat": 52.494457, "lng": 13.354356}], "distance": 144, "postalCode": "10781", "cc": "DE", "city": "Berlin", "state": "Berlin", "country": "Deutschland", "formattedAddress": ["Pallasstr. 21", "10781 Berlin", "Deutschland"]}, "categories": [{"id": "4bf58dd8d48988d153941735", "name": "Burrito Place", "pluralName": "Burrito Places", "shortName": "Burritos", "icon": {"prefix": "https://ss3.4sqi.net/img/categories_v2/food/burrito_", "suffix": ".png"}, "primary": true}], "photos": {"count": 0, "groups": []}}, "referralId": "e-0-4b2be2f7f964a52007bd24e3-21"}, {"reasons": {"count": 0, "items": [{"summary": "This spot is popular", "type": "general", "reasonName": "globalInteractionReason"}]}, "venue": {"id": "4defac5be4cdcd6c3f2f94cc", "name": "Der Hot Dog Laden", "location": {"address": "Goltzstr. 15", "lat": 52.49303044871963, "lng": 13.353506928510486, "labeledLatLngs": [{"label": "display", "lat": 52.49303044871963, "lng": 13.353506928510486}], "distance": 312, "postalCode": "10781", "cc": "DE", "city": "Berlin", "state": "Berlin", "country": "Deutschland", "formattedAddress": ["Goltzstr. 15", "10781 Berlin", "Deutschland"]}, "categories": [{"id": "4bf58dd8d48988d16f941735", "name": "Hot Dog Joint", "pluralName": "Hot Dog Joints", "shortName": "Hot Dogs", "icon": {"prefix": "https://ss3.4sqi.net/img/categories_v2/food/hotdog_", "suffix": ".png"}, "primary": true}], "photos": {"count": 0, "groups": []}}, "referralId": "e-0-4defac5be4cdcd6c3f2f94cc-22"}, {"reasons": {"count": 0, "items": [{"summary": "This spot is popular", "type": "general", "reasonName": "globalInteractionReason"}]}, "venue": {"id": "4adcda87f964a520354921e3", "name": "April", "location": {"address": "Winterfeldtstr. 56", "lat": 52.496746037196246, "lng": 13.351683774104766, "labeledLatLngs": [{"label": "display", "lat": 52.496746037196246, "lng": 13.351683774104766}], "distance": 238, "postalCode": "10781", "cc": "DE", "city": "Berlin", "state": "Berlin", "country": "Deutschland", "formattedAddress": ["Winterfeldtstr. 56", "10781 Berlin", "Deutschland"]}, "categories": [{"id": "4bf58dd8d48988d143941735", "name": "Breakfast Spot", "pluralName": "Breakfast Spots", "shortName": "Breakfast", "icon": {"prefix": "https://ss3.4sqi.net/img/categories_v2/food/breakfast_", "suffix": ".png"}, "primary": true}], "photos": {"count": 0, "groups": []}}, "referralId": "e-0-4adcda87f964a520354921e3-23"}, {"reasons": {"count": 0, "items": [{"summary": "This spot is popular", "type": "general", "reasonName": "globalInteractionReason"}]}, "venue": {"id": "4b40bce4f964a52080ba25e3", "name": "Bejte Ethiopia", "location": {"address": "Zietenstr. 8", "lat": 52.499382891818414, "lng": 13.357073664665222, "labeledLatLngs": [{"label": "display", "lat": 52.499382891818414, "lng": 13.357073664665222}], "distance": 435, "postalCode": "10783", "cc": "DE", "city": "Berlin", "state": "Berlin", "country": "Deutschland", "formattedAddress": ["Zietenstr. 8", "10783 Berlin", "Deutschland"]}, "categories": [{"id": "4bf58dd8d48988d10a941735", "name": "Ethiopian Restaurant", "pluralName": "Ethiopian Restaurants", "shortName": "Ethiopian", "icon": {"prefix": "https://ss3.4sqi.net/img/categories_v2/food/ethiopian_", "suffix": ".png"}, "primary": true}], "photos": {"count": 0, "groups": []}}, "referralId": "e-0-4b40bce4f964a52080ba25e3-24"}, {"reasons": {"count": 0, "items": [{"summary": "This spot is popular", "type": "general", "reasonName": "globalInteractionReason"}]}, "venue": {"id": "4b3feb85f964a52010b225e3", "name": "Heile Welt", "location": {"address": "Motzstr. 5", "lat": 52.49901826478554, "lng": 13.351765546035995, "labeledLatLngs": [{"label": "display", "lat": 52.49901826478554, "lng": 13.351765546035995}], "distance": 419, "postalCode": "10777", "cc": "DE", "city": "Berlin", "state": "Berlin", "country": "Deutschland", "formattedAddress": ["Motzstr. 5", "10777 Berlin", "Deutschland"]}, "categories": [{"id": "4bf58dd8d48988d1d8941735", "name": "Gay Bar", "pluralName": "Gay Bars", "shortName": "Gay Bar", "icon": {"prefix": "https://ss3.4sqi.net/img/categories_v2/nightlife/gaybar_", "suffix": ".png"}, "primary": true}], "photos": {"count": 0, "groups": []}}, "referralId": "e-0-4b3feb85f964a52010b225e3-25"}, {"reasons": {"count": 0, "items": [{"summary": "This spot is popular", "type": "general", "reasonName": "globalInteractionReason"}]}, "venue": {"id": "50ceda77e4b00957d84ec7f6", "name": "Mattea", "location": {"lat": 52.493433878360776, "lng": 13.35195400313665, "labeledLatLngs": [{"label": "display", "lat": 52.493433878360776, "lng": 13.35195400313665}], "distance": 319, "cc": "DE", "city": "Berlin", "state": "Berlin", "country": "Deutschland", "formattedAddress": ["Berlin", "Deutschland"]}, "categories": [{"id": "4bf58dd8d48988d16d941735", "name": "Caf\u00e9", "pluralName": "Caf\u00e9s", "shortName": "Caf\u00e9", "icon": {"prefix": "https://ss3.4sqi.net/img/categories_v2/food/cafe_", "suffix": ".png"}, "primary": true}], "photos": {"count": 0, "groups": []}}, "referralId": "e-0-50ceda77e4b00957d84ec7f6-26"}, {"reasons": {"count": 0, "items": [{"summary": "This spot is popular", "type": "general", "reasonName": "globalInteractionReason"}]}, "venue": {"id": "4c230c92502b9521be1e6e21", "name": "Baltas Coffee Shop", "location": {"address": "Goltzstr. 17", "lat": 52.493455880441246, "lng": 13.353658037022804, "labeledLatLngs": [{"label": "display", "lat": 52.493455880441246, "lng": 13.353658037022804}], "distance": 264, "postalCode": "10781", "cc": "DE", "city": "Berlin", "state": "Berlin", "country": "Deutschland", "formattedAddress": ["Goltzstr. 17", "10781 Berlin", "Deutschland"]}, "categories": [{"id": "4bf58dd8d48988d16d941735", "name": "Caf\u00e9", "pluralName": "Caf\u00e9s", "shortName": "Caf\u00e9", "icon": {"prefix": "https://ss3.4sqi.net/img/categories_v2/food/cafe_", "suffix": ".png"}, "primary": true}], "photos": {"count": 0, "groups": []}}, "referralId": "e-0-4c230c92502b9521be1e6e21-27"}, {"reasons": {"count": 0, "items": [{"summary": "This spot is popular", "type": "general", "reasonName": "globalInteractionReason"}]}, "venue": {"id": "4b40edcbf964a520a5bd25e3", "name": "Mister Hu", "location": {"address": "Goltzstr. 39", "lat": 52.4927843170752, "lng": 13.35353126930691, "labeledLatLngs": [{"label": "display", "lat": 52.4927843170752, "lng": 13.35353126930691}], "distance": 338, "postalCode": "10781", "cc": "DE", "city": "Berlin", "state": "Berlin", "country": "Deutschland", "formattedAddress": ["Goltzstr. 39", "10781 Berlin", "Deutschland"]}, "categories": [{"id": "4bf58dd8d48988d11e941735", "name": "Cocktail Bar", "pluralName": "Cocktail Bars", "shortName": "Cocktail", "icon": {"prefix": "https://ss3.4sqi.net/img/categories_v2/nightlife/cocktails_", "suffix": ".png"}, "primary": true}], "photos": {"count": 0, "groups": []}}, "referralId": "e-0-4b40edcbf964a520a5bd25e3-28"}, {"reasons": {"count": 0, "items": [{"summary": "This spot is popular", "type": "general", "reasonName": "globalInteractionReason"}]}, "venue": {"id": "59072f4aa2a6ce23bba9dea7", "name": "The Visit", "location": {"address": "Goltzstr. 39", "lat": 52.492878765499334, "lng": 13.353553659131794, "labeledLatLngs": [{"label": "display", "lat": 52.492878765499334, "lng": 13.353553659131794}], "distance": 327, "postalCode": "10781", "cc": "DE", "city": "Berlin", "state": "Berlin", "country": "Deutschland", "formattedAddress": ["Goltzstr. 39", "10781 Berlin", "Deutschland"]}, "categories": [{"id": "4bf58dd8d48988d16d941735", "name": "Caf\u00e9", "pluralName": "Caf\u00e9s", "shortName": "Caf\u00e9", "icon": {"prefix": "https://ss3.4sqi.net/img/categories_v2/food/cafe_", "suffix": ".png"}, "primary": true}], "photos": {"count": 0, "groups": []}, "venuePage": {"id": "448592562"}}, "referralId": "e-0-59072f4aa2a6ce23bba9dea7-29"}, {"reasons": {"count": 0, "items": [{"summary": "This spot is popular", "type": "general", "reasonName": "globalInteractionReason"}]}, "venue": {"id": "4bbdd86f07809521eb02db91", "name": "Berlin Homemade Icecream", "location": {"address": "El\u00dfholzstr. 10", "lat": 52.49262, "lng": 13.356314, "labeledLatLngs": [{"label": "display", "lat": 52.49262, "lng": 13.356314}], "distance": 361, "postalCode": "10781", "cc": "DE", "city": "Berlin", "state": "Berlin", "country": "Deutschland", "formattedAddress": ["El\u00dfholzstr. 10", "10781 Berlin", "Deutschland"]}, "categories": [{"id": "4bf58dd8d48988d1c9941735", "name": "Ice Cream Shop", "pluralName": "Ice Cream Shops", "shortName": "Ice Cream", "icon": {"prefix": "https://ss3.4sqi.net/img/categories_v2/food/icecream_", "suffix": ".png"}, "primary": true}], "photos": {"count": 0, "groups": []}}, "referralId": "e-0-4bbdd86f07809521eb02db91-30"}, {"reasons": {"count": 0, "items": [{"summary": "This spot is popular", "type": "general", "reasonName": "globalInteractionReason"}]}, "venue": {"id": "4b8677d9f964a520598b31e3", "name": "Impala Coffee", "location": {"address": "Maa\u00dfenstr. 5", "lat": 52.498455, "lng": 13.3545, "labeledLatLngs": [{"label": "display", "lat": 52.498455, "lng": 13.3545}], "distance": 304, "postalCode": "10777", "cc": "DE", "city": "Berlin", "state": "Berlin", "country": "Deutschland", "formattedAddress": ["Maa\u00dfenstr. 5", "10777 Berlin", "Deutschland"]}, "categories": [{"id": "4bf58dd8d48988d1e0931735", "name": "Coffee Shop", "pluralName": "Coffee Shops", "shortName": "Coffee Shop", "icon": {"prefix": "https://ss3.4sqi.net/img/categories_v2/food/coffeeshop_", "suffix": ".png"}, "primary": true}], "photos": {"count": 0, "groups": []}}, "referralId": "e-0-4b8677d9f964a520598b31e3-31"}, {"reasons": {"count": 0, "items": [{"summary": "This spot is popular", "type": "general", "reasonName": "globalInteractionReason"}]}, "venue": {"id": "52b30a0e498e6177a45fb8bc", "name": "Nafis", "location": {"address": "Winterfeldtstrasse 11", "lat": 52.49618711270331, "lng": 13.35937223407333, "labeledLatLngs": [{"label": "display", "lat": 52.49618711270331, "lng": 13.35937223407333}], "distance": 315, "postalCode": "10781", "cc": "DE", "city": "Berlin", "state": "Berlin", "country": "Deutschland", "formattedAddress": ["Winterfeldtstrasse 11", "10781 Berlin", "Deutschland"]}, "categories": [{"id": "52e81612bcbc57f1066b79f7", "name": "Persian Restaurant", "pluralName": "Persian Restaurants", "shortName": "Persian", "icon": {"prefix": "https://ss3.4sqi.net/img/categories_v2/food/middleeastern_", "suffix": ".png"}, "primary": true}], "photos": {"count": 0, "groups": []}}, "referralId": "e-0-52b30a0e498e6177a45fb8bc-32"}, {"reasons": {"count": 0, "items": [{"summary": "This spot is popular", "type": "general", "reasonName": "globalInteractionReason"}]}, "venue": {"id": "4d1c9780ddc854815f67c960", "name": "GEAR Berlin", "location": {"address": "Kalckreuthstr. 13", "lat": 52.49840346172581, "lng": 13.348169832812236, "labeledLatLngs": [{"label": "display", "lat": 52.49840346172581, "lng": 13.348169832812236}], "distance": 538, "postalCode": "10777", "cc": "DE", "city": "Berlin", "state": "Berlin", "country": "Deutschland", "formattedAddress": ["Kalckreuthstr. 13", "10777 Berlin", "Deutschland"]}, "categories": [{"id": "4bf58dd8d48988d106951735", "name": "Men's Store", "pluralName": "Men's Stores", "shortName": "Men's Store", "icon": {"prefix": "https://ss3.4sqi.net/img/categories_v2/shops/apparel_men_", "suffix": ".png"}, "primary": true}], "photos": {"count": 0, "groups": []}}, "referralId": "e-0-4d1c9780ddc854815f67c960-33"}, {"reasons": {"count": 0, "items": [{"summary": "This spot is popular", "type": "general", "reasonName": "globalInteractionReason"}]}, "venue": {"id": "5747fc35cd109632d5128df6", "name": "Jones Ice Cream", "location": {"address": "Goltzstr. 3", "lat": 52.490548, "lng": 13.353473, "labeledLatLngs": [{"label": "display", "lat": 52.490548, "lng": 13.353473}], "distance": 583, "postalCode": "10781", "cc": "DE", "city": "Berlin", "state": "Berlin", "country": "Deutschland", "formattedAddress": ["Goltzstr. 3", "10781 Berlin", "Deutschland"]}, "categories": [{"id": "4bf58dd8d48988d1c9941735", "name": "Ice Cream Shop", "pluralName": "Ice Cream Shops", "shortName": "Ice Cream", "icon": {"prefix": "https://ss3.4sqi.net/img/categories_v2/food/icecream_", "suffix": ".png"}, "primary": true}], "photos": {"count": 0, "groups": []}, "venuePage": {"id": "423518382"}}, "referralId": "e-0-5747fc35cd109632d5128df6-34"}, {"reasons": {"count": 0, "items": [{"summary": "This spot is popular", "type": "general", "reasonName": "globalInteractionReason"}]}, "venue": {"id": "4ea8a3ebb634441589767d7a", "name": "Voima", "location": {"address": "Winterfeldtstr. 22", "lat": 52.49655267476808, "lng": 13.357818693039253, "labeledLatLngs": [{"label": "display", "lat": 52.49655267476808, "lng": 13.357818693039253}], "distance": 225, "postalCode": "10781", "cc": "DE", "city": "Berlin", "state": "Berlin", "country": "Deutschland", "formattedAddress": ["Winterfeldtstr. 22", "10781 Berlin", "Deutschland"]}, "categories": [{"id": "4bf58dd8d48988d11e941735", "name": "Cocktail Bar", "pluralName": "Cocktail Bars", "shortName": "Cocktail", "icon": {"prefix": "https://ss3.4sqi.net/img/categories_v2/nightlife/cocktails_", "suffix": ".png"}, "primary": true}], "photos": {"count": 0, "groups": []}}, "referralId": "e-0-4ea8a3ebb634441589767d7a-35"}, {"reasons": {"count": 0, "items": [{"summary": "This spot is popular", "type": "general", "reasonName": "globalInteractionReason"}]}, "venue": {"id": "517b9648e4b0a7bf5beceb71", "name": "Caf\u00e9 Kalwil", "location": {"address": "Motzstr. 30", "lat": 52.49768525570815, "lng": 13.347861483690487, "labeledLatLngs": [{"label": "display", "lat": 52.49768525570815, "lng": 13.347861483690487}], "distance": 517, "postalCode": "10777", "cc": "DE", "city": "Berlin", "state": "Berlin", "country": "Deutschland", "formattedAddress": ["Motzstr. 30", "10777 Berlin", "Deutschland"]}, "categories": [{"id": "4bf58dd8d48988d16d941735", "name": "Caf\u00e9", "pluralName": "Caf\u00e9s", "shortName": "Caf\u00e9", "icon": {"prefix": "https://ss3.4sqi.net/img/categories_v2/food/cafe_", "suffix": ".png"}, "primary": true}], "photos": {"count": 0, "groups": []}}, "referralId": "e-0-517b9648e4b0a7bf5beceb71-36"}, {"reasons": {"count": 0, "items": [{"summary": "This spot is popular", "type": "general", "reasonName": "globalInteractionReason"}]}, "venue": {"id": "4d8c4eb1d4f9a0902f5aa139", "name": "Mister B Berlin", "location": {"address": "Motzstr. 22", "lat": 52.49814244738462, "lng": 13.34905919674051, "labeledLatLngs": [{"label": "display", "lat": 52.49814244738462, "lng": 13.34905919674051}], "distance": 471, "postalCode": "10777", "cc": "DE", "city": "Berlin", "state": "Berlin", "country": "Deutschland", "formattedAddress": ["Motzstr. 22", "10777 Berlin", "Deutschland"]}, "categories": [{"id": "5267e446e4b0ec79466e48c4", "name": "Adult Boutique", "pluralName": "Adult Boutiques", "shortName": "Adult Boutique", "icon": {"prefix": "https://ss3.4sqi.net/img/categories_v2/nightlife/stripclub_", "suffix": ".png"}, "primary": true}], "photos": {"count": 0, "groups": []}, "venuePage": {"id": "40955927"}}, "referralId": "e-0-4d8c4eb1d4f9a0902f5aa139-37"}, {"reasons": {"count": 0, "items": [{"summary": "This spot is popular", "type": "general", "reasonName": "globalInteractionReason"}]}, "venue": {"id": "4d00c17bba1da1cd4d388a28", "name": "Hobbyshop Wilhelm R\u00fcther", "location": {"address": "Goltzstr. 37", "lat": 52.49322527427003, "lng": 13.35360303352959, "labeledLatLngs": [{"label": "display", "lat": 52.49322527427003, "lng": 13.35360303352959}], "distance": 289, "postalCode": "10781", "cc": "DE", "city": "Berlin", "state": "Berlin", "country": "Deutschland", "formattedAddress": ["Goltzstr. 37", "10781 Berlin", "Deutschland"]}, "categories": [{"id": "4bf58dd8d48988d1fb941735", "name": "Hobby Shop", "pluralName": "Hobby Shops", "shortName": "Hobbies", "icon": {"prefix": "https://ss3.4sqi.net/img/categories_v2/shops/hobbyshop_", "suffix": ".png"}, "primary": true}], "photos": {"count": 0, "groups": []}}, "referralId": "e-0-4d00c17bba1da1cd4d388a28-38"}, {"reasons": {"count": 0, "items": [{"summary": "This spot is popular", "type": "general", "reasonName": "globalInteractionReason"}]}, "venue": {"id": "4b5c6778f964a5203d2e29e3", "name": "Mamsell", "location": {"address": "Goltzstr. 48", "lat": 52.49058031823461, "lng": 13.35323294088859, "labeledLatLngs": [{"label": "display", "lat": 52.49058031823461, "lng": 13.35323294088859}], "distance": 582, "postalCode": "10781", "cc": "DE", "city": "Berlin", "state": "Berlin", "country": "Deutschland", "formattedAddress": ["Goltzstr. 48", "10781 Berlin", "Deutschland"]}, "categories": [{"id": "52f2ab2ebcbc57f1066b8b31", "name": "Chocolate Shop", "pluralName": "Chocolate Shops", "shortName": "Chocolate Shop", "icon": {"prefix": "https://ss3.4sqi.net/img/categories_v2/shops/candystore_", "suffix": ".png"}, "primary": true}], "photos": {"count": 0, "groups": []}}, "referralId": "e-0-4b5c6778f964a5203d2e29e3-39"}, {"reasons": {"count": 0, "items": [{"summary": "This spot is popular", "type": "general", "reasonName": "globalInteractionReason"}]}, "venue": {"id": "4e45938daeb70e74f488989a", "name": "Zsa Zsa Burger", "location": {"address": "Motzstr. 28", "lat": 52.497949, "lng": 13.348012, "labeledLatLngs": [{"label": "display", "lat": 52.497949, "lng": 13.348012}], "distance": 521, "postalCode": "10777", "cc": "DE", "city": "Berlin", "state": "Berlin", "country": "Deutschland", "formattedAddress": ["Motzstr. 28", "10777 Berlin", "Deutschland"]}, "categories": [{"id": "4bf58dd8d48988d16c941735", "name": "Burger Joint", "pluralName": "Burger Joints", "shortName": "Burgers", "icon": {"prefix": "https://ss3.4sqi.net/img/categories_v2/food/burger_", "suffix": ".png"}, "primary": true}], "photos": {"count": 0, "groups": []}}, "referralId": "e-0-4e45938daeb70e74f488989a-40"}, {"reasons": {"count": 0, "items": [{"summary": "This spot is popular", "type": "general", "reasonName": "globalInteractionReason"}]}, "venue": {"id": "53ab1d4b498e49b7c80b1cfd", "name": "WaWa", "location": {"address": "Grunewaldstr. 10", "lat": 52.490160741078945, "lng": 13.355638682768033, "labeledLatLngs": [{"label": "display", "lat": 52.490160741078945, "lng": 13.355638682768033}], "distance": 622, "postalCode": "10823", "cc": "DE", "city": "Berlin", "state": "Berlin", "country": "Deutschland", "formattedAddress": ["Grunewaldstr. 10", "10823 Berlin", "Deutschland"]}, "categories": [{"id": "4bf58dd8d48988d113941735", "name": "Korean Restaurant", "pluralName": "Korean Restaurants", "shortName": "Korean", "icon": {"prefix": "https://ss3.4sqi.net/img/categories_v2/food/korean_", "suffix": ".png"}, "primary": true}], "photos": {"count": 0, "groups": []}}, "referralId": "e-0-53ab1d4b498e49b7c80b1cfd-41"}, {"reasons": {"count": 0, "items": [{"summary": "This spot is popular", "type": "general", "reasonName": "globalInteractionReason"}]}, "venue": {"id": "50e22c64e4b028f669fab00f", "name": "Bar Voyage", "location": {"address": "Nollendorfstra\u00dfe 1", "crossStreet": "Zietenstra\u00dfe", "lat": 52.497959390769864, "lng": 13.3562955311608, "labeledLatLngs": [{"label": "display", "lat": 52.497959390769864, "lng": 13.3562955311608}], "distance": 268, "postalCode": "10783", "cc": "DE", "city": "Berlin", "state": "Berlin", "country": "Deutschland", "formattedAddress": ["Nollendorfstra\u00dfe 1 (Zietenstra\u00dfe)", "10783 Berlin", "Deutschland"]}, "categories": [{"id": "4bf58dd8d48988d11a941735", "name": "Other Nightlife", "pluralName": "Other Nightlife", "shortName": "Nightlife", "icon": {"prefix": "https://ss3.4sqi.net/img/categories_v2/nightlife/default_", "suffix": ".png"}, "primary": true}], "photos": {"count": 0, "groups": []}}, "referralId": "e-0-50e22c64e4b028f669fab00f-42"}, {"reasons": {"count": 0, "items": [{"summary": "This spot is popular", "type": "general", "reasonName": "globalInteractionReason"}]}, "venue": {"id": "4db2df6d93a017099db60fdb", "name": "Romeo und Romeo", "location": {"address": "Motzstr. 20", "lat": 52.498299277987925, "lng": 13.34950196589679, "labeledLatLngs": [{"label": "display", "lat": 52.498299277987925, "lng": 13.34950196589679}], "distance": 458, "postalCode": "10777", "cc": "DE", "city": "Berlin", "state": "Berlin", "country": "Deutschland", "formattedAddress": ["Motzstr. 20", "10777 Berlin", "Deutschland"]}, "categories": [{"id": "4bf58dd8d48988d1e0931735", "name": "Coffee Shop", "pluralName": "Coffee Shops", "shortName": "Coffee Shop", "icon": {"prefix": "https://ss3.4sqi.net/img/categories_v2/food/coffeeshop_", "suffix": ".png"}, "primary": true}], "photos": {"count": 0, "groups": []}}, "referralId": "e-0-4db2df6d93a017099db60fdb-43"}, {"reasons": {"count": 0, "items": [{"summary": "This spot is popular", "type": "general", "reasonName": "globalInteractionReason"}]}, "venue": {"id": "4adcda76f964a520d64521e3", "name": "Tee Tea Th\u00e9", "location": {"address": "Goltzstr. 2", "lat": 52.490227288565116, "lng": 13.353177985495995, "labeledLatLngs": [{"label": "display", "lat": 52.490227288565116, "lng": 13.353177985495995}], "distance": 621, "postalCode": "10781", "cc": "DE", "city": "Berlin", "state": "Berlin", "country": "Deutschland", "formattedAddress": ["Goltzstr. 2", "10781 Berlin", "Deutschland"]}, "categories": [{"id": "4bf58dd8d48988d1dc931735", "name": "Tea Room", "pluralName": "Tea Rooms", "shortName": "Tea Room", "icon": {"prefix": "https://ss3.4sqi.net/img/categories_v2/food/tearoom_", "suffix": ".png"}, "primary": true}], "photos": {"count": 0, "groups": []}}, "referralId": "e-0-4adcda76f964a520d64521e3-44"}, {"reasons": {"count": 0, "items": [{"summary": "This spot is popular", "type": "general", "reasonName": "globalInteractionReason"}]}, "venue": {"id": "5026281ae4b0352ef8e1c738", "name": "Hexenspielplatz", "location": {"address": "Eisenacher Str. 29", "crossStreet": "Frankenstr.", "lat": 52.49321355810241, "lng": 13.350030183792114, "labeledLatLngs": [{"label": "display", "lat": 52.49321355810241, "lng": 13.350030183792114}], "distance": 426, "postalCode": "10781", "cc": "DE", "city": "Berlin", "state": "Berlin", "country": "Deutschland", "formattedAddress": ["Eisenacher Str. 29 (Frankenstr.)", "10781 Berlin", "Deutschland"]}, "categories": [{"id": "4bf58dd8d48988d1e7941735", "name": "Playground", "pluralName": "Playgrounds", "shortName": "Playground", "icon": {"prefix": "https://ss3.4sqi.net/img/categories_v2/parks_outdoors/playground_", "suffix": ".png"}, "primary": true}], "photos": {"count": 0, "groups": []}}, "referralId": "e-0-5026281ae4b0352ef8e1c738-45"}, {"reasons": {"count": 0, "items": [{"summary": "This spot is popular", "type": "general", "reasonName": "globalInteractionReason"}]}, "venue": {"id": "4b56f328f964a520542028e3", "name": "Amrit", "location": {"address": "Winterfeldtstr. 40", "crossStreet": "Maa\u00dfenstr.", "lat": 52.497241, "lng": 13.3549351, "labeledLatLngs": [{"label": "display", "lat": 52.497241, "lng": 13.3549351}], "distance": 168, "postalCode": "10781", "cc": "DE", "city": "Berlin", "state": "Berlin", "country": "Deutschland", "formattedAddress": ["Winterfeldtstr. 40 (Maa\u00dfenstr.)", "10781 Berlin", "Deutschland"]}, "categories": [{"id": "4bf58dd8d48988d10f941735", "name": "Indian Restaurant", "pluralName": "Indian Restaurants", "shortName": "Indian", "icon": {"prefix": "https://ss3.4sqi.net/img/categories_v2/food/indian_", "suffix": ".png"}, "primary": true}], "photos": {"count": 0, "groups": []}, "venuePage": {"id": "571890670"}}, "referralId": "e-0-4b56f328f964a520542028e3-46"}, {"reasons": {"count": 0, "items": [{"summary": "This spot is popular", "type": "general", "reasonName": "globalInteractionReason"}]}, "venue": {"id": "4b9ffb50f964a520b34f37e3", "name": "Salut! Classic Bar", "location": {"address": "Goltzstr. 7", "lat": 52.49105784306372, "lng": 13.353377580642698, "labeledLatLngs": [{"label": "display", "lat": 52.49105784306372, "lng": 13.353377580642698}], "distance": 528, "postalCode": "10781", "cc": "DE", "city": "Berlin", "state": "Berlin", "country": "Deutschland", "formattedAddress": ["Goltzstr. 7", "10781 Berlin", "Deutschland"]}, "categories": [{"id": "4bf58dd8d48988d11e941735", "name": "Cocktail Bar", "pluralName": "Cocktail Bars", "shortName": "Cocktail", "icon": {"prefix": "https://ss3.4sqi.net/img/categories_v2/nightlife/cocktails_", "suffix": ".png"}, "primary": true}], "photos": {"count": 0, "groups": []}}, "referralId": "e-0-4b9ffb50f964a520b34f37e3-47"}, {"reasons": {"count": 0, "items": [{"summary": "This spot is popular", "type": "general", "reasonName": "globalInteractionReason"}]}, "venue": {"id": "51fbde77498e9a3969af6b3e", "name": "Da Jia Le", "location": {"address": "Goebenstr. 23", "lat": 52.49396862782251, "lng": 13.363701464402617, "labeledLatLngs": [{"label": "display", "lat": 52.49396862782251, "lng": 13.363701464402617}], "distance": 635, "postalCode": "10783", "cc": "DE", "neighborhood": "Gro\u00dfg\u00f6rschenstra\u00dfe", "city": "Berlin", "state": "Berlin", "country": "Deutschland", "formattedAddress": ["Goebenstr. 23", "10783 Berlin", "Deutschland"]}, "categories": [{"id": "52af3b773cf9994f4e043c03", "name": "Szechuan Restaurant", "pluralName": "Szechuan Restaurants", "shortName": "Szechuan", "icon": {"prefix": "https://ss3.4sqi.net/img/categories_v2/food/asian_", "suffix": ".png"}, "primary": true}], "photos": {"count": 0, "groups": []}}, "referralId": "e-0-51fbde77498e9a3969af6b3e-48"}, {"reasons": {"count": 0, "items": [{"summary": "This spot is popular", "type": "general", "reasonName": "globalInteractionReason"}]}, "venue": {"id": "585a65bd0b7e934bd2588e27", "name": "Le Bretagne", "location": {"address": "Karl-Schrader-Str. 1", "lat": 52.49195687156021, "lng": 13.351252581972107, "labeledLatLngs": [{"label": "display", "lat": 52.49195687156021, "lng": 13.351252581972107}], "distance": 483, "postalCode": "10781", "cc": "DE", "city": "Berlin", "state": "Berlin", "country": "Deutschland", "formattedAddress": ["Karl-Schrader-Str. 1", "10781 Berlin", "Deutschland"]}, "categories": [{"id": "4bf58dd8d48988d16d941735", "name": "Caf\u00e9", "pluralName": "Caf\u00e9s", "shortName": "Caf\u00e9", "icon": {"prefix": "https://ss3.4sqi.net/img/categories_v2/food/cafe_", "suffix": ".png"}, "primary": true}], "photos": {"count": 0, "groups": []}}, "referralId": "e-0-585a65bd0b7e934bd2588e27-49"}, {"reasons": {"count": 0, "items": [{"summary": "This spot is popular", "type": "general", "reasonName": "globalInteractionReason"}]}, "venue": {"id": "4dda9ba61838b8561d343d61", "name": "Il Valentino", "location": {"address": "Kurf\u00fcrstenstr. 56", "lat": 52.50179676429753, "lng": 13.355430005213929, "labeledLatLngs": [{"label": "display", "lat": 52.50179676429753, "lng": 13.355430005213929}], "distance": 677, "postalCode": "10785", "cc": "DE", "city": "Berlin", "state": "Berlin", "country": "Deutschland", "formattedAddress": ["Kurf\u00fcrstenstr. 56", "10785 Berlin", "Deutschland"]}, "categories": [{"id": "4bf58dd8d48988d110941735", "name": "Italian Restaurant", "pluralName": "Italian Restaurants", "shortName": "Italian", "icon": {"prefix": "https://ss3.4sqi.net/img/categories_v2/food/italian_", "suffix": ".png"}, "primary": true}], "photos": {"count": 0, "groups": []}}, "referralId": "e-0-4dda9ba61838b8561d343d61-50"}, {"reasons": {"count": 0, "items": [{"summary": "This spot is popular", "type": "general", "reasonName": "globalInteractionReason"}]}, "venue": {"id": "4b8d7710f964a52049fd32e3", "name": "Rote Beete", "location": {"address": "Gleditschstr. 71", "lat": 52.490436580690485, "lng": 13.354926819716542, "labeledLatLngs": [{"label": "display", "lat": 52.490436580690485, "lng": 13.354926819716542}], "distance": 588, "postalCode": "10781", "cc": "DE", "neighborhood": "Akazien", "city": "Berlin", "state": "Berlin", "country": "Deutschland", "formattedAddress": ["Gleditschstr. 71", "10781 Berlin", "Deutschland"]}, "categories": [{"id": "4bf58dd8d48988d16d941735", "name": "Caf\u00e9", "pluralName": "Caf\u00e9s", "shortName": "Caf\u00e9", "icon": {"prefix": "https://ss3.4sqi.net/img/categories_v2/food/cafe_", "suffix": ".png"}, "primary": true}], "photos": {"count": 0, "groups": []}}, "referralId": "e-0-4b8d7710f964a52049fd32e3-51"}, {"reasons": {"count": 0, "items": [{"summary": "This spot is popular", "type": "general", "reasonName": "globalInteractionReason"}]}, "venue": {"id": "5501bbb1498eed0748a35be5", "name": "Alnatura", "location": {"address": "Else-Lasker-Sch\u00fcler-Str. 18-22", "lat": 52.49994971295512, "lng": 13.35450668992433, "labeledLatLngs": [{"label": "display", "lat": 52.49994971295512, "lng": 13.35450668992433}], "distance": 470, "postalCode": "10783", "cc": "DE", "city": "Berlin", "state": "Berlin", "country": "Deutschland", "formattedAddress": ["Else-Lasker-Sch\u00fcler-Str. 18-22", "10783 Berlin", "Deutschland"]}, "categories": [{"id": "52f2ab2ebcbc57f1066b8b45", "name": "Organic Grocery", "pluralName": "Organic Groceries", "shortName": "Organic Grocery", "icon": {"prefix": "https://ss3.4sqi.net/img/categories_v2/shops/food_grocery_", "suffix": ".png"}, "primary": true}], "photos": {"count": 0, "groups": []}}, "referralId": "e-0-5501bbb1498eed0748a35be5-52"}, {"reasons": {"count": 0, "items": [{"summary": "This spot is popular", "type": "general", "reasonName": "globalInteractionReason"}]}, "venue": {"id": "4b9bcfb1f964a5200d2836e3", "name": "New Action", "location": {"address": "Kleiststr. 35", "crossStreet": "Eisenacher Str.", "lat": 52.500232987316636, "lng": 13.349644003739185, "labeledLatLngs": [{"label": "display", "lat": 52.500232987316636, "lng": 13.349644003739185}], "distance": 610, "postalCode": "10707", "cc": "DE", "city": "Berlin", "state": "Berlin", "country": "Deutschland", "formattedAddress": ["Kleiststr. 35 (Eisenacher Str.)", "10707 Berlin", "Deutschland"]}, "categories": [{"id": "4bf58dd8d48988d1d8941735", "name": "Gay Bar", "pluralName": "Gay Bars", "shortName": "Gay Bar", "icon": {"prefix": "https://ss3.4sqi.net/img/categories_v2/nightlife/gaybar_", "suffix": ".png"}, "primary": true}], "photos": {"count": 0, "groups": []}}, "referralId": "e-0-4b9bcfb1f964a5200d2836e3-53"}, {"reasons": {"count": 0, "items": [{"summary": "This spot is popular", "type": "general", "reasonName": "globalInteractionReason"}]}, "venue": {"id": "5c193a6cf1fdaf0039071989", "name": "Neelou Lounge", "location": {"address": "Karl-Heinrich-Ulrichs-Str. 8", "lat": 52.5011586, "lng": 13.354028, "labeledLatLngs": [{"label": "display", "lat": 52.5011586, "lng": 13.354028}], "distance": 606, "postalCode": "10787", "cc": "DE", "city": "Berlin", "state": "Berlin", "country": "Deutschland", "formattedAddress": ["Karl-Heinrich-Ulrichs-Str. 8", "10787 Berlin", "Deutschland"]}, "categories": [{"id": "4bf58dd8d48988d119941735", "name": "Hookah Bar", "pluralName": "Hookah Bars", "shortName": "Hookah Bar", "icon": {"prefix": "https://ss3.4sqi.net/img/categories_v2/nightlife/hookahbar_", "suffix": ".png"}, "primary": true}], "photos": {"count": 0, "groups": []}, "venuePage": {"id": "557322584"}}, "referralId": "e-0-5c193a6cf1fdaf0039071989-54"}, {"reasons": {"count": 0, "items": [{"summary": "This spot is popular", "type": "general", "reasonName": "globalInteractionReason"}]}, "venue": {"id": "559e7190498e0ea1ba345df7", "name": "Fadi Food", "location": {"address": "Potsdamer Str. 117", "lat": 52.49887017445892, "lng": 13.362540006637573, "labeledLatLngs": [{"label": "display", "lat": 52.49887017445892, "lng": 13.362540006637573}], "distance": 631, "postalCode": "10783", "cc": "DE", "city": "Berlin", "state": "Berlin", "country": "Deutschland", "formattedAddress": ["Potsdamer Str. 117", "10783 Berlin", "Deutschland"]}, "categories": [{"id": "4bf58dd8d48988d115941735", "name": "Middle Eastern Restaurant", "pluralName": "Middle Eastern Restaurants", "shortName": "Middle Eastern", "icon": {"prefix": "https://ss3.4sqi.net/img/categories_v2/food/middleeastern_", "suffix": ".png"}, "primary": true}], "photos": {"count": 0, "groups": []}}, "referralId": "e-0-559e7190498e0ea1ba345df7-55"}, {"reasons": {"count": 0, "items": [{"summary": "This spot is popular", "type": "general", "reasonName": "globalInteractionReason"}]}, "venue": {"id": "52755dfa11d2cfe50ec01fee", "name": "Eisenherz", "location": {"address": "Motzstr. 23", "lat": 52.49788, "lng": 13.348917, "labeledLatLngs": [{"label": "display", "lat": 52.49788, "lng": 13.348917}], "distance": 464, "postalCode": "10777", "cc": "DE", "city": "Berlin", "state": "Berlin", "country": "Deutschland", "formattedAddress": ["Motzstr. 23", "10777 Berlin", "Deutschland"]}, "categories": [{"id": "4bf58dd8d48988d114951735", "name": "Bookstore", "pluralName": "Bookstores", "shortName": "Bookstore", "icon": {"prefix": "https://ss3.4sqi.net/img/categories_v2/shops/bookstore_", "suffix": ".png"}, "primary": true}], "photos": {"count": 0, "groups": []}}, "referralId": "e-0-52755dfa11d2cfe50ec01fee-56"}, {"reasons": {"count": 0, "items": [{"summary": "This spot is popular", "type": "general", "reasonName": "globalInteractionReason"}]}, "venue": {"id": "517274f6e4b0480d29570b70", "name": "Dodo Beach Record Store", "location": {"address": "Vorbergstr. 8", "crossStreet": "Gleditschstr.", "lat": 52.48930706339677, "lng": 13.35537314414978, "labeledLatLngs": [{"label": "display", "lat": 52.48930706339677, "lng": 13.35537314414978}], "distance": 715, "postalCode": "10823", "cc": "DE", "city": "Berlin", "state": "Berlin", "country": "Deutschland", "formattedAddress": ["Vorbergstr. 8 (Gleditschstr.)", "10823 Berlin", "Deutschland"]}, "categories": [{"id": "4bf58dd8d48988d10d951735", "name": "Record Shop", "pluralName": "Record Shops", "shortName": "Record Shop", "icon": {"prefix": "https://ss3.4sqi.net/img/categories_v2/shops/record_shop_", "suffix": ".png"}, "primary": true}], "photos": {"count": 0, "groups": []}}, "referralId": "e-0-517274f6e4b0480d29570b70-57"}, {"reasons": {"count": 0, "items": [{"summary": "This spot is popular", "type": "general", "reasonName": "globalInteractionReason"}]}, "venue": {"id": "56fd6206498e5a62d8fe916a", "name": "Prometeo", "location": {"address": "Goebenstr. 3", "lat": 52.49404652290855, "lng": 13.362390870410987, "labeledLatLngs": [{"label": "display", "lat": 52.49404652290855, "lng": 13.362390870410987}], "distance": 548, "cc": "DE", "city": "Berlin", "state": "Berlin", "country": "Deutschland", "formattedAddress": ["Goebenstr. 3", "Berlin", "Deutschland"]}, "categories": [{"id": "4bf58dd8d48988d1ca941735", "name": "Pizza Place", "pluralName": "Pizza Places", "shortName": "Pizza", "icon": {"prefix": "https://ss3.4sqi.net/img/categories_v2/food/pizza_", "suffix": ".png"}, "primary": true}], "photos": {"count": 0, "groups": []}}, "referralId": "e-0-56fd6206498e5a62d8fe916a-58"}, {"reasons": {"count": 0, "items": [{"summary": "This spot is popular", "type": "general", "reasonName": "globalInteractionReason"}]}, "venue": {"id": "4d1c918d8860a0939441bc34", "name": "frontplay", "location": {"address": "Motzstr. 25", "lat": 52.49797478968596, "lng": 13.348696394384682, "labeledLatLngs": [{"label": "display", "lat": 52.49797478968596, "lng": 13.348696394384682}], "distance": 482, "postalCode": "10777", "cc": "DE", "city": "Berlin", "state": "Berlin", "country": "Deutschland", "formattedAddress": ["Motzstr. 25", "10777 Berlin", "Deutschland"]}, "categories": [{"id": "4bf58dd8d48988d106951735", "name": "Men's Store", "pluralName": "Men's Stores", "shortName": "Men's Store", "icon": {"prefix": "https://ss3.4sqi.net/img/categories_v2/shops/apparel_men_", "suffix": ".png"}, "primary": true}], "photos": {"count": 0, "groups": []}}, "referralId": "e-0-4d1c918d8860a0939441bc34-59"}, {"reasons": {"count": 0, "items": [{"summary": "This spot is popular", "type": "general", "reasonName": "globalInteractionReason"}]}, "venue": {"id": "5bf00409ba57b4002c5b7ea3", "name": "Black Pug", "location": {"address": "Motzstrasse 28", "lat": 52.497674, "lng": 13.347937, "labeledLatLngs": [{"label": "display", "lat": 52.497674, "lng": 13.347937}], "distance": 512, "cc": "DE", "city": "Berlin", "state": "Berlin", "country": "Deutschland", "formattedAddress": ["Motzstrasse 28", "Berlin", "Deutschland"]}, "categories": [{"id": "4bf58dd8d48988d14e941735", "name": "American Restaurant", "pluralName": "American Restaurants", "shortName": "American", "icon": {"prefix": "https://ss3.4sqi.net/img/categories_v2/food/default_", "suffix": ".png"}, "primary": true}], "photos": {"count": 0, "groups": []}}, "referralId": "e-0-5bf00409ba57b4002c5b7ea3-60"}, {"reasons": {"count": 0, "items": [{"summary": "This spot is popular", "type": "general", "reasonName": "globalInteractionReason"}]}, "venue": {"id": "536a5775498ebcc77aad14bd", "name": "Lebensstern Bar im Einstein", "location": {"address": "Kurf\u00fcrstenstra\u00dfe 58", "lat": 52.5020043933603, "lng": 13.354558637625267, "labeledLatLngs": [{"label": "display", "lat": 52.5020043933603, "lng": 13.354558637625267}], "distance": 698, "postalCode": "10785", "cc": "DE", "city": "Berlin", "state": "Berlin", "country": "Deutschland", "formattedAddress": ["Kurf\u00fcrstenstra\u00dfe 58", "10785 Berlin", "Deutschland"]}, "categories": [{"id": "4bf58dd8d48988d116941735", "name": "Bar", "pluralName": "Bars", "shortName": "Bar", "icon": {"prefix": "https://ss3.4sqi.net/img/categories_v2/nightlife/pub_", "suffix": ".png"}, "primary": true}], "photos": {"count": 0, "groups": []}}, "referralId": "e-0-536a5775498ebcc77aad14bd-61"}, {"reasons": {"count": 0, "items": [{"summary": "This spot is popular", "type": "general", "reasonName": "globalInteractionReason"}]}, "venue": {"id": "5aa6f14783e38039864eafa8", "name": "Caff\u00e8 e Gelato", "location": {"address": "Maa\u00dfenstr. 6", "lat": 52.498595851887714, "lng": 13.354166150093079, "labeledLatLngs": [{"label": "display", "lat": 52.498595851887714, "lng": 13.354166150093079}], "distance": 322, "postalCode": "10777", "cc": "DE", "city": "Berlin", "state": "Berlin", "country": "Deutschland", "formattedAddress": ["Maa\u00dfenstr. 6", "10777 Berlin", "Deutschland"]}, "categories": [{"id": "4bf58dd8d48988d1c9941735", "name": "Ice Cream Shop", "pluralName": "Ice Cream Shops", "shortName": "Ice Cream", "icon": {"prefix": "https://ss3.4sqi.net/img/categories_v2/food/icecream_", "suffix": ".png"}, "primary": true}], "photos": {"count": 0, "groups": []}}, "referralId": "e-0-5aa6f14783e38039864eafa8-62"}, {"reasons": {"count": 0, "items": [{"summary": "This spot is popular", "type": "general", "reasonName": "globalInteractionReason"}]}, "venue": {"id": "57557f92498ec36581269cd4", "name": "Ho Lo and Friends Kitchen + Bar", "location": {"address": "Schw\u00e4bische Str. 16", "lat": 52.490114, "lng": 13.351937, "labeledLatLngs": [{"label": "display", "lat": 52.490114, "lng": 13.351937}], "distance": 653, "postalCode": "10781", "cc": "DE", "city": "Berlin", "state": "Berlin", "country": "Deutschland", "formattedAddress": ["Schw\u00e4bische Str. 16", "10781 Berlin", "Deutschland"]}, "categories": [{"id": "4bf58dd8d48988d14a941735", "name": "Vietnamese Restaurant", "pluralName": "Vietnamese Restaurants", "shortName": "Vietnamese", "icon": {"prefix": "https://ss3.4sqi.net/img/categories_v2/food/vietnamese_", "suffix": ".png"}, "primary": true}], "photos": {"count": 0, "groups": []}}, "referralId": "e-0-57557f92498ec36581269cd4-63"}, {"reasons": {"count": 0, "items": [{"summary": "This spot is popular", "type": "general", "reasonName": "globalInteractionReason"}]}, "venue": {"id": "4b7848c0f964a52022c22ee3", "name": "La Cocotte", "location": {"address": "Vorbergstr. 10", "lat": 52.48926196483406, "lng": 13.354167734454572, "labeledLatLngs": [{"label": "display", "lat": 52.48926196483406, "lng": 13.354167734454572}], "distance": 720, "postalCode": "10823", "cc": "DE", "city": "Berlin", "state": "Berlin", "country": "Deutschland", "formattedAddress": ["Vorbergstr. 10", "10823 Berlin", "Deutschland"]}, "categories": [{"id": "4bf58dd8d48988d10c941735", "name": "French Restaurant", "pluralName": "French Restaurants", "shortName": "French", "icon": {"prefix": "https://ss3.4sqi.net/img/categories_v2/food/french_", "suffix": ".png"}, "primary": true}], "photos": {"count": 0, "groups": []}}, "referralId": "e-0-4b7848c0f964a52022c22ee3-64"}, {"reasons": {"count": 0, "items": [{"summary": "This spot is popular", "type": "general", "reasonName": "globalInteractionReason"}]}, "venue": {"id": "4adcda77f964a520044621e3", "name": "Caf\u00e9 Einstein Stammhaus", "location": {"address": "Kurf\u00fcrstenstr. 58", "lat": 52.5021, "lng": 13.354641, "labeledLatLngs": [{"label": "display", "lat": 52.5021, "lng": 13.354641}], "distance": 709, "postalCode": "10785", "cc": "DE", "city": "Berlin", "state": "Berlin", "country": "Deutschland", "formattedAddress": ["Kurf\u00fcrstenstr. 58", "10785 Berlin", "Deutschland"]}, "categories": [{"id": "4bf58dd8d48988d16d941735", "name": "Caf\u00e9", "pluralName": "Caf\u00e9s", "shortName": "Caf\u00e9", "icon": {"prefix": "https://ss3.4sqi.net/img/categories_v2/food/cafe_", "suffix": ".png"}, "primary": true}], "photos": {"count": 0, "groups": []}}, "referralId": "e-0-4adcda77f964a520044621e3-65"}, {"reasons": {"count": 0, "items": [{"summary": "This spot is popular", "type": "general", "reasonName": "globalInteractionReason"}]}, "venue": {"id": "50d2fff9e4b0c5ed3da2cf53", "name": "Sofram", "location": {"address": "Potsdamer Str. 137", "lat": 52.49697214964744, "lng": 13.36175958444267, "labeledLatLngs": [{"label": "display", "lat": 52.49697214964744, "lng": 13.36175958444267}], "distance": 492, "postalCode": "10783", "cc": "DE", "city": "Berlin", "state": "Berlin", "country": "Deutschland", "formattedAddress": ["Potsdamer Str. 137", "10783 Berlin", "Deutschland"]}, "categories": [{"id": "4f04af1f2fb6e1c99f3db0bb", "name": "Turkish Restaurant", "pluralName": "Turkish Restaurants", "shortName": "Turkish", "icon": {"prefix": "https://ss3.4sqi.net/img/categories_v2/food/turkish_", "suffix": ".png"}, "primary": true}], "photos": {"count": 0, "groups": []}}, "referralId": "e-0-50d2fff9e4b0c5ed3da2cf53-66"}, {"reasons": {"count": 0, "items": [{"summary": "This spot is popular", "type": "general", "reasonName": "globalInteractionReason"}]}, "venue": {"id": "51094916e4b09ed7dbbdd7fe", "name": "Getr\u00e4nke Hoffmann", "location": {"address": "Kurf\u00fcrstenstr. 48 - 52", "crossStreet": "Genthiner Str.", "lat": 52.501404199085314, "lng": 13.358036314439119, "labeledLatLngs": [{"label": "display", "lat": 52.501404199085314, "lng": 13.358036314439119}], "distance": 669, "postalCode": "10785", "cc": "DE", "city": "Berlin", "state": "Berlin", "country": "Deutschland", "formattedAddress": ["Kurf\u00fcrstenstr. 48 - 52 (Genthiner Str.)", "10785 Berlin", "Deutschland"]}, "categories": [{"id": "4bf58dd8d48988d186941735", "name": "Liquor Store", "pluralName": "Liquor Stores", "shortName": "Liquor Store", "icon": {"prefix": "https://ss3.4sqi.net/img/categories_v2/shops/food_liquor_", "suffix": ".png"}, "primary": true}], "photos": {"count": 0, "groups": []}}, "referralId": "e-0-51094916e4b09ed7dbbdd7fe-67"}, {"reasons": {"count": 0, "items": [{"summary": "This spot is popular", "type": "general", "reasonName": "globalInteractionReason"}]}, "venue": {"id": "4b2947e0f964a520349c24e3", "name": "Petite Europe", "location": {"address": "Langenscheidtstr. 1", "lat": 52.490037, "lng": 13.360622, "labeledLatLngs": [{"label": "display", "lat": 52.490037, "lng": 13.360622}], "distance": 746, "postalCode": "10827", "cc": "DE", "city": "Berlin", "state": "Berlin", "country": "Deutschland", "formattedAddress": ["Langenscheidtstr. 1", "10827 Berlin", "Deutschland"]}, "categories": [{"id": "4bf58dd8d48988d1ca941735", "name": "Pizza Place", "pluralName": "Pizza Places", "shortName": "Pizza", "icon": {"prefix": "https://ss3.4sqi.net/img/categories_v2/food/pizza_", "suffix": ".png"}, "primary": true}], "photos": {"count": 0, "groups": []}}, "referralId": "e-0-4b2947e0f964a520349c24e3-68"}, {"reasons": {"count": 0, "items": [{"summary": "This spot is popular", "type": "general", "reasonName": "globalInteractionReason"}]}, "venue": {"id": "56093b49498e07e163d273ec", "name": "Hotel Riu Plaza Berlin", "location": {"address": "Martin-Luther-Str. 1", "lat": 52.500397565451024, "lng": 13.346558670588513, "labeledLatLngs": [{"label": "display", "lat": 52.500397565451024, "lng": 13.346558670588513}], "distance": 762, "postalCode": "10777", "cc": "DE", "city": "Berlin Sch\u00f6neberg", "state": "Berlin", "country": "Deutschland", "formattedAddress": ["Martin-Luther-Str. 1", "10777 Sch\u00f6neberg", "Deutschland"]}, "categories": [{"id": "4bf58dd8d48988d1fa931735", "name": "Hotel", "pluralName": "Hotels", "shortName": "Hotel", "icon": {"prefix": "https://ss3.4sqi.net/img/categories_v2/travel/hotel_", "suffix": ".png"}, "primary": true}], "photos": {"count": 0, "groups": []}}, "referralId": "e-0-56093b49498e07e163d273ec-69"}, {"reasons": {"count": 0, "items": [{"summary": "This spot is popular", "type": "general", "reasonName": "globalInteractionReason"}]}, "venue": {"id": "4b1673f7f964a52043b923e3", "name": "Viktoria-Luise-Platz", "location": {"address": "Motzstr.", "crossStreet": "Winterfeldtstr.", "lat": 52.49576761702516, "lng": 13.34186553955078, "labeledLatLngs": [{"label": "display", "lat": 52.49576761702516, "lng": 13.34186553955078}], "distance": 875, "postalCode": "10777", "cc": "DE", "city": "Berlin", "state": "Berlin", "country": "Deutschland", "formattedAddress": ["Motzstr. (Winterfeldtstr.)", "10777 Berlin", "Deutschland"]}, "categories": [{"id": "4bf58dd8d48988d164941735", "name": "Plaza", "pluralName": "Plazas", "shortName": "Plaza", "icon": {"prefix": "https://ss3.4sqi.net/img/categories_v2/parks_outdoors/plaza_", "suffix": ".png"}, "primary": true}], "photos": {"count": 0, "groups": []}}, "referralId": "e-0-4b1673f7f964a52043b923e3-70"}, {"reasons": {"count": 0, "items": [{"summary": "This spot is popular", "type": "general", "reasonName": "globalInteractionReason"}]}, "venue": {"id": "4ea95b9e754ac4c16461b680", "name": "Pa\u015fam Baklava", "location": {"address": "Goebenstr. 12 a", "lat": 52.49331154263884, "lng": 13.365919589996338, "labeledLatLngs": [{"label": "display", "lat": 52.49331154263884, "lng": 13.365919589996338}], "distance": 801, "postalCode": "10783", "cc": "DE", "city": "Berlin", "state": "Berlin", "country": "Deutschland", "formattedAddress": ["Goebenstr. 12 a", "10783 Berlin", "Deutschland"]}, "categories": [{"id": "5744ccdfe4b0c0459246b4e2", "name": "Pastry Shop", "pluralName": "Pastry Shops", "shortName": "Pastry", "icon": {"prefix": "https://ss3.4sqi.net/img/categories_v2/food/dessert_", "suffix": ".png"}, "primary": true}], "photos": {"count": 0, "groups": []}}, "referralId": "e-0-4ea95b9e754ac4c16461b680-71"}, {"reasons": {"count": 0, "items": [{"summary": "This spot is popular", "type": "general", "reasonName": "globalInteractionReason"}]}, "venue": {"id": "53bd8735498e5114f5869e22", "name": "La Cantine d'Augusta", "location": {"address": "Langenscheidtstr. 6", "lat": 52.48912087563823, "lng": 13.362196683883667, "labeledLatLngs": [{"label": "display", "lat": 52.48912087563823, "lng": 13.362196683883667}], "distance": 890, "postalCode": "10827", "cc": "DE", "neighborhood": "Sch\u00f6neberg, Berlin", "city": "Berlin", "state": "Berlin", "country": "Deutschland", "formattedAddress": ["Langenscheidtstr. 6", "10827 Berlin", "Deutschland"]}, "categories": [{"id": "4bf58dd8d48988d10c941735", "name": "French Restaurant", "pluralName": "French Restaurants", "shortName": "French", "icon": {"prefix": "https://ss3.4sqi.net/img/categories_v2/food/french_", "suffix": ".png"}, "primary": true}], "photos": {"count": 0, "groups": []}}, "referralId": "e-0-53bd8735498e5114f5869e22-72"}, {"reasons": {"count": 0, "items": [{"summary": "This spot is popular", "type": "general", "reasonName": "globalInteractionReason"}]}, "venue": {"id": "4e7dd0109a5219ed3c233f00", "name": "Chay Village", "location": {"address": "Eisenacher Str. 40", "lat": 52.48970882661967, "lng": 13.349005528597717, "labeledLatLngs": [{"label": "display", "lat": 52.48970882661967, "lng": 13.349005528597717}], "distance": 775, "postalCode": "10781", "cc": "DE", "city": "Berlin", "state": "Berlin", "country": "Deutschland", "formattedAddress": ["Eisenacher Str. 40", "10781 Berlin", "Deutschland"]}, "categories": [{"id": "4bf58dd8d48988d14a941735", "name": "Vietnamese Restaurant", "pluralName": "Vietnamese Restaurants", "shortName": "Vietnamese", "icon": {"prefix": "https://ss3.4sqi.net/img/categories_v2/food/vietnamese_", "suffix": ".png"}, "primary": true}], "photos": {"count": 0, "groups": []}}, "referralId": "e-0-4e7dd0109a5219ed3c233f00-73"}, {"reasons": {"count": 0, "items": [{"summary": "This spot is popular", "type": "general", "reasonName": "globalInteractionReason"}]}, "venue": {"id": "4bf596c85e800f4722c7e5d4", "name": "Hotel Ambiente", "location": {"address": "Gossowstr. 11", "lat": 52.49652613889707, "lng": 13.348049375531724, "labeledLatLngs": [{"label": "display", "lat": 52.49652613889707, "lng": 13.348049375531724}], "distance": 464, "postalCode": "10777", "cc": "DE", "city": "Berlin", "state": "Berlin", "country": "Deutschland", "formattedAddress": ["Gossowstr. 11", "10777 Berlin", "Deutschland"]}, "categories": [{"id": "4bf58dd8d48988d1fa931735", "name": "Hotel", "pluralName": "Hotels", "shortName": "Hotel", "icon": {"prefix": "https://ss3.4sqi.net/img/categories_v2/travel/hotel_", "suffix": ".png"}, "primary": true}], "photos": {"count": 0, "groups": []}}, "referralId": "e-0-4bf596c85e800f4722c7e5d4-74"}, {"reasons": {"count": 0, "items": [{"summary": "This spot is popular", "type": "general", "reasonName": "globalInteractionReason"}]}, "venue": {"id": "4bc0c28ff8219c748f22b210", "name": "Osteria Ribaltone", "location": {"address": "Motzstr. 54", "lat": 52.49606142935771, "lng": 13.342587084654658, "labeledLatLngs": [{"label": "display", "lat": 52.49606142935771, "lng": 13.342587084654658}], "distance": 827, "postalCode": "10777", "cc": "DE", "city": "Berlin", "state": "Berlin", "country": "Deutschland", "formattedAddress": ["Motzstr. 54", "10777 Berlin", "Deutschland"]}, "categories": [{"id": "55a5a1ebe4b013909087cb7f", "name": "Trattoria/Osteria", "pluralName": "Trattorias/Osterias", "shortName": "Trattoria/Osteria", "icon": {"prefix": "https://ss3.4sqi.net/img/categories_v2/food/italian_", "suffix": ".png"}, "primary": true}], "photos": {"count": 0, "groups": []}}, "referralId": "e-0-4bc0c28ff8219c748f22b210-75"}, {"reasons": {"count": 0, "items": [{"summary": "This spot is popular", "type": "general", "reasonName": "globalInteractionReason"}]}, "venue": {"id": "54722f87498e3f6064d6d6cb", "name": "Olio Sale Pepe", "location": {"address": "Willmanndamm 15", "lat": 52.490228, "lng": 13.361858, "labeledLatLngs": [{"label": "display", "lat": 52.490228, "lng": 13.361858}], "distance": 777, "postalCode": "10827", "cc": "DE", "city": "Berlin", "state": "Berlin", "country": "Deutschland", "formattedAddress": ["Willmanndamm 15", "10827 Berlin", "Deutschland"]}, "categories": [{"id": "4bf58dd8d48988d1ca941735", "name": "Pizza Place", "pluralName": "Pizza Places", "shortName": "Pizza", "icon": {"prefix": "https://ss3.4sqi.net/img/categories_v2/food/pizza_", "suffix": ".png"}, "primary": true}], "photos": {"count": 0, "groups": []}, "venuePage": {"id": "560106648"}}, "referralId": "e-0-54722f87498e3f6064d6d6cb-76"}, {"reasons": {"count": 0, "items": [{"summary": "This spot is popular", "type": "general", "reasonName": "globalInteractionReason"}]}, "venue": {"id": "4b506d57f964a520fe2227e3", "name": "DoubleEye", "location": {"address": "Akazienstr. 22", "lat": 52.48799274353971, "lng": 13.354272878353157, "labeledLatLngs": [{"label": "display", "lat": 52.48799274353971, "lng": 13.354272878353157}], "distance": 861, "postalCode": "10823", "cc": "DE", "city": "Berlin", "state": "Berlin", "country": "Deutschland", "formattedAddress": ["Akazienstr. 22", "10823 Berlin", "Deutschland"]}, "categories": [{"id": "4bf58dd8d48988d1e0931735", "name": "Coffee Shop", "pluralName": "Coffee Shops", "shortName": "Coffee Shop", "icon": {"prefix": "https://ss3.4sqi.net/img/categories_v2/food/coffeeshop_", "suffix": ".png"}, "primary": true}], "photos": {"count": 0, "groups": []}}, "referralId": "e-0-4b506d57f964a520fe2227e3-77"}, {"reasons": {"count": 0, "items": [{"summary": "This spot is popular", "type": "general", "reasonName": "globalInteractionReason"}]}, "venue": {"id": "588cc52851666a083e4cb174", "name": "Caf\u00e9 Komine", "location": {"address": "Welserstr. 13-15", "crossStreet": "Geisbeegerstr.", "lat": 52.497845, "lng": 13.341739, "labeledLatLngs": [{"label": "display", "lat": 52.497845, "lng": 13.341739}], "distance": 914, "postalCode": "10777", "cc": "DE", "city": "Berlin", "state": "Berlin", "country": "Deutschland", "formattedAddress": ["Welserstr. 13-15 (Geisbeegerstr.)", "10777 Berlin", "Deutschland"]}, "categories": [{"id": "4bf58dd8d48988d16d941735", "name": "Caf\u00e9", "pluralName": "Caf\u00e9s", "shortName": "Caf\u00e9", "icon": {"prefix": "https://ss3.4sqi.net/img/categories_v2/food/cafe_", "suffix": ".png"}, "primary": true}], "photos": {"count": 0, "groups": []}}, "referralId": "e-0-588cc52851666a083e4cb174-78"}, {"reasons": {"count": 0, "items": [{"summary": "This spot is popular", "type": "general", "reasonName": "globalInteractionReason"}]}, "venue": {"id": "4d5313ea5bdbb1f7c9d14ae6", "name": "Elefant", "location": {"address": "Fuggerstr. 18", "lat": 52.498970367276925, "lng": 13.345397047554732, "labeledLatLngs": [{"label": "display", "lat": 52.498970367276925, "lng": 13.345397047554732}], "distance": 731, "postalCode": "10777", "cc": "DE", "city": "Berlin", "state": "Berlin", "country": "Deutschland", "formattedAddress": ["Fuggerstr. 18", "10777 Berlin", "Deutschland"]}, "categories": [{"id": "4bf58dd8d48988d10d941735", "name": "German Restaurant", "pluralName": "German Restaurants", "shortName": "German", "icon": {"prefix": "https://ss3.4sqi.net/img/categories_v2/food/german_", "suffix": ".png"}, "primary": true}], "photos": {"count": 0, "groups": []}}, "referralId": "e-0-4d5313ea5bdbb1f7c9d14ae6-79"}, {"reasons": {"count": 0, "items": [{"summary": "This spot is popular", "type": "general", "reasonName": "globalInteractionReason"}]}, "venue": {"id": "5052330de4b03eee837038c6", "name": "Sally Bowles", "location": {"address": "Eisennacher Str. 2", "lat": 52.49992080433875, "lng": 13.349601398452773, "labeledLatLngs": [{"label": "display", "lat": 52.49992080433875, "lng": 13.349601398452773}], "distance": 584, "postalCode": "10777", "cc": "DE", "city": "Berlin", "state": "Berlin", "country": "Deutschland", "formattedAddress": ["Eisennacher Str. 2", "10777 Berlin", "Deutschland"]}, "categories": [{"id": "4bf58dd8d48988d116941735", "name": "Bar", "pluralName": "Bars", "shortName": "Bar", "icon": {"prefix": "https://ss3.4sqi.net/img/categories_v2/nightlife/pub_", "suffix": ".png"}, "primary": true}], "photos": {"count": 0, "groups": []}}, "referralId": "e-0-5052330de4b03eee837038c6-80"}, {"reasons": {"count": 0, "items": [{"summary": "This spot is popular", "type": "general", "reasonName": "globalInteractionReason"}]}, "venue": {"id": "4ca48f371ee76dcbb39e02de", "name": "B\u00e4ckerei G\u00fcm\u00fc\u015f", "location": {"address": "Hauptstr. 148", "lat": 52.4887868757557, "lng": 13.358758925201903, "labeledLatLngs": [{"label": "display", "lat": 52.4887868757557, "lng": 13.358758925201903}], "distance": 818, "postalCode": "10827", "cc": "DE", "city": "Berlin", "state": "Berlin", "country": "Deutschland", "formattedAddress": ["Hauptstr. 148", "10827 Berlin", "Deutschland"]}, "categories": [{"id": "4bf58dd8d48988d16a941735", "name": "Bakery", "pluralName": "Bakeries", "shortName": "Bakery", "icon": {"prefix": "https://ss3.4sqi.net/img/categories_v2/food/bakery_", "suffix": ".png"}, "primary": true}], "photos": {"count": 0, "groups": []}}, "referralId": "e-0-4ca48f371ee76dcbb39e02de-81"}, {"reasons": {"count": 0, "items": [{"summary": "This spot is popular", "type": "general", "reasonName": "globalInteractionReason"}]}, "venue": {"id": "4c5d813785a1e21ecc815911", "name": "Barbarossaplatz", "location": {"address": "Barbarossaplatz", "lat": 52.4911126106411, "lng": 13.349196640375633, "labeledLatLngs": [{"label": "display", "lat": 52.4911126106411, "lng": 13.349196640375633}], "distance": 638, "postalCode": "10781", "cc": "DE", "city": "Berlin", "state": "Berlin", "country": "Deutschland", "formattedAddress": ["Barbarossaplatz", "10781 Berlin", "Deutschland"]}, "categories": [{"id": "4bf58dd8d48988d164941735", "name": "Plaza", "pluralName": "Plazas", "shortName": "Plaza", "icon": {"prefix": "https://ss3.4sqi.net/img/categories_v2/parks_outdoors/plaza_", "suffix": ".png"}, "primary": true}], "photos": {"count": 0, "groups": []}}, "referralId": "e-0-4c5d813785a1e21ecc815911-82"}, {"reasons": {"count": 0, "items": [{"summary": "This spot is popular", "type": "general", "reasonName": "globalInteractionReason"}]}, "venue": {"id": "4b7fe96af964a520e94330e3", "name": "PENNY", "location": {"address": "Winterfeldtstra\u00dfe 74", "lat": 52.496401372430526, "lng": 13.347772921842306, "labeledLatLngs": [{"label": "display", "lat": 52.496401372430526, "lng": 13.347772921842306}], "distance": 480, "postalCode": "10781", "cc": "DE", "city": "Berlin", "state": "Berlin", "country": "Deutschland", "formattedAddress": ["Winterfeldtstra\u00dfe 74", "10781 Berlin", "Deutschland"]}, "categories": [{"id": "52f2ab2ebcbc57f1066b8b46", "name": "Supermarket", "pluralName": "Supermarkets", "shortName": "Supermarket", "icon": {"prefix": "https://ss3.4sqi.net/img/categories_v2/shops/food_grocery_", "suffix": ".png"}, "primary": true}], "photos": {"count": 0, "groups": []}}, "referralId": "e-0-4b7fe96af964a520e94330e3-83"}, {"reasons": {"count": 0, "items": [{"summary": "This spot is popular", "type": "general", "reasonName": "globalInteractionReason"}]}, "venue": {"id": "5c533df49ba3e5002c3de99a", "name": "Mamas Banh", "location": {"address": "Grunewaldstra\u00dfe 81", "lat": 52.489864, "lng": 13.354447, "labeledLatLngs": [{"label": "display", "lat": 52.489864, "lng": 13.354447}], "distance": 653, "postalCode": "10823", "cc": "DE", "neighborhood": "Akazienkiez", "city": "Berlin", "state": "Berlin", "country": "Deutschland", "formattedAddress": ["Grunewaldstra\u00dfe 81", "10823 Berlin", "Deutschland"]}, "categories": [{"id": "4bf58dd8d48988d14a941735", "name": "Vietnamese Restaurant", "pluralName": "Vietnamese Restaurants", "shortName": "Vietnamese", "icon": {"prefix": "https://ss3.4sqi.net/img/categories_v2/food/vietnamese_", "suffix": ".png"}, "primary": true}], "photos": {"count": 0, "groups": []}}, "referralId": "e-0-5c533df49ba3e5002c3de99a-84"}, {"reasons": {"count": 0, "items": [{"summary": "This spot is popular", "type": "general", "reasonName": "globalInteractionReason"}]}, "venue": {"id": "506d72f2e4b0278c7a7d0a56", "name": "Rum Depot", "location": {"address": "Apostel-Paulus-Str. 35", "lat": 52.488404629546004, "lng": 13.350951077603579, "labeledLatLngs": [{"label": "display", "lat": 52.488404629546004, "lng": 13.350951077603579}], "distance": 855, "cc": "DE", "city": "Berlin", "state": "Berlin", "country": "Deutschland", "formattedAddress": ["Apostel-Paulus-Str. 35", "Berlin", "Deutschland"]}, "categories": [{"id": "4bf58dd8d48988d186941735", "name": "Liquor Store", "pluralName": "Liquor Stores", "shortName": "Liquor Store", "icon": {"prefix": "https://ss3.4sqi.net/img/categories_v2/shops/food_liquor_", "suffix": ".png"}, "primary": true}], "photos": {"count": 0, "groups": []}}, "referralId": "e-0-506d72f2e4b0278c7a7d0a56-85"}, {"reasons": {"count": 0, "items": [{"summary": "This spot is popular", "type": "general", "reasonName": "globalInteractionReason"}]}, "venue": {"id": "58433186126ae8746860a7fc", "name": "Sardinen.Bar", "location": {"address": "Grunewaldstr. 79", "lat": 52.489994, "lng": 13.354334, "labeledLatLngs": [{"label": "display", "lat": 52.489994, "lng": 13.354334}], "distance": 638, "postalCode": "10823", "cc": "DE", "city": "Berlin", "state": "Berlin", "country": "Deutschland", "formattedAddress": ["Grunewaldstr. 79", "10823 Berlin", "Deutschland"]}, "categories": [{"id": "4bf58dd8d48988d123941735", "name": "Wine Bar", "pluralName": "Wine Bars", "shortName": "Wine Bar", "icon": {"prefix": "https://ss3.4sqi.net/img/categories_v2/food/winery_", "suffix": ".png"}, "primary": true}], "photos": {"count": 0, "groups": []}}, "referralId": "e-0-58433186126ae8746860a7fc-86"}, {"reasons": {"count": 0, "items": [{"summary": "This spot is popular", "type": "general", "reasonName": "globalInteractionReason"}]}, "venue": {"id": "501e8eb2e4b0c118b5d3ee1e", "name": "Motzki", "location": {"address": "Motzstr. 22", "lat": 52.49804411674095, "lng": 13.348881646590455, "labeledLatLngs": [{"label": "display", "lat": 52.49804411674095, "lng": 13.348881646590455}], "distance": 475, "postalCode": "10777", "cc": "DE", "city": "Berlin", "state": "Berlin", "country": "Deutschland", "formattedAddress": ["Motzstr. 22", "10777 Berlin", "Deutschland"]}, "categories": [{"id": "4d954b0ea243a5684a65b473", "name": "Convenience Store", "pluralName": "Convenience Stores", "shortName": "Convenience Store", "icon": {"prefix": "https://ss3.4sqi.net/img/categories_v2/shops/conveniencestore_", "suffix": ".png"}, "primary": true}], "photos": {"count": 0, "groups": []}}, "referralId": "e-0-501e8eb2e4b0c118b5d3ee1e-87"}, {"reasons": {"count": 0, "items": [{"summary": "This spot is popular", "type": "general", "reasonName": "globalInteractionReason"}]}, "venue": {"id": "4bb23bc542959c74358e202c", "name": "Maultaschen Manufaktur", "location": {"address": "L\u00fctzowstr. 22", "crossStreet": "B\u00fclowstra\u00dfe", "lat": 52.493655466643645, "lng": 13.367467224597931, "labeledLatLngs": [{"label": "display", "lat": 52.493655466643645, "lng": 13.367467224597931}], "distance": 890, "postalCode": "10785", "cc": "DE", "city": "Berlin", "state": "Berlin", "country": "Deutschland", "formattedAddress": ["L\u00fctzowstr. 22 (B\u00fclowstra\u00dfe)", "10785 Berlin", "Deutschland"]}, "categories": [{"id": "4bf58dd8d48988d10d941735", "name": "German Restaurant", "pluralName": "German Restaurants", "shortName": "German", "icon": {"prefix": "https://ss3.4sqi.net/img/categories_v2/food/german_", "suffix": ".png"}, "primary": true}], "photos": {"count": 0, "groups": []}}, "referralId": "e-0-4bb23bc542959c74358e202c-88"}, {"reasons": {"count": 0, "items": [{"summary": "This spot is popular", "type": "general", "reasonName": "globalInteractionReason"}]}, "venue": {"id": "4e54f1b318a8071bc7f19bc1", "name": "Radieschen Bio Bistro", "location": {"address": "Pohlstr. 61", "lat": 52.500555, "lng": 13.364374, "labeledLatLngs": [{"label": "display", "lat": 52.500555, "lng": 13.364374}], "distance": 843, "postalCode": "10785", "cc": "DE", "city": "Berlin", "state": "Berlin", "country": "Deutschland", "formattedAddress": ["Pohlstr. 61", "10785 Berlin", "Deutschland"]}, "categories": [{"id": "4bf58dd8d48988d1d3941735", "name": "Vegetarian / Vegan Restaurant", "pluralName": "Vegetarian / Vegan Restaurants", "shortName": "Vegetarian / Vegan", "icon": {"prefix": "https://ss3.4sqi.net/img/categories_v2/food/vegetarian_", "suffix": ".png"}, "primary": true}], "photos": {"count": 0, "groups": []}}, "referralId": "e-0-4e54f1b318a8071bc7f19bc1-89"}, {"reasons": {"count": 0, "items": [{"summary": "This spot is popular", "type": "general", "reasonName": "globalInteractionReason"}]}, "venue": {"id": "4ecbb18e30f8ecd41024f80c", "name": "Espresso Bar", "location": {"address": "Keithstr. 5", "crossStreet": "Kleiststr.", "lat": 52.501828, "lng": 13.345861, "labeledLatLngs": [{"label": "display", "lat": 52.501828, "lng": 13.345861}], "distance": 909, "postalCode": "10787", "cc": "DE", "city": "Berlin", "state": "Berlin", "country": "Deutschland", "formattedAddress": ["Keithstr. 5 (Kleiststr.)", "10787 Berlin", "Deutschland"]}, "categories": [{"id": "4bf58dd8d48988d1e0931735", "name": "Coffee Shop", "pluralName": "Coffee Shops", "shortName": "Coffee Shop", "icon": {"prefix": "https://ss3.4sqi.net/img/categories_v2/food/coffeeshop_", "suffix": ".png"}, "primary": true}], "photos": {"count": 0, "groups": []}, "venuePage": {"id": "354656286"}}, "referralId": "e-0-4ecbb18e30f8ecd41024f80c-90"}, {"reasons": {"count": 0, "items": [{"summary": "This spot is popular", "type": "general", "reasonName": "globalInteractionReason"}]}, "venue": {"id": "532dcc05498e58f23b74a2ff", "name": "vanille & marille", "location": {"address": "Belziger Str. 24", "lat": 52.48715670610465, "lng": 13.353707622549834, "labeledLatLngs": [{"label": "display", "lat": 52.48715670610465, "lng": 13.353707622549834}], "distance": 956, "postalCode": "10823", "cc": "DE", "city": "Berlin", "state": "Berlin", "country": "Deutschland", "formattedAddress": ["Belziger Str. 24", "10823 Berlin", "Deutschland"]}, "categories": [{"id": "4bf58dd8d48988d1c9941735", "name": "Ice Cream Shop", "pluralName": "Ice Cream Shops", "shortName": "Ice Cream", "icon": {"prefix": "https://ss3.4sqi.net/img/categories_v2/food/icecream_", "suffix": ".png"}, "primary": true}], "photos": {"count": 0, "groups": []}}, "referralId": "e-0-532dcc05498e58f23b74a2ff-91"}, {"reasons": {"count": 0, "items": [{"summary": "This spot is popular", "type": "general", "reasonName": "globalInteractionReason"}]}, "venue": {"id": "4bad28e9f964a52003343be3", "name": "Blond Bar", "location": {"address": "Eisenacher Str. 3a", "crossStreet": "Fuggerstr.", "lat": 52.49939993139982, "lng": 13.34922414636672, "labeledLatLngs": [{"label": "display", "lat": 52.49939993139982, "lng": 13.34922414636672}], "distance": 555, "postalCode": "10777", "cc": "DE", "city": "Berlin", "state": "Berlin", "country": "Deutschland", "formattedAddress": ["Eisenacher Str. 3a (Fuggerstr.)", "10777 Berlin", "Deutschland"]}, "categories": [{"id": "4bf58dd8d48988d1d8941735", "name": "Gay Bar", "pluralName": "Gay Bars", "shortName": "Gay Bar", "icon": {"prefix": "https://ss3.4sqi.net/img/categories_v2/nightlife/gaybar_", "suffix": ".png"}, "primary": true}], "photos": {"count": 0, "groups": []}}, "referralId": "e-0-4bad28e9f964a52003343be3-92"}, {"reasons": {"count": 0, "items": [{"summary": "This spot is popular", "type": "general", "reasonName": "globalInteractionReason"}]}, "venue": {"id": "4bc61b12b387d13aeb4ec1e8", "name": "Sissi", "location": {"address": "Motzstr. 34", "lat": 52.49745511485559, "lng": 13.347006371766904, "labeledLatLngs": [{"label": "display", "lat": 52.49745511485559, "lng": 13.347006371766904}], "distance": 561, "postalCode": "10777", "cc": "DE", "city": "Berlin", "state": "Berlin", "country": "Deutschland", "formattedAddress": ["Motzstr. 34", "10777 Berlin", "Deutschland"]}, "categories": [{"id": "52e81612bcbc57f1066b7a01", "name": "Austrian Restaurant", "pluralName": "Austrian Restaurants", "shortName": "Austrian", "icon": {"prefix": "https://ss3.4sqi.net/img/categories_v2/food/austrian_", "suffix": ".png"}, "primary": true}], "photos": {"count": 0, "groups": []}}, "referralId": "e-0-4bc61b12b387d13aeb4ec1e8-93"}, {"reasons": {"count": 0, "items": [{"summary": "This spot is popular", "type": "general", "reasonName": "globalInteractionReason"}]}, "venue": {"id": "4adcda77f964a520024621e3", "name": "Gottlob", "location": {"address": "Akazienstr. 17", "lat": 52.489293253107576, "lng": 13.353526673712864, "labeledLatLngs": [{"label": "display", "lat": 52.489293253107576, "lng": 13.353526673712864}], "distance": 721, "postalCode": "10823", "cc": "DE", "city": "Berlin", "state": "Berlin", "country": "Deutschland", "formattedAddress": ["Akazienstr. 17", "10823 Berlin", "Deutschland"]}, "categories": [{"id": "4bf58dd8d48988d16d941735", "name": "Caf\u00e9", "pluralName": "Caf\u00e9s", "shortName": "Caf\u00e9", "icon": {"prefix": "https://ss3.4sqi.net/img/categories_v2/food/cafe_", "suffix": ".png"}, "primary": true}], "photos": {"count": 0, "groups": []}}, "referralId": "e-0-4adcda77f964a520024621e3-94"}, {"reasons": {"count": 0, "items": [{"summary": "This spot is popular", "type": "general", "reasonName": "globalInteractionReason"}]}, "venue": {"id": "4d444006e198721e0ea0b98b", "name": "ChiChiKan", "location": {"address": "Goltzstr. 52", "lat": 52.48982529890705, "lng": 13.353032923246406, "labeledLatLngs": [{"label": "display", "lat": 52.48982529890705, "lng": 13.353032923246406}], "distance": 667, "postalCode": "10781", "cc": "DE", "city": "Berlin", "state": "Berlin", "country": "Deutschland", "formattedAddress": ["Goltzstr. 52", "10781 Berlin", "Deutschland"]}, "categories": [{"id": "4bf58dd8d48988d145941735", "name": "Chinese Restaurant", "pluralName": "Chinese Restaurants", "shortName": "Chinese", "icon": {"prefix": "https://ss3.4sqi.net/img/categories_v2/food/asian_", "suffix": ".png"}, "primary": true}], "photos": {"count": 0, "groups": []}}, "referralId": "e-0-4d444006e198721e0ea0b98b-95"}, {"reasons": {"count": 0, "items": [{"summary": "This spot is popular", "type": "general", "reasonName": "globalInteractionReason"}]}, "venue": {"id": "4d5fb9a9ef378cfaa06c73a6", "name": "Aspendos", "location": {"address": "Hauptstr. 11", "lat": 52.488268760425214, "lng": 13.358248419990959, "labeledLatLngs": [{"label": "display", "lat": 52.488268760425214, "lng": 13.358248419990959}], "distance": 862, "postalCode": "10827", "cc": "DE", "city": "Berlin", "state": "Berlin", "country": "Deutschland", "formattedAddress": ["Hauptstr. 11", "10827 Berlin", "Deutschland"]}, "categories": [{"id": "4f04af1f2fb6e1c99f3db0bb", "name": "Turkish Restaurant", "pluralName": "Turkish Restaurants", "shortName": "Turkish", "icon": {"prefix": "https://ss3.4sqi.net/img/categories_v2/food/turkish_", "suffix": ".png"}, "primary": true}], "photos": {"count": 0, "groups": []}}, "referralId": "e-0-4d5fb9a9ef378cfaa06c73a6-96"}, {"reasons": {"count": 0, "items": [{"summary": "This spot is popular", "type": "general", "reasonName": "globalInteractionReason"}]}, "venue": {"id": "4eed15f9775b3c580d182959", "name": "Imren Grill & Restaurant", "location": {"address": "Hauptstr. 156", "lat": 52.489552923652155, "lng": 13.359472941413834, "labeledLatLngs": [{"label": "display", "lat": 52.489552923652155, "lng": 13.359472941413834}], "distance": 757, "postalCode": "10827", "cc": "DE", "neighborhood": "Gro\u00dfg\u00f6rschenstra\u00dfe", "city": "Berlin", "state": "Berlin", "country": "Deutschland", "formattedAddress": ["Hauptstr. 156", "10827 Berlin", "Deutschland"]}, "categories": [{"id": "4f04af1f2fb6e1c99f3db0bb", "name": "Turkish Restaurant", "pluralName": "Turkish Restaurants", "shortName": "Turkish", "icon": {"prefix": "https://ss3.4sqi.net/img/categories_v2/food/turkish_", "suffix": ".png"}, "primary": true}], "photos": {"count": 0, "groups": []}}, "referralId": "e-0-4eed15f9775b3c580d182959-97"}, {"reasons": {"count": 0, "items": [{"summary": "This spot is popular", "type": "general", "reasonName": "globalInteractionReason"}]}, "venue": {"id": "55105d21498e18dfe1916c11", "name": "Peque\u00f1a Habana", "location": {"address": "Eisenacher Stra\u00dfe 48", "lat": 52.48775, "lng": 13.349463, "labeledLatLngs": [{"label": "display", "lat": 52.48775, "lng": 13.349463}], "distance": 958, "cc": "DE", "city": "Berlin", "state": "Berlin", "country": "Deutschland", "formattedAddress": ["Eisenacher Stra\u00dfe 48", "Berlin", "Deutschland"]}, "categories": [{"id": "4bf58dd8d48988d144941735", "name": "Caribbean Restaurant", "pluralName": "Caribbean Restaurants", "shortName": "Caribbean", "icon": {"prefix": "https://ss3.4sqi.net/img/categories_v2/food/caribbean_", "suffix": ".png"}, "primary": true}], "photos": {"count": 0, "groups": []}}, "referralId": "e-0-55105d21498e18dfe1916c11-98"}, {"reasons": {"count": 0, "items": [{"summary": "This spot is popular", "type": "general", "reasonName": "globalInteractionReason"}]}, "venue": {"id": "4c667104e75ac928c186f7da", "name": "\u00d6z-Gida", "location": {"address": "Hauptstr. 16", "lat": 52.48735133428599, "lng": 13.357275993529056, "labeledLatLngs": [{"label": "display", "lat": 52.48735133428599, "lng": 13.357275993529056}], "distance": 947, "postalCode": "10827", "cc": "DE", "city": "Berlin", "state": "Berlin", "country": "Deutschland", "formattedAddress": ["Hauptstr. 16", "10827 Berlin", "Deutschland"]}, "categories": [{"id": "4bf58dd8d48988d118951735", "name": "Grocery Store", "pluralName": "Grocery Stores", "shortName": "Grocery Store", "icon": {"prefix": "https://ss3.4sqi.net/img/categories_v2/shops/food_grocery_", "suffix": ".png"}, "primary": true}], "photos": {"count": 0, "groups": []}}, "referralId": "e-0-4c667104e75ac928c186f7da-99"}]