[{"reasons": {"count": 0, "items": [{"summary": "This spot is popular", "type": "general", "reasonName": "globalInteractionReason"}]}, "venue": {"id": "5019097de4b00b74aae82f54", "name": "R\u00fcyam Gem\u00fcse Kebab", "location": {"address": "Hauptstr. 133", "lat": 52.48480747236112, "lng": 13.353681178205404, "labeledLatLngs": [{"label": "display", "lat": 52.48480747236112, "lng": 13.353681178205404}], "distance": 78, "postalCode": "10825", "cc": "DE", "city": "Berlin", "state": "Berlin", "country": "Deutschland", "formattedAddress": ["Hauptstr. 133", "10825 Berlin", "Deutschland"]}, "categories": [{"id": "5283c7b4e4b094cb91ec88d8", "name": "Doner Restaurant", "pluralName": "Doner Restaurants", "shortName": "Doner", "icon": {"prefix": "https://ss3.4sqi.net/img/categories_v2/food/turkish_", "suffix": ".png"}, "primary": true}], "photos": {"count": 0, "groups": []}, "venuePage": {"id": "419097349"}}, "referralId": "e-0-5019097de4b00b74aae82f54-0"}, {"reasons": {"count": 0, "items": [{"summary": "This spot is popular", "type": "general", "reasonName": "globalInteractionReason"}]}, "venue": {"id": "532dcc05498e58f23b74a2ff", "name": "vanille & marille", "location": {"address": "Belziger Str. 24", "lat": 52.48715670610465, "lng": 13.353707622549834, "labeledLatLngs": [{"label": "display", "lat": 52.48715670610465, "lng": 13.353707622549834}], "distance": 339, "postalCode": "10823", "cc": "DE", "city": "Berlin", "state": "Berlin", "country": "Deutschland", "formattedAddress": ["Belziger Str. 24", "10823 Berlin", "Deutschland"]}, "categories": [{"id": "4bf58dd8d48988d1c9941735", "name": "Ice Cream Shop", "pluralName": "Ice Cream Shops", "shortName": "Ice Cream", "icon": {"prefix": "https://ss3.4sqi.net/img/categories_v2/food/icecream_", "suffix": ".png"}, "primary": true}], "photos": {"count": 0, "groups": []}}, "referralId": "e-0-532dcc05498e58f23b74a2ff-1"}, {"reasons": {"count": 0, "items": [{"summary": "This spot is popular", "type": "general", "reasonName": "globalInteractionReason"}]}, "venue": {"id": "4c8209d951ada1cd8fad1810", "name": "Viani", "location": {"address": "Akazienstra\u00dfe 1", "crossStreet": "Hauptstr.", "lat": 52.486193398717965, "lng": 13.355951246951411, "labeledLatLngs": [{"label": "display", "lat": 52.486193398717965, "lng": 13.355951246951411}], "distance": 283, "postalCode": "10823", "cc": "DE", "neighborhood": "Sch\u00f6neberg, Berlin", "city": "Berlin", "state": "Berlin", "country": "Deutschland", "formattedAddress": ["Akazienstra\u00dfe 1 (Hauptstr.)", "10823 Berlin", "Deutschland"]}, "categories": [{"id": "4bf58dd8d48988d118951735", "name": "Grocery Store", "pluralName": "Grocery Stores", "shortName": "Grocery Store", "icon": {"prefix": "https://ss3.4sqi.net/img/categories_v2/shops/food_grocery_", "suffix": ".png"}, "primary": true}], "photos": {"count": 0, "groups": []}, "venuePage": {"id": "67656578"}}, "referralId": "e-0-4c8209d951ada1cd8fad1810-2"}, {"reasons": {"count": 0, "items": [{"summary": "This spot is popular", "type": "general", "reasonName": "globalInteractionReason"}]}, "venue": {"id": "59f57b0983e38013552c9492", "name": "Mana", "location": {"address": "Merseburger Stra\u00dfe 15", "crossStreet": "Merseburger Str.", "lat": 52.486961, "lng": 13.352332, "labeledLatLngs": [{"label": "display", "lat": 52.486961, "lng": 13.352332}], "distance": 327, "postalCode": "10823", "cc": "DE", "city": "Berlin", "state": "Berlin", "country": "Deutschland", "formattedAddress": ["Merseburger Stra\u00dfe 15 (Merseburger Str.)", "10823 Berlin", "Deutschland"]}, "categories": [{"id": "4bf58dd8d48988d1d3941735", "name": "Vegetarian / Vegan Restaurant", "pluralName": "Vegetarian / Vegan Restaurants", "shortName": "Vegetarian / Vegan", "icon": {"prefix": "https://ss3.4sqi.net/img/categories_v2/food/vegetarian_", "suffix": ".png"}, "primary": true}], "photos": {"count": 0, "groups": []}, "venuePage": {"id": "588088745"}}, "referralId": "e-0-59f57b0983e38013552c9492-3"}, {"reasons": {"count": 0, "items": [{"summary": "This spot is popular", "type": "general", "reasonName": "globalInteractionReason"}]}, "venue": {"id": "4b193681f964a5204ad923e3", "name": "Deko Behrendt", "location": {"address": "Hauptstr. 18", "lat": 52.486710304191085, "lng": 13.35696723635397, "labeledLatLngs": [{"label": "display", "lat": 52.486710304191085, "lng": 13.35696723635397}], "distance": 370, "postalCode": "10827", "cc": "DE", "city": "Berlin", "state": "Berlin", "country": "Deutschland", "formattedAddress": ["Hauptstr. 18", "10827 Berlin", "Deutschland"]}, "categories": [{"id": "52f2ab2ebcbc57f1066b8b17", "name": "Costume Shop", "pluralName": "Costume Shops", "shortName": "Costume Shop", "icon": {"prefix": "https://ss3.4sqi.net/img/categories_v2/shops/default_", "suffix": ".png"}, "primary": true}], "photos": {"count": 0, "groups": []}}, "referralId": "e-0-4b193681f964a5204ad923e3-4"}, {"reasons": {"count": 0, "items": [{"summary": "This spot is popular", "type": "general", "reasonName": "globalInteractionReason"}]}, "venue": {"id": "4b40b274f964a520feb925e3", "name": "I Due Emigranti", "location": {"address": "Belziger Str. 38", "lat": 52.48641481237747, "lng": 13.351501688194407, "labeledLatLngs": [{"label": "display", "lat": 52.48641481237747, "lng": 13.351501688194407}], "distance": 291, "postalCode": "10823", "cc": "DE", "city": "Berlin", "state": "Berlin", "country": "Deutschland", "formattedAddress": ["Belziger Str. 38", "10823 Berlin", "Deutschland"]}, "categories": [{"id": "4bf58dd8d48988d110941735", "name": "Italian Restaurant", "pluralName": "Italian Restaurants", "shortName": "Italian", "icon": {"prefix": "https://ss3.4sqi.net/img/categories_v2/food/italian_", "suffix": ".png"}, "primary": true}], "photos": {"count": 0, "groups": []}}, "referralId": "e-0-4b40b274f964a520feb925e3-5"}, {"reasons": {"count": 0, "items": [{"summary": "This spot is popular", "type": "general", "reasonName": "globalInteractionReason"}]}, "venue": {"id": "4dc2944fc65b4274e88c4193", "name": "Garda Pizza", "location": {"address": "Crellestr. 48", "lat": 52.48673851079661, "lng": 13.357867912867775, "labeledLatLngs": [{"label": "display", "lat": 52.48673851079661, "lng": 13.357867912867775}], "distance": 414, "postalCode": "10827", "cc": "DE", "city": "Berlin", "state": "Berlin", "country": "Deutschland", "formattedAddress": ["Crellestr. 48", "10827 Berlin", "Deutschland"]}, "categories": [{"id": "4bf58dd8d48988d1ca941735", "name": "Pizza Place", "pluralName": "Pizza Places", "shortName": "Pizza", "icon": {"prefix": "https://ss3.4sqi.net/img/categories_v2/food/pizza_", "suffix": ".png"}, "primary": true}], "photos": {"count": 0, "groups": []}}, "referralId": "e-0-4dc2944fc65b4274e88c4193-6"}, {"reasons": {"count": 0, "items": [{"summary": "This spot is popular", "type": "general", "reasonName": "globalInteractionReason"}]}, "venue": {"id": "4b506d57f964a520fe2227e3", "name": "DoubleEye", "location": {"address": "Akazienstr. 22", "lat": 52.48799274353971, "lng": 13.354272878353157, "labeledLatLngs": [{"label": "display", "lat": 52.48799274353971, "lng": 13.354272878353157}], "distance": 435, "postalCode": "10823", "cc": "DE", "city": "Berlin", "state": "Berlin", "country": "Deutschland", "formattedAddress": ["Akazienstr. 22", "10823 Berlin", "Deutschland"]}, "categories": [{"id": "4bf58dd8d48988d1e0931735", "name": "Coffee Shop", "pluralName": "Coffee Shops", "shortName": "Coffee Shop", "icon": {"prefix": "https://ss3.4sqi.net/img/categories_v2/food/coffeeshop_", "suffix": ".png"}, "primary": true}], "photos": {"count": 0, "groups": []}}, "referralId": "e-0-4b506d57f964a520fe2227e3-7"}, {"reasons": {"count": 0, "items": [{"summary": "This spot is popular", "type": "general", "reasonName": "globalInteractionReason"}]}, "venue": {"id": "5683abdb498e232d4975a6c2", "name": "FitX", "location": {"address": "Hauptstra\u00dfe 141", "lat": 52.4855976, "lng": 13.355686, "labeledLatLngs": [{"label": "display", "lat": 52.4855976, "lng": 13.355686}], "distance": 220, "postalCode": "10827", "cc": "DE", "city": "Berlin", "state": "Berlin", "country": "Deutschland", "formattedAddress": ["Hauptstra\u00dfe 141", "10827 Berlin", "Deutschland"]}, "categories": [{"id": "4bf58dd8d48988d175941735", "name": "Gym / Fitness Center", "pluralName": "Gyms or Fitness Centers", "shortName": "Gym / Fitness", "icon": {"prefix": "https://ss3.4sqi.net/img/categories_v2/building/gym_", "suffix": ".png"}, "primary": true}], "photos": {"count": 0, "groups": []}}, "referralId": "e-0-5683abdb498e232d4975a6c2-8"}, {"reasons": {"count": 0, "items": [{"summary": "This spot is popular", "type": "general", "reasonName": "globalInteractionReason"}]}, "venue": {"id": "4f9409fee4b0949d2146f5bc", "name": "To beef or not to beef", "location": {"address": "Akazienstr. 3", "lat": 52.48651743091039, "lng": 13.355705738067627, "labeledLatLngs": [{"label": "display", "lat": 52.48651743091039, "lng": 13.355705738067627}], "distance": 305, "postalCode": "10823", "cc": "DE", "city": "Berlin", "state": "Berlin", "country": "Deutschland", "formattedAddress": ["Akazienstr. 3", "10823 Berlin", "Deutschland"]}, "categories": [{"id": "4bf58dd8d48988d1cc941735", "name": "Steakhouse", "pluralName": "Steakhouses", "shortName": "Steakhouse", "icon": {"prefix": "https://ss3.4sqi.net/img/categories_v2/food/steakhouse_", "suffix": ".png"}, "primary": true}], "photos": {"count": 0, "groups": []}}, "referralId": "e-0-4f9409fee4b0949d2146f5bc-9"}, {"reasons": {"count": 0, "items": [{"summary": "This spot is popular", "type": "general", "reasonName": "globalInteractionReason"}]}, "venue": {"id": "580c8f7138fac6ce8121fa9e", "name": "Hope Superfood Deli", "location": {"address": "Akazienstr. 28", "lat": 52.4867403226751, "lng": 13.355223246054647, "labeledLatLngs": [{"label": "display", "lat": 52.4867403226751, "lng": 13.355223246054647}], "distance": 314, "postalCode": "10823", "cc": "DE", "city": "Berlin", "state": "Berlin", "country": "Deutschland", "formattedAddress": ["Akazienstr. 28", "10823 Berlin", "Deutschland"]}, "categories": [{"id": "52e81612bcbc57f1066b79f1", "name": "Bistro", "pluralName": "Bistros", "shortName": "Bistro", "icon": {"prefix": "https://ss3.4sqi.net/img/categories_v2/food/default_", "suffix": ".png"}, "primary": true}], "photos": {"count": 0, "groups": []}}, "referralId": "e-0-580c8f7138fac6ce8121fa9e-10"}, {"reasons": {"count": 0, "items": [{"summary": "This spot is popular", "type": "general", "reasonName": "globalInteractionReason"}]}, "venue": {"id": "579b7d3b498ea8f02d59f2f3", "name": "Caf\u00e9 de Enrico", "location": {"address": "Fritz-Reuter-Stra\u00dfe 13", "crossStreet": "Gustav-Muller-Stra\u00dfe", "lat": 52.481013876466925, "lng": 13.349787701000947, "labeledLatLngs": [{"label": "display", "lat": 52.481013876466925, "lng": 13.349787701000947}], "distance": 428, "postalCode": "10827", "cc": "DE", "city": "Berlin", "state": "Berlin", "country": "Deutschland", "formattedAddress": ["Fritz-Reuter-Stra\u00dfe 13 (Gustav-Muller-Stra\u00dfe)", "10827 Berlin", "Deutschland"]}, "categories": [{"id": "4bf58dd8d48988d16d941735", "name": "Caf\u00e9", "pluralName": "Caf\u00e9s", "shortName": "Caf\u00e9", "icon": {"prefix": "https://ss3.4sqi.net/img/categories_v2/food/cafe_", "suffix": ".png"}, "primary": true}], "photos": {"count": 0, "groups": []}}, "referralId": "e-0-579b7d3b498ea8f02d59f2f3-11"}, {"reasons": {"count": 0, "items": [{"summary": "This spot is popular", "type": "general", "reasonName": "globalInteractionReason"}]}, "venue": {"id": "4c667104e75ac928c186f7da", "name": "\u00d6z-Gida", "location": {"address": "Hauptstr. 16", "lat": 52.48735133428599, "lng": 13.357275993529056, "labeledLatLngs": [{"label": "display", "lat": 52.48735133428599, "lng": 13.357275993529056}], "distance": 440, "postalCode": "10827", "cc": "DE", "city": "Berlin", "state": "Berlin", "country": "Deutschland", "formattedAddress": ["Hauptstr. 16", "10827 Berlin", "Deutschland"]}, "categories": [{"id": "4bf58dd8d48988d118951735", "name": "Grocery Store", "pluralName": "Grocery Stores", "shortName": "Grocery Store", "icon": {"prefix": "https://ss3.4sqi.net/img/categories_v2/shops/food_grocery_", "suffix": ".png"}, "primary": true}], "photos": {"count": 0, "groups": []}}, "referralId": "e-0-4c667104e75ac928c186f7da-12"}, {"reasons": {"count": 0, "items": [{"summary": "This spot is popular", "type": "general", "reasonName": "globalInteractionReason"}]}, "venue": {"id": "4d5673a7611aa35d45204139", "name": "Gasometer", "location": {"address": "Torgauer Str. 12-15", "lat": 52.48265904762961, "lng": 13.35960624726842, "labeledLatLngs": [{"label": "display", "lat": 52.48265904762961, "lng": 13.35960624726842}], "distance": 441, "postalCode": "10829", "cc": "DE", "city": "Berlin", "state": "Berlin", "country": "Deutschland", "formattedAddress": ["Torgauer Str. 12-15", "10829 Berlin", "Deutschland"]}, "categories": [{"id": "4bf58dd8d48988d171941735", "name": "Event Space", "pluralName": "Event Spaces", "shortName": "Event Space", "icon": {"prefix": "https://ss3.4sqi.net/img/categories_v2/building/eventspace_", "suffix": ".png"}, "primary": true}], "photos": {"count": 0, "groups": []}}, "referralId": "e-0-4d5673a7611aa35d45204139-13"}, {"reasons": {"count": 0, "items": [{"summary": "This spot is popular", "type": "general", "reasonName": "globalInteractionReason"}]}, "venue": {"id": "4f23c562e4b0b653a2dbac8a", "name": "Mehlst\u00fcbchen", "location": {"address": "Leberstr. 28", "lat": 52.483855, "lng": 13.361253, "labeledLatLngs": [{"label": "display", "lat": 52.483855, "lng": 13.361253}], "distance": 523, "postalCode": "10829", "cc": "DE", "city": "Berlin", "state": "Berlin", "country": "Deutschland", "formattedAddress": ["Leberstr. 28", "10829 Berlin", "Deutschland"]}, "categories": [{"id": "4bf58dd8d48988d16a941735", "name": "Bakery", "pluralName": "Bakeries", "shortName": "Bakery", "icon": {"prefix": "https://ss3.4sqi.net/img/categories_v2/food/bakery_", "suffix": ".png"}, "primary": true}], "photos": {"count": 0, "groups": []}}, "referralId": "e-0-4f23c562e4b0b653a2dbac8a-14"}, {"reasons": {"count": 0, "items": [{"summary": "This spot is popular", "type": "general", "reasonName": "globalInteractionReason"}]}, "venue": {"id": "55105d21498e18dfe1916c11", "name": "Peque\u00f1a Habana", "location": {"address": "Eisenacher Stra\u00dfe 48", "lat": 52.48775, "lng": 13.349463, "labeledLatLngs": [{"label": "display", "lat": 52.48775, "lng": 13.349463}], "distance": 490, "cc": "DE", "city": "Berlin", "state": "Berlin", "country": "Deutschland", "formattedAddress": ["Eisenacher Stra\u00dfe 48", "Berlin", "Deutschland"]}, "categories": [{"id": "4bf58dd8d48988d144941735", "name": "Caribbean Restaurant", "pluralName": "Caribbean Restaurants", "shortName": "Caribbean", "icon": {"prefix": "https://ss3.4sqi.net/img/categories_v2/food/caribbean_", "suffix": ".png"}, "primary": true}], "photos": {"count": 0, "groups": []}}, "referralId": "e-0-55105d21498e18dfe1916c11-15"}, {"reasons": {"count": 0, "items": [{"summary": "This spot is popular", "type": "general", "reasonName": "globalInteractionReason"}]}, "venue": {"id": "4adcda88f964a5208c4921e3", "name": "Odeon", "location": {"address": "Hauptstr. 116", "lat": 52.48208572810069, "lng": 13.349482915306812, "labeledLatLngs": [{"label": "display", "lat": 52.48208572810069, "lng": 13.349482915306812}], "distance": 355, "postalCode": "10827", "cc": "DE", "city": "Berlin", "state": "Berlin", "country": "Deutschland", "formattedAddress": ["Hauptstr. 116", "10827 Berlin", "Deutschland"]}, "categories": [{"id": "4bf58dd8d48988d17e941735", "name": "Indie Movie Theater", "pluralName": "Indie Movie Theaters", "shortName": "Indie Movies", "icon": {"prefix": "https://ss3.4sqi.net/img/categories_v2/arts_entertainment/movietheater_", "suffix": ".png"}, "primary": true}], "photos": {"count": 0, "groups": []}}, "referralId": "e-0-4adcda88f964a5208c4921e3-16"}, {"reasons": {"count": 0, "items": [{"summary": "This spot is popular", "type": "general", "reasonName": "globalInteractionReason"}]}, "venue": {"id": "4b4ca8bbf964a5204ab926e3", "name": "Renger-Patzsch", "location": {"address": "Wartburgstr. 54", "crossStreet": "Merseburgerstrasse", "lat": 52.48756529050154, "lng": 13.352249667871849, "labeledLatLngs": [{"label": "display", "lat": 52.48756529050154, "lng": 13.352249667871849}], "distance": 394, "postalCode": "10823", "cc": "DE", "neighborhood": "Akazienkiez", "city": "Berlin", "state": "Berlin", "country": "Deutschland", "formattedAddress": ["Wartburgstr. 54 (Merseburgerstrasse)", "10823 Berlin", "Deutschland"]}, "categories": [{"id": "4bf58dd8d48988d10c941735", "name": "French Restaurant", "pluralName": "French Restaurants", "shortName": "French", "icon": {"prefix": "https://ss3.4sqi.net/img/categories_v2/food/french_", "suffix": ".png"}, "primary": true}], "photos": {"count": 0, "groups": []}}, "referralId": "e-0-4b4ca8bbf964a5204ab926e3-17"}, {"reasons": {"count": 0, "items": [{"summary": "This spot is popular", "type": "general", "reasonName": "globalInteractionReason"}]}, "venue": {"id": "4c7cf8289efda143970f87e2", "name": "D'Angelo", "location": {"address": "Kolonnenstra\u00dfe 4", "lat": 52.48643568280686, "lng": 13.359369855164443, "labeledLatLngs": [{"label": "display", "lat": 52.48643568280686, "lng": 13.359369855164443}], "distance": 472, "postalCode": "10827", "cc": "DE", "city": "Berlin", "state": "Berlin", "country": "Deutschland", "formattedAddress": ["Kolonnenstra\u00dfe 4", "10827 Berlin", "Deutschland"]}, "categories": [{"id": "4bf58dd8d48988d110941735", "name": "Italian Restaurant", "pluralName": "Italian Restaurants", "shortName": "Italian", "icon": {"prefix": "https://ss3.4sqi.net/img/categories_v2/food/italian_", "suffix": ".png"}, "primary": true}], "photos": {"count": 0, "groups": []}}, "referralId": "e-0-4c7cf8289efda143970f87e2-18"}, {"reasons": {"count": 0, "items": [{"summary": "This spot is popular", "type": "general", "reasonName": "globalInteractionReason"}]}, "venue": {"id": "4b6074b7f964a52000e729e3", "name": "Felsenkeller", "location": {"address": "Akazienstr. 2", "crossStreet": "Hauptstr.", "lat": 52.486571, "lng": 13.355757, "labeledLatLngs": [{"label": "display", "lat": 52.486571, "lng": 13.355757}], "distance": 312, "postalCode": "10827", "cc": "DE", "city": "Berlin", "state": "Berlin", "country": "Deutschland", "formattedAddress": ["Akazienstr. 2 (Hauptstr.)", "10827 Berlin", "Deutschland"]}, "categories": [{"id": "4bf58dd8d48988d11b941735", "name": "Pub", "pluralName": "Pubs", "shortName": "Pub", "icon": {"prefix": "https://ss3.4sqi.net/img/categories_v2/nightlife/pub_", "suffix": ".png"}, "primary": true}], "photos": {"count": 0, "groups": []}}, "referralId": "e-0-4b6074b7f964a52000e729e3-19"}, {"reasons": {"count": 0, "items": [{"summary": "This spot is popular", "type": "general", "reasonName": "globalInteractionReason"}]}, "venue": {"id": "506d72f2e4b0278c7a7d0a56", "name": "Rum Depot", "location": {"address": "Apostel-Paulus-Str. 35", "lat": 52.488404629546004, "lng": 13.350951077603579, "labeledLatLngs": [{"label": "display", "lat": 52.488404629546004, "lng": 13.350951077603579}], "distance": 509, "cc": "DE", "city": "Berlin", "state": "Berlin", "country": "Deutschland", "formattedAddress": ["Apostel-Paulus-Str. 35", "Berlin", "Deutschland"]}, "categories": [{"id": "4bf58dd8d48988d186941735", "name": "Liquor Store", "pluralName": "Liquor Stores", "shortName": "Liquor Store", "icon": {"prefix": "https://ss3.4sqi.net/img/categories_v2/shops/food_liquor_", "suffix": ".png"}, "primary": true}], "photos": {"count": 0, "groups": []}}, "referralId": "e-0-506d72f2e4b0278c7a7d0a56-20"}, {"reasons": {"count": 0, "items": [{"summary": "This spot is popular", "type": "general", "reasonName": "globalInteractionReason"}]}, "venue": {"id": "517274f6e4b0480d29570b70", "name": "Dodo Beach Record Store", "location": {"address": "Vorbergstr. 8", "crossStreet": "Gleditschstr.", "lat": 52.48930706339677, "lng": 13.35537314414978, "labeledLatLngs": [{"label": "display", "lat": 52.48930706339677, "lng": 13.35537314414978}], "distance": 591, "postalCode": "10823", "cc": "DE", "city": "Berlin", "state": "Berlin", "country": "Deutschland", "formattedAddress": ["Vorbergstr. 8 (Gleditschstr.)", "10823 Berlin", "Deutschland"]}, "categories": [{"id": "4bf58dd8d48988d10d951735", "name": "Record Shop", "pluralName": "Record Shops", "shortName": "Record Shop", "icon": {"prefix": "https://ss3.4sqi.net/img/categories_v2/shops/record_shop_", "suffix": ".png"}, "primary": true}], "photos": {"count": 0, "groups": []}}, "referralId": "e-0-517274f6e4b0480d29570b70-21"}, {"reasons": {"count": 0, "items": [{"summary": "This spot is popular", "type": "general", "reasonName": "globalInteractionReason"}]}, "venue": {"id": "4d9a9d1673df8cfa5495e3ec", "name": "Mokalola", "location": {"address": "Leberstr. 21", "lat": 52.48432707145924, "lng": 13.361495269419237, "labeledLatLngs": [{"label": "display", "lat": 52.48432707145924, "lng": 13.361495269419237}], "distance": 539, "postalCode": "10829", "cc": "DE", "city": "Berlin", "state": "Berlin", "country": "Deutschland", "formattedAddress": ["Leberstr. 21", "10829 Berlin", "Deutschland"]}, "categories": [{"id": "4bf58dd8d48988d16d941735", "name": "Caf\u00e9", "pluralName": "Caf\u00e9s", "shortName": "Caf\u00e9", "icon": {"prefix": "https://ss3.4sqi.net/img/categories_v2/food/cafe_", "suffix": ".png"}, "primary": true}], "photos": {"count": 0, "groups": []}}, "referralId": "e-0-4d9a9d1673df8cfa5495e3ec-22"}, {"reasons": {"count": 0, "items": [{"summary": "This spot is popular", "type": "general", "reasonName": "globalInteractionReason"}]}, "venue": {"id": "565efdcb498e8a489cb29d35", "name": "Kleine Fabriek", "location": {"address": "Gotenstr. 64", "crossStreet": "Leuthener Str.", "lat": 52.481447294564596, "lng": 13.36037278175354, "labeledLatLngs": [{"label": "display", "lat": 52.481447294564596, "lng": 13.36037278175354}], "distance": 549, "postalCode": "10829", "cc": "DE", "city": "Berlin", "state": "Berlin", "country": "Deutschland", "formattedAddress": ["Gotenstr. 64 (Leuthener Str.)", "10829 Berlin", "Deutschland"]}, "categories": [{"id": "52f2ab2ebcbc57f1066b8b32", "name": "Baby Store", "pluralName": "Baby Stores", "shortName": "Baby Store", "icon": {"prefix": "https://ss3.4sqi.net/img/categories_v2/shops/apparel_kids_", "suffix": ".png"}, "primary": true}], "photos": {"count": 0, "groups": []}}, "referralId": "e-0-565efdcb498e8a489cb29d35-23"}, {"reasons": {"count": 0, "items": [{"summary": "This spot is popular", "type": "general", "reasonName": "globalInteractionReason"}]}, "venue": {"id": "4fec410de4b066f502bdd50b", "name": "Caf\u00e9 Taubenschlag", "location": {"address": "Leberstr. 1-3", "lat": 52.485466, "lng": 13.361648, "labeledLatLngs": [{"label": "display", "lat": 52.485466, "lng": 13.361648}], "distance": 569, "postalCode": "10829", "cc": "DE", "city": "Berlin", "state": "Berlin", "country": "Deutschland", "formattedAddress": ["Leberstr. 1-3", "10829 Berlin", "Deutschland"]}, "categories": [{"id": "4bf58dd8d48988d16d941735", "name": "Caf\u00e9", "pluralName": "Caf\u00e9s", "shortName": "Caf\u00e9", "icon": {"prefix": "https://ss3.4sqi.net/img/categories_v2/food/cafe_", "suffix": ".png"}, "primary": true}], "photos": {"count": 0, "groups": []}}, "referralId": "e-0-4fec410de4b066f502bdd50b-24"}, {"reasons": {"count": 0, "items": [{"summary": "This spot is popular", "type": "general", "reasonName": "globalInteractionReason"}]}, "venue": {"id": "4b7848c0f964a52022c22ee3", "name": "La Cocotte", "location": {"address": "Vorbergstr. 10", "lat": 52.48926196483406, "lng": 13.354167734454572, "labeledLatLngs": [{"label": "display", "lat": 52.48926196483406, "lng": 13.354167734454572}], "distance": 575, "postalCode": "10823", "cc": "DE", "city": "Berlin", "state": "Berlin", "country": "Deutschland", "formattedAddress": ["Vorbergstr. 10", "10823 Berlin", "Deutschland"]}, "categories": [{"id": "4bf58dd8d48988d10c941735", "name": "French Restaurant", "pluralName": "French Restaurants", "shortName": "French", "icon": {"prefix": "https://ss3.4sqi.net/img/categories_v2/food/french_", "suffix": ".png"}, "primary": true}], "photos": {"count": 0, "groups": []}}, "referralId": "e-0-4b7848c0f964a52022c22ee3-25"}, {"reasons": {"count": 0, "items": [{"summary": "This spot is popular", "type": "general", "reasonName": "globalInteractionReason"}]}, "venue": {"id": "53ab1d4b498e49b7c80b1cfd", "name": "WaWa", "location": {"address": "Grunewaldstr. 10", "lat": 52.490160741078945, "lng": 13.355638682768033, "labeledLatLngs": [{"label": "display", "lat": 52.490160741078945, "lng": 13.355638682768033}], "distance": 688, "postalCode": "10823", "cc": "DE", "city": "Berlin", "state": "Berlin", "country": "Deutschland", "formattedAddress": ["Grunewaldstr. 10", "10823 Berlin", "Deutschland"]}, "categories": [{"id": "4bf58dd8d48988d113941735", "name": "Korean Restaurant", "pluralName": "Korean Restaurants", "shortName": "Korean", "icon": {"prefix": "https://ss3.4sqi.net/img/categories_v2/food/korean_", "suffix": ".png"}, "primary": true}], "photos": {"count": 0, "groups": []}}, "referralId": "e-0-53ab1d4b498e49b7c80b1cfd-26"}, {"reasons": {"count": 0, "items": [{"summary": "This spot is popular", "type": "general", "reasonName": "globalInteractionReason"}]}, "venue": {"id": "589dc9c4f16bb565080bcfdb", "name": "Osbili", "location": {"address": "Gustav-Freytag-Str. 5", "crossStreet": "Ebersstr.", "lat": 52.479532, "lng": 13.349973, "labeledLatLngs": [{"label": "display", "lat": 52.479532, "lng": 13.349973}], "distance": 564, "postalCode": "10827", "cc": "DE", "city": "Berlin", "state": "Berlin", "country": "Deutschland", "formattedAddress": ["Gustav-Freytag-Str. 5 (Ebersstr.)", "10827 Berlin", "Deutschland"]}, "categories": [{"id": "52e81612bcbc57f1066b79f1", "name": "Bistro", "pluralName": "Bistros", "shortName": "Bistro", "icon": {"prefix": "https://ss3.4sqi.net/img/categories_v2/food/default_", "suffix": ".png"}, "primary": true}], "photos": {"count": 0, "groups": []}}, "referralId": "e-0-589dc9c4f16bb565080bcfdb-27"}, {"reasons": {"count": 0, "items": [{"summary": "This spot is popular", "type": "general", "reasonName": "globalInteractionReason"}]}, "venue": {"id": "4e468faf62845e1d3c929e43", "name": "EDEKA Siegler", "location": {"address": "Kaiser-Wilhelm-Platz 1-2", "lat": 52.485690227097294, "lng": 13.357351831225914, "labeledLatLngs": [{"label": "display", "lat": 52.485690227097294, "lng": 13.357351831225914}], "distance": 312, "postalCode": "10827", "cc": "DE", "city": "Berlin", "state": "Berlin", "country": "Deutschland", "formattedAddress": ["Kaiser-Wilhelm-Platz 1-2", "10827 Berlin", "Deutschland"]}, "categories": [{"id": "52f2ab2ebcbc57f1066b8b46", "name": "Supermarket", "pluralName": "Supermarkets", "shortName": "Supermarket", "icon": {"prefix": "https://ss3.4sqi.net/img/categories_v2/shops/food_grocery_", "suffix": ".png"}, "primary": true}], "photos": {"count": 0, "groups": []}}, "referralId": "e-0-4e468faf62845e1d3c929e43-28"}, {"reasons": {"count": 0, "items": [{"summary": "This spot is popular", "type": "general", "reasonName": "globalInteractionReason"}]}, "venue": {"id": "4d5fb9a9ef378cfaa06c73a6", "name": "Aspendos", "location": {"address": "Hauptstr. 11", "lat": 52.488268760425214, "lng": 13.358248419990959, "labeledLatLngs": [{"label": "display", "lat": 52.488268760425214, "lng": 13.358248419990959}], "distance": 562, "postalCode": "10827", "cc": "DE", "city": "Berlin", "state": "Berlin", "country": "Deutschland", "formattedAddress": ["Hauptstr. 11", "10827 Berlin", "Deutschland"]}, "categories": [{"id": "4f04af1f2fb6e1c99f3db0bb", "name": "Turkish Restaurant", "pluralName": "Turkish Restaurants", "shortName": "Turkish", "icon": {"prefix": "https://ss3.4sqi.net/img/categories_v2/food/turkish_", "suffix": ".png"}, "primary": true}], "photos": {"count": 0, "groups": []}}, "referralId": "e-0-4d5fb9a9ef378cfaa06c73a6-29"}, {"reasons": {"count": 0, "items": [{"summary": "This spot is popular", "type": "general", "reasonName": "globalInteractionReason"}]}, "venue": {"id": "4c01315794c1c9b634daba5f", "name": "Brunnen Goldener Hirsch", "location": {"address": "Martin-Luther-Str.", "lat": 52.48335519794925, "lng": 13.344000577926636, "labeledLatLngs": [{"label": "display", "lat": 52.48335519794925, "lng": 13.344000577926636}], "distance": 652, "postalCode": "10825", "cc": "DE", "city": "Berlin", "state": "Berlin", "country": "Deutschland", "formattedAddress": ["Martin-Luther-Str.", "10825 Berlin", "Deutschland"]}, "categories": [{"id": "56aa371be4b08b9a8d573547", "name": "Fountain", "pluralName": "Fountains", "shortName": "Fountain", "icon": {"prefix": "https://ss3.4sqi.net/img/categories_v2/parks_outdoors/plaza_", "suffix": ".png"}, "primary": true}], "photos": {"count": 0, "groups": []}}, "referralId": "e-0-4c01315794c1c9b634daba5f-30"}, {"reasons": {"count": 0, "items": [{"summary": "This spot is popular", "type": "general", "reasonName": "globalInteractionReason"}]}, "venue": {"id": "4adcda76f964a520d64521e3", "name": "Tee Tea Th\u00e9", "location": {"address": "Goltzstr. 2", "lat": 52.490227288565116, "lng": 13.353177985495995, "labeledLatLngs": [{"label": "display", "lat": 52.490227288565116, "lng": 13.353177985495995}], "distance": 681, "postalCode": "10781", "cc": "DE", "city": "Berlin", "state": "Berlin", "country": "Deutschland", "formattedAddress": ["Goltzstr. 2", "10781 Berlin", "Deutschland"]}, "categories": [{"id": "4bf58dd8d48988d1dc931735", "name": "Tea Room", "pluralName": "Tea Rooms", "shortName": "Tea Room", "icon": {"prefix": "https://ss3.4sqi.net/img/categories_v2/food/tearoom_", "suffix": ".png"}, "primary": true}], "photos": {"count": 0, "groups": []}}, "referralId": "e-0-4adcda76f964a520d64521e3-31"}, {"reasons": {"count": 0, "items": [{"summary": "This spot is popular", "type": "general", "reasonName": "globalInteractionReason"}]}, "venue": {"id": "5747fc35cd109632d5128df6", "name": "Jones Ice Cream", "location": {"address": "Goltzstr. 3", "lat": 52.490548, "lng": 13.353473, "labeledLatLngs": [{"label": "display", "lat": 52.490548, "lng": 13.353473}], "distance": 716, "postalCode": "10781", "cc": "DE", "city": "Berlin", "state": "Berlin", "country": "Deutschland", "formattedAddress": ["Goltzstr. 3", "10781 Berlin", "Deutschland"]}, "categories": [{"id": "4bf58dd8d48988d1c9941735", "name": "Ice Cream Shop", "pluralName": "Ice Cream Shops", "shortName": "Ice Cream", "icon": {"prefix": "https://ss3.4sqi.net/img/categories_v2/food/icecream_", "suffix": ".png"}, "primary": true}], "photos": {"count": 0, "groups": []}, "venuePage": {"id": "423518382"}}, "referralId": "e-0-5747fc35cd109632d5128df6-32"}, {"reasons": {"count": 0, "items": [{"summary": "This spot is popular", "type": "general", "reasonName": "globalInteractionReason"}]}, "venue": {"id": "58addab2561ded1ef9db0bb1", "name": "Sahara Sudanesische Spezialit\u00e4ten", "location": {"address": "Ebersstr. 74", "lat": 52.479845, "lng": 13.35181, "labeledLatLngs": [{"label": "display", "lat": 52.479845, "lng": 13.35181}], "distance": 489, "postalCode": "10827", "cc": "DE", "city": "Berlin", "state": "Berlin", "country": "Deutschland", "formattedAddress": ["Ebersstr. 74", "10827 Sch\u00f6neberg", "Deutschland"]}, "categories": [{"id": "4bf58dd8d48988d1c8941735", "name": "African Restaurant", "pluralName": "African Restaurants", "shortName": "African", "icon": {"prefix": "https://ss3.4sqi.net/img/categories_v2/food/african_", "suffix": ".png"}, "primary": true}], "photos": {"count": 0, "groups": []}}, "referralId": "e-0-58addab2561ded1ef9db0bb1-33"}, {"reasons": {"count": 0, "items": [{"summary": "This spot is popular", "type": "general", "reasonName": "globalInteractionReason"}]}, "venue": {"id": "4b965e14f964a52063c834e3", "name": "dm-drogerie markt", "location": {"address": "Hauptstra\u00dfe 141-144", "lat": 52.4856464, "lng": 13.3557823, "labeledLatLngs": [{"label": "display", "lat": 52.4856464, "lng": 13.3557823}], "distance": 228, "postalCode": "10827", "cc": "DE", "city": "Berlin", "state": "Berlin", "country": "Deutschland", "formattedAddress": ["Hauptstra\u00dfe 141-144", "10827 Berlin", "Deutschland"]}, "categories": [{"id": "5745c2e4498e11e7bccabdbd", "name": "Drugstore", "pluralName": "Drugstores", "shortName": "Drugstore", "icon": {"prefix": "https://ss3.4sqi.net/img/categories_v2/shops/pharmacy_", "suffix": ".png"}, "primary": true}], "photos": {"count": 0, "groups": []}, "venuePage": {"id": "456039658"}}, "referralId": "e-0-4b965e14f964a52063c834e3-34"}, {"reasons": {"count": 0, "items": [{"summary": "This spot is popular", "type": "general", "reasonName": "globalInteractionReason"}]}, "venue": {"id": "4b09797ef964a520da1723e3", "name": "Caf\u00e9 BilderBuch", "location": {"address": "Akazienstr. 28", "lat": 52.486686482218715, "lng": 13.35498772781911, "labeledLatLngs": [{"label": "display", "lat": 52.486686482218715, "lng": 13.35498772781911}], "distance": 303, "postalCode": "10823", "cc": "DE", "city": "Berlin", "state": "Berlin", "country": "Deutschland", "formattedAddress": ["Akazienstr. 28", "10823 Berlin", "Deutschland"]}, "categories": [{"id": "4bf58dd8d48988d155941735", "name": "Gastropub", "pluralName": "Gastropubs", "shortName": "Gastropub", "icon": {"prefix": "https://ss3.4sqi.net/img/categories_v2/food/gastropub_", "suffix": ".png"}, "primary": true}], "photos": {"count": 0, "groups": []}}, "referralId": "e-0-4b09797ef964a520da1723e3-35"}, {"reasons": {"count": 0, "items": [{"summary": "This spot is popular", "type": "general", "reasonName": "globalInteractionReason"}]}, "venue": {"id": "4df4977ec65bf55ee52fb672", "name": "mein Lieblingseis - Frozen Yogurt Bar", "location": {"address": "Belziger Str. 7", "lat": 52.487803092956725, "lng": 13.35598414217994, "labeledLatLngs": [{"label": "display", "lat": 52.487803092956725, "lng": 13.35598414217994}], "distance": 443, "postalCode": "10823", "cc": "DE", "city": "Berlin", "state": "Berlin", "country": "Deutschland", "formattedAddress": ["Belziger Str. 7", "10823 Berlin", "Deutschland"]}, "categories": [{"id": "512e7cae91d4cbb4e5efe0af", "name": "Frozen Yogurt Shop", "pluralName": "Frozen Yogurt Shops", "shortName": "Yogurt", "icon": {"prefix": "https://ss3.4sqi.net/img/categories_v2/food/frozenyogurt_", "suffix": ".png"}, "primary": true}], "photos": {"count": 0, "groups": []}}, "referralId": "e-0-4df4977ec65bf55ee52fb672-36"}, {"reasons": {"count": 0, "items": [{"summary": "This spot is popular", "type": "general", "reasonName": "globalInteractionReason"}]}, "venue": {"id": "4ca48f371ee76dcbb39e02de", "name": "B\u00e4ckerei G\u00fcm\u00fc\u015f", "location": {"address": "Hauptstr. 148", "lat": 52.4887868757557, "lng": 13.358758925201903, "labeledLatLngs": [{"label": "display", "lat": 52.4887868757557, "lng": 13.358758925201903}], "distance": 629, "postalCode": "10827", "cc": "DE", "city": "Berlin", "state": "Berlin", "country": "Deutschland", "formattedAddress": ["Hauptstr. 148", "10827 Berlin", "Deutschland"]}, "categories": [{"id": "4bf58dd8d48988d16a941735", "name": "Bakery", "pluralName": "Bakeries", "shortName": "Bakery", "icon": {"prefix": "https://ss3.4sqi.net/img/categories_v2/food/bakery_", "suffix": ".png"}, "primary": true}], "photos": {"count": 0, "groups": []}}, "referralId": "e-0-4ca48f371ee76dcbb39e02de-37"}, {"reasons": {"count": 0, "items": [{"summary": "This spot is popular", "type": "general", "reasonName": "globalInteractionReason"}]}, "venue": {"id": "4b51a157f964a5203c5127e3", "name": "Lenzig", "location": {"address": "Eisenacher Str. 75", "lat": 52.48748286005656, "lng": 13.349587552537193, "labeledLatLngs": [{"label": "display", "lat": 52.48748286005656, "lng": 13.349587552537193}], "distance": 461, "postalCode": "10823", "cc": "DE", "neighborhood": "Akazienkiez", "city": "Berlin", "state": "Berlin", "country": "Deutschland", "formattedAddress": ["Eisenacher Str. 75", "10823 Berlin", "Deutschland"]}, "categories": [{"id": "4bf58dd8d48988d10d941735", "name": "German Restaurant", "pluralName": "German Restaurants", "shortName": "German", "icon": {"prefix": "https://ss3.4sqi.net/img/categories_v2/food/german_", "suffix": ".png"}, "primary": true}], "photos": {"count": 0, "groups": []}}, "referralId": "e-0-4b51a157f964a5203c5127e3-38"}, {"reasons": {"count": 0, "items": [{"summary": "This spot is popular", "type": "general", "reasonName": "globalInteractionReason"}]}, "venue": {"id": "579781c2498e58b79df5b1c0", "name": "PapalaCup", "location": {"address": "Gotenstr. 55", "crossStreet": "Torgauer Str.", "lat": 52.47977811367951, "lng": 13.360209012031753, "labeledLatLngs": [{"label": "display", "lat": 52.47977811367951, "lng": 13.360209012031753}], "distance": 660, "postalCode": "10829", "cc": "DE", "city": "Berlin", "state": "Berlin", "country": "Deutschland", "formattedAddress": ["Gotenstr. 55 (Torgauer Str.)", "10829 Berlin", "Deutschland"]}, "categories": [{"id": "4bf58dd8d48988d16d941735", "name": "Caf\u00e9", "pluralName": "Caf\u00e9s", "shortName": "Caf\u00e9", "icon": {"prefix": "https://ss3.4sqi.net/img/categories_v2/food/cafe_", "suffix": ".png"}, "primary": true}], "photos": {"count": 0, "groups": []}}, "referralId": "e-0-579781c2498e58b79df5b1c0-39"}, {"reasons": {"count": 0, "items": [{"summary": "This spot is popular", "type": "general", "reasonName": "globalInteractionReason"}]}, "venue": {"id": "4c38bffb18e72d7f16ee18f5", "name": "Dolce Pizza", "location": {"address": "Belziger Str. 73", "lat": 52.48477884830622, "lng": 13.3458334017871, "labeledLatLngs": [{"label": "display", "lat": 52.48477884830622, "lng": 13.3458334017871}], "distance": 528, "cc": "DE", "city": "Berlin", "state": "Berlin", "country": "Deutschland", "formattedAddress": ["Belziger Str. 73", "Berlin", "Deutschland"]}, "categories": [{"id": "4bf58dd8d48988d1ca941735", "name": "Pizza Place", "pluralName": "Pizza Places", "shortName": "Pizza", "icon": {"prefix": "https://ss3.4sqi.net/img/categories_v2/food/pizza_", "suffix": ".png"}, "primary": true}], "photos": {"count": 0, "groups": []}}, "referralId": "e-0-4c38bffb18e72d7f16ee18f5-40"}, {"reasons": {"count": 0, "items": [{"summary": "This spot is popular", "type": "general", "reasonName": "globalInteractionReason"}]}, "venue": {"id": "4b5c6778f964a5203d2e29e3", "name": "Mamsell", "location": {"address": "Goltzstr. 48", "lat": 52.49058031823461, "lng": 13.35323294088859, "labeledLatLngs": [{"label": "display", "lat": 52.49058031823461, "lng": 13.35323294088859}], "distance": 720, "postalCode": "10781", "cc": "DE", "city": "Berlin", "state": "Berlin", "country": "Deutschland", "formattedAddress": ["Goltzstr. 48", "10781 Berlin", "Deutschland"]}, "categories": [{"id": "52f2ab2ebcbc57f1066b8b31", "name": "Chocolate Shop", "pluralName": "Chocolate Shops", "shortName": "Chocolate Shop", "icon": {"prefix": "https://ss3.4sqi.net/img/categories_v2/shops/candystore_", "suffix": ".png"}, "primary": true}], "photos": {"count": 0, "groups": []}}, "referralId": "e-0-4b5c6778f964a5203d2e29e3-41"}, {"reasons": {"count": 0, "items": [{"summary": "This spot is popular", "type": "general", "reasonName": "globalInteractionReason"}]}, "venue": {"id": "4d9889190caaa1437d94aeb3", "name": "La Dolce Vita", "location": {"address": "Belziger Str. 60", "lat": 52.48529853048393, "lng": 13.347643197961217, "labeledLatLngs": [{"label": "display", "lat": 52.48529853048393, "lng": 13.347643197961217}], "distance": 421, "postalCode": "10823", "cc": "DE", "city": "Berlin", "state": "Berlin", "country": "Deutschland", "formattedAddress": ["Belziger Str. 60", "10823 Berlin", "Deutschland"]}, "categories": [{"id": "4bf58dd8d48988d1c9941735", "name": "Ice Cream Shop", "pluralName": "Ice Cream Shops", "shortName": "Ice Cream", "icon": {"prefix": "https://ss3.4sqi.net/img/categories_v2/food/icecream_", "suffix": ".png"}, "primary": true}], "photos": {"count": 0, "groups": []}}, "referralId": "e-0-4d9889190caaa1437d94aeb3-42"}, {"reasons": {"count": 0, "items": [{"summary": "This spot is popular", "type": "general", "reasonName": "globalInteractionReason"}]}, "venue": {"id": "53bd8735498e5114f5869e22", "name": "La Cantine d'Augusta", "location": {"address": "Langenscheidtstr. 6", "lat": 52.48912087563823, "lng": 13.362196683883667, "labeledLatLngs": [{"label": "display", "lat": 52.48912087563823, "lng": 13.362196683883667}], "distance": 809, "postalCode": "10827", "cc": "DE", "neighborhood": "Sch\u00f6neberg, Berlin", "city": "Berlin", "state": "Berlin", "country": "Deutschland", "formattedAddress": ["Langenscheidtstr. 6", "10827 Berlin", "Deutschland"]}, "categories": [{"id": "4bf58dd8d48988d10c941735", "name": "French Restaurant", "pluralName": "French Restaurants", "shortName": "French", "icon": {"prefix": "https://ss3.4sqi.net/img/categories_v2/food/french_", "suffix": ".png"}, "primary": true}], "photos": {"count": 0, "groups": []}}, "referralId": "e-0-53bd8735498e5114f5869e22-43"}, {"reasons": {"count": 0, "items": [{"summary": "This spot is popular", "type": "general", "reasonName": "globalInteractionReason"}]}, "venue": {"id": "4e7dd0109a5219ed3c233f00", "name": "Chay Village", "location": {"address": "Eisenacher Str. 40", "lat": 52.48970882661967, "lng": 13.349005528597717, "labeledLatLngs": [{"label": "display", "lat": 52.48970882661967, "lng": 13.349005528597717}], "distance": 695, "postalCode": "10781", "cc": "DE", "city": "Berlin", "state": "Berlin", "country": "Deutschland", "formattedAddress": ["Eisenacher Str. 40", "10781 Berlin", "Deutschland"]}, "categories": [{"id": "4bf58dd8d48988d14a941735", "name": "Vietnamese Restaurant", "pluralName": "Vietnamese Restaurants", "shortName": "Vietnamese", "icon": {"prefix": "https://ss3.4sqi.net/img/categories_v2/food/vietnamese_", "suffix": ".png"}, "primary": true}], "photos": {"count": 0, "groups": []}}, "referralId": "e-0-4e7dd0109a5219ed3c233f00-44"}, {"reasons": {"count": 0, "items": [{"summary": "This spot is popular", "type": "general", "reasonName": "globalInteractionReason"}]}, "venue": {"id": "542af5a8498ea88846f1b63b", "name": "East61", "location": {"address": "Naumannstra\u00dfe 43", "lat": 52.481958656513555, "lng": 13.364237270945122, "labeledLatLngs": [{"label": "display", "lat": 52.481958656513555, "lng": 13.364237270945122}], "distance": 763, "postalCode": "10829", "cc": "DE", "city": "Berlin", "state": "Berlin", "country": "Deutschland", "formattedAddress": ["Naumannstra\u00dfe 43", "10829 Berlin", "Deutschland"]}, "categories": [{"id": "52e81612bcbc57f1066b7a26", "name": "Recreation Center", "pluralName": "Recreation Centers", "shortName": "Recreation Center", "icon": {"prefix": "https://ss3.4sqi.net/img/categories_v2/shops/sports_outdoors_", "suffix": ".png"}, "primary": true}], "photos": {"count": 0, "groups": []}}, "referralId": "e-0-542af5a8498ea88846f1b63b-45"}, {"reasons": {"count": 0, "items": [{"summary": "This spot is popular", "type": "general", "reasonName": "globalInteractionReason"}]}, "venue": {"id": "4b8d7710f964a52049fd32e3", "name": "Rote Beete", "location": {"address": "Gleditschstr. 71", "lat": 52.490436580690485, "lng": 13.354926819716542, "labeledLatLngs": [{"label": "display", "lat": 52.490436580690485, "lng": 13.354926819716542}], "distance": 710, "postalCode": "10781", "cc": "DE", "neighborhood": "Akazien", "city": "Berlin", "state": "Berlin", "country": "Deutschland", "formattedAddress": ["Gleditschstr. 71", "10781 Berlin", "Deutschland"]}, "categories": [{"id": "4bf58dd8d48988d16d941735", "name": "Caf\u00e9", "pluralName": "Caf\u00e9s", "shortName": "Caf\u00e9", "icon": {"prefix": "https://ss3.4sqi.net/img/categories_v2/food/cafe_", "suffix": ".png"}, "primary": true}], "photos": {"count": 0, "groups": []}}, "referralId": "e-0-4b8d7710f964a52049fd32e3-46"}, {"reasons": {"count": 0, "items": [{"summary": "This spot is popular", "type": "general", "reasonName": "globalInteractionReason"}]}, "venue": {"id": "4fd78d41e4b0fcbcb8ebc7da", "name": "Balkan Grill", "location": {"lat": 52.48004217551773, "lng": 13.352420220636539, "labeledLatLngs": [{"label": "display", "lat": 52.48004217551773, "lng": 13.352420220636539}], "distance": 459, "cc": "DE", "city": "Berlin", "state": "Berlin", "country": "Deutschland", "formattedAddress": ["Berlin", "Deutschland"]}, "categories": [{"id": "4bf58dd8d48988d109941735", "name": "Eastern European Restaurant", "pluralName": "Eastern European Restaurants", "shortName": "Eastern European", "icon": {"prefix": "https://ss3.4sqi.net/img/categories_v2/food/default_", "suffix": ".png"}, "primary": true}], "photos": {"count": 0, "groups": []}}, "referralId": "e-0-4fd78d41e4b0fcbcb8ebc7da-47"}, {"reasons": {"count": 0, "items": [{"summary": "This spot is popular", "type": "general", "reasonName": "globalInteractionReason"}]}, "venue": {"id": "4bbf549130c99c7467f95411", "name": "Leuchtturm", "location": {"address": "Crellestr 41", "lat": 52.487663540639026, "lng": 13.360015164219641, "labeledLatLngs": [{"label": "display", "lat": 52.487663540639026, "lng": 13.360015164219641}], "distance": 590, "cc": "DE", "city": "Berlin", "state": "Berlin", "country": "Deutschland", "formattedAddress": ["Crellestr 41", "Berlin", "Deutschland"]}, "categories": [{"id": "4bf58dd8d48988d116941735", "name": "Bar", "pluralName": "Bars", "shortName": "Bar", "icon": {"prefix": "https://ss3.4sqi.net/img/categories_v2/nightlife/pub_", "suffix": ".png"}, "primary": true}], "photos": {"count": 0, "groups": []}}, "referralId": "e-0-4bbf549130c99c7467f95411-48"}, {"reasons": {"count": 0, "items": [{"summary": "This spot is popular", "type": "general", "reasonName": "globalInteractionReason"}]}, "venue": {"id": "57557f92498ec36581269cd4", "name": "Ho Lo and Friends Kitchen + Bar", "location": {"address": "Schw\u00e4bische Str. 16", "lat": 52.490114, "lng": 13.351937, "labeledLatLngs": [{"label": "display", "lat": 52.490114, "lng": 13.351937}], "distance": 677, "postalCode": "10781", "cc": "DE", "city": "Berlin", "state": "Berlin", "country": "Deutschland", "formattedAddress": ["Schw\u00e4bische Str. 16", "10781 Berlin", "Deutschland"]}, "categories": [{"id": "4bf58dd8d48988d14a941735", "name": "Vietnamese Restaurant", "pluralName": "Vietnamese Restaurants", "shortName": "Vietnamese", "icon": {"prefix": "https://ss3.4sqi.net/img/categories_v2/food/vietnamese_", "suffix": ".png"}, "primary": true}], "photos": {"count": 0, "groups": []}}, "referralId": "e-0-57557f92498ec36581269cd4-49"}, {"reasons": {"count": 0, "items": [{"summary": "This spot is popular", "type": "general", "reasonName": "globalInteractionReason"}]}, "venue": {"id": "4adcda77f964a520024621e3", "name": "Gottlob", "location": {"address": "Akazienstr. 17", "lat": 52.489293253107576, "lng": 13.353526673712864, "labeledLatLngs": [{"label": "display", "lat": 52.489293253107576, "lng": 13.353526673712864}], "distance": 577, "postalCode": "10823", "cc": "DE", "city": "Berlin", "state": "Berlin", "country": "Deutschland", "formattedAddress": ["Akazienstr. 17", "10823 Berlin", "Deutschland"]}, "categories": [{"id": "4bf58dd8d48988d16d941735", "name": "Caf\u00e9", "pluralName": "Caf\u00e9s", "shortName": "Caf\u00e9", "icon": {"prefix": "https://ss3.4sqi.net/img/categories_v2/food/cafe_", "suffix": ".png"}, "primary": true}], "photos": {"count": 0, "groups": []}}, "referralId": "e-0-4adcda77f964a520024621e3-50"}, {"reasons": {"count": 0, "items": [{"summary": "This spot is popular", "type": "general", "reasonName": "globalInteractionReason"}]}, "venue": {"id": "4badf6b3f964a5201c763be3", "name": "Die Feinb\u00e4ckerei", "location": {"address": "Vorbergstr. 2", "lat": 52.48867379034337, "lng": 13.357830360293132, "labeledLatLngs": [{"label": "display", "lat": 52.48867379034337, "lng": 13.357830360293132}], "distance": 585, "postalCode": "10823", "cc": "DE", "city": "Berlin", "state": "Berlin", "country": "Deutschland", "formattedAddress": ["Vorbergstr. 2", "10823 Berlin", "Deutschland"]}, "categories": [{"id": "4bf58dd8d48988d10d941735", "name": "German Restaurant", "pluralName": "German Restaurants", "shortName": "German", "icon": {"prefix": "https://ss3.4sqi.net/img/categories_v2/food/german_", "suffix": ".png"}, "primary": true}], "photos": {"count": 0, "groups": []}}, "referralId": "e-0-4badf6b3f964a5201c763be3-51"}, {"reasons": {"count": 0, "items": [{"summary": "This spot is popular", "type": "general", "reasonName": "globalInteractionReason"}]}, "venue": {"id": "540b22c4498edabfc91e5789", "name": "Bright Site", "location": {"address": "Wilhelm-Kabus-Str. 40", "lat": 52.481732, "lng": 13.365768, "labeledLatLngs": [{"label": "display", "lat": 52.481732, "lng": 13.365768}], "distance": 869, "postalCode": "10829", "cc": "DE", "city": "Berlin", "state": "Berlin", "country": "Deutschland", "formattedAddress": ["Wilhelm-Kabus-Str. 40", "10829 Berlin", "Deutschland"]}, "categories": [{"id": "503289d391d4c4b30a586d6a", "name": "Climbing Gym", "pluralName": "Climbing Gyms", "shortName": "Climbing Gym", "icon": {"prefix": "https://ss3.4sqi.net/img/categories_v2/building/gym_", "suffix": ".png"}, "primary": true}], "photos": {"count": 0, "groups": []}}, "referralId": "e-0-540b22c4498edabfc91e5789-52"}, {"reasons": {"count": 0, "items": [{"summary": "This spot is popular", "type": "general", "reasonName": "globalInteractionReason"}]}, "venue": {"id": "56c794c5cd107c4ed76168f9", "name": "Weinverein Rote Insel", "location": {"address": "Leuthener Str. 5", "lat": 52.481388952709025, "lng": 13.361326140802392, "labeledLatLngs": [{"label": "display", "lat": 52.481388952709025, "lng": 13.361326140802392}], "distance": 608, "postalCode": "10829", "cc": "DE", "city": "Berlin", "state": "Berlin", "country": "Deutschland", "formattedAddress": ["Leuthener Str. 5", "10829 Berlin", "Deutschland"]}, "categories": [{"id": "4bf58dd8d48988d123941735", "name": "Wine Bar", "pluralName": "Wine Bars", "shortName": "Wine Bar", "icon": {"prefix": "https://ss3.4sqi.net/img/categories_v2/food/winery_", "suffix": ".png"}, "primary": true}], "photos": {"count": 0, "groups": []}}, "referralId": "e-0-56c794c5cd107c4ed76168f9-53"}, {"reasons": {"count": 0, "items": [{"summary": "This spot is popular", "type": "general", "reasonName": "globalInteractionReason"}]}, "venue": {"id": "4ddf5c73fa76b3b015fdc9bc", "name": "John-F.-Kennedy-Platz", "location": {"address": "John-F.-Kennedy-Platz", "lat": 52.484913, "lng": 13.344503, "labeledLatLngs": [{"label": "display", "lat": 52.484913, "lng": 13.344503}], "distance": 619, "postalCode": "10825", "cc": "DE", "city": "Berlin", "state": "Berlin", "country": "Deutschland", "formattedAddress": ["John-F.-Kennedy-Platz", "10825 Berlin", "Deutschland"]}, "categories": [{"id": "4bf58dd8d48988d164941735", "name": "Plaza", "pluralName": "Plazas", "shortName": "Plaza", "icon": {"prefix": "https://ss3.4sqi.net/img/categories_v2/parks_outdoors/plaza_", "suffix": ".png"}, "primary": true}], "photos": {"count": 0, "groups": []}}, "referralId": "e-0-4ddf5c73fa76b3b015fdc9bc-54"}, {"reasons": {"count": 0, "items": [{"summary": "This spot is popular", "type": "general", "reasonName": "globalInteractionReason"}]}, "venue": {"id": "4ee25986490152e4bd1945b4", "name": "denn's Biomarkt", "location": {"address": "Hauptstr. 11", "lat": 52.48844035149675, "lng": 13.358398415116424, "labeledLatLngs": [{"label": "display", "lat": 52.48844035149675, "lng": 13.358398415116424}], "distance": 583, "postalCode": "10827", "cc": "DE", "city": "Berlin", "state": "Berlin", "country": "Deutschland", "formattedAddress": ["Hauptstr. 11", "10827 Berlin", "Deutschland"]}, "categories": [{"id": "52f2ab2ebcbc57f1066b8b45", "name": "Organic Grocery", "pluralName": "Organic Groceries", "shortName": "Organic Grocery", "icon": {"prefix": "https://ss3.4sqi.net/img/categories_v2/shops/food_grocery_", "suffix": ".png"}, "primary": true}], "photos": {"count": 0, "groups": []}}, "referralId": "e-0-4ee25986490152e4bd1945b4-55"}, {"reasons": {"count": 0, "items": [{"summary": "This spot is popular", "type": "general", "reasonName": "globalInteractionReason"}]}, "venue": {"id": "53dcd8a4498ea6f8ec4f9688", "name": "CrossFit Icke", "location": {"address": "Wilhelm-Kabus-Str. 40", "lat": 52.481625, "lng": 13.365754, "labeledLatLngs": [{"label": "display", "lat": 52.481625, "lng": 13.365754}], "distance": 872, "postalCode": "10829", "cc": "DE", "city": "Berlin", "state": "Berlin", "country": "Deutschland", "formattedAddress": ["Wilhelm-Kabus-Str. 40", "10829 Berlin", "Deutschland"]}, "categories": [{"id": "4bf58dd8d48988d175941735", "name": "Gym / Fitness Center", "pluralName": "Gyms or Fitness Centers", "shortName": "Gym / Fitness", "icon": {"prefix": "https://ss3.4sqi.net/img/categories_v2/building/gym_", "suffix": ".png"}, "primary": true}], "photos": {"count": 0, "groups": []}}, "referralId": "e-0-53dcd8a4498ea6f8ec4f9688-56"}, {"reasons": {"count": 0, "items": [{"summary": "This spot is popular", "type": "general", "reasonName": "globalInteractionReason"}]}, "venue": {"id": "4b2947e0f964a520349c24e3", "name": "Petite Europe", "location": {"address": "Langenscheidtstr. 1", "lat": 52.490037, "lng": 13.360622, "labeledLatLngs": [{"label": "display", "lat": 52.490037, "lng": 13.360622}], "distance": 815, "postalCode": "10827", "cc": "DE", "city": "Berlin", "state": "Berlin", "country": "Deutschland", "formattedAddress": ["Langenscheidtstr. 1", "10827 Berlin", "Deutschland"]}, "categories": [{"id": "4bf58dd8d48988d1ca941735", "name": "Pizza Place", "pluralName": "Pizza Places", "shortName": "Pizza", "icon": {"prefix": "https://ss3.4sqi.net/img/categories_v2/food/pizza_", "suffix": ".png"}, "primary": true}], "photos": {"count": 0, "groups": []}}, "referralId": "e-0-4b2947e0f964a520349c24e3-57"}, {"reasons": {"count": 0, "items": [{"summary": "This spot is popular", "type": "general", "reasonName": "globalInteractionReason"}]}, "venue": {"id": "4adcda79f964a520c84621e3", "name": "Jansen Bar", "location": {"address": "Gotenstr. 71", "lat": 52.482993887713505, "lng": 13.360315065402396, "labeledLatLngs": [{"label": "display", "lat": 52.482993887713505, "lng": 13.360315065402396}], "distance": 475, "postalCode": "10829", "cc": "DE", "city": "Berlin", "state": "Berlin", "country": "Deutschland", "formattedAddress": ["Gotenstr. 71", "10829 Berlin", "Deutschland"]}, "categories": [{"id": "4bf58dd8d48988d11e941735", "name": "Cocktail Bar", "pluralName": "Cocktail Bars", "shortName": "Cocktail", "icon": {"prefix": "https://ss3.4sqi.net/img/categories_v2/nightlife/cocktails_", "suffix": ".png"}, "primary": true}], "photos": {"count": 0, "groups": []}}, "referralId": "e-0-4adcda79f964a520c84621e3-58"}, {"reasons": {"count": 0, "items": [{"summary": "This spot is popular", "type": "general", "reasonName": "globalInteractionReason"}]}, "venue": {"id": "5c533df49ba3e5002c3de99a", "name": "Mamas Banh", "location": {"address": "Grunewaldstra\u00dfe 81", "lat": 52.489864, "lng": 13.354447, "labeledLatLngs": [{"label": "display", "lat": 52.489864, "lng": 13.354447}], "distance": 643, "postalCode": "10823", "cc": "DE", "neighborhood": "Akazienkiez", "city": "Berlin", "state": "Berlin", "country": "Deutschland", "formattedAddress": ["Grunewaldstra\u00dfe 81", "10823 Berlin", "Deutschland"]}, "categories": [{"id": "4bf58dd8d48988d14a941735", "name": "Vietnamese Restaurant", "pluralName": "Vietnamese Restaurants", "shortName": "Vietnamese", "icon": {"prefix": "https://ss3.4sqi.net/img/categories_v2/food/vietnamese_", "suffix": ".png"}, "primary": true}], "photos": {"count": 0, "groups": []}}, "referralId": "e-0-5c533df49ba3e5002c3de99a-59"}, {"reasons": {"count": 0, "items": [{"summary": "This spot is popular", "type": "general", "reasonName": "globalInteractionReason"}]}, "venue": {"id": "4d987929e07ea35d6f5ff202", "name": "Cheruskerpark", "location": {"address": "Cherusker-/Ecke Rossbachstr.", "lat": 52.48330413181421, "lng": 13.358933853476094, "labeledLatLngs": [{"label": "display", "lat": 52.48330413181421, "lng": 13.358933853476094}], "distance": 375, "postalCode": "10829", "cc": "DE", "city": "Berlin", "state": "Berlin", "country": "Deutschland", "formattedAddress": ["Cherusker-/Ecke Rossbachstr.", "10829 Berlin", "Deutschland"]}, "categories": [{"id": "4bf58dd8d48988d163941735", "name": "Park", "pluralName": "Parks", "shortName": "Park", "icon": {"prefix": "https://ss3.4sqi.net/img/categories_v2/parks_outdoors/park_", "suffix": ".png"}, "primary": true}], "photos": {"count": 0, "groups": []}}, "referralId": "e-0-4d987929e07ea35d6f5ff202-60"}, {"reasons": {"count": 0, "items": [{"summary": "This spot is popular", "type": "general", "reasonName": "globalInteractionReason"}]}, "venue": {"id": "4b9ffb50f964a520b34f37e3", "name": "Salut! Classic Bar", "location": {"address": "Goltzstr. 7", "lat": 52.49105784306372, "lng": 13.353377580642698, "labeledLatLngs": [{"label": "display", "lat": 52.49105784306372, "lng": 13.353377580642698}], "distance": 773, "postalCode": "10781", "cc": "DE", "city": "Berlin", "state": "Berlin", "country": "Deutschland", "formattedAddress": ["Goltzstr. 7", "10781 Berlin", "Deutschland"]}, "categories": [{"id": "4bf58dd8d48988d11e941735", "name": "Cocktail Bar", "pluralName": "Cocktail Bars", "shortName": "Cocktail", "icon": {"prefix": "https://ss3.4sqi.net/img/categories_v2/nightlife/cocktails_", "suffix": ".png"}, "primary": true}], "photos": {"count": 0, "groups": []}}, "referralId": "e-0-4b9ffb50f964a520b34f37e3-61"}, {"reasons": {"count": 0, "items": [{"summary": "This spot is popular", "type": "general", "reasonName": "globalInteractionReason"}]}, "venue": {"id": "5431b6f7498e64bc7d4c9c0b", "name": "Barkett", "location": {"address": "Czeminskistr. 10", "lat": 52.488185682843046, "lng": 13.363941854987447, "labeledLatLngs": [{"label": "display", "lat": 52.488185682843046, "lng": 13.363941854987447}], "distance": 838, "postalCode": "10829", "cc": "DE", "city": "Berlin", "state": "Berlin", "country": "Deutschland", "formattedAddress": ["Czeminskistr. 10", "10829 Berlin", "Deutschland"]}, "categories": [{"id": "4bf58dd8d48988d116941735", "name": "Bar", "pluralName": "Bars", "shortName": "Bar", "icon": {"prefix": "https://ss3.4sqi.net/img/categories_v2/nightlife/pub_", "suffix": ".png"}, "primary": true}], "photos": {"count": 0, "groups": []}, "venuePage": {"id": "172877004"}}, "referralId": "e-0-5431b6f7498e64bc7d4c9c0b-62"}, {"reasons": {"count": 0, "items": [{"summary": "This spot is popular", "type": "general", "reasonName": "globalInteractionReason"}]}, "venue": {"id": "50644a8ae41287577e33b610", "name": "Gedenktafel David Bowie und Iggy Pop", "location": {"address": "Hauptstr. 155", "crossStreet": "Helmstr.", "lat": 52.489215602841945, "lng": 13.359471559524536, "labeledLatLngs": [{"label": "display", "lat": 52.489215602841945, "lng": 13.359471559524536}], "distance": 695, "postalCode": "10827", "cc": "DE", "city": "Berlin", "state": "Berlin", "country": "Deutschland", "formattedAddress": ["Hauptstr. 155 (Helmstr.)", "10827 Berlin", "Deutschland"]}, "categories": [{"id": "4deefb944765f83613cdba6e", "name": "Historic Site", "pluralName": "Historic Sites", "shortName": "Historic Site", "icon": {"prefix": "https://ss3.4sqi.net/img/categories_v2/arts_entertainment/historicsite_", "suffix": ".png"}, "primary": true}], "photos": {"count": 0, "groups": []}}, "referralId": "e-0-50644a8ae41287577e33b610-63"}, {"reasons": {"count": 0, "items": [{"summary": "This spot is popular", "type": "general", "reasonName": "globalInteractionReason"}]}, "venue": {"id": "4d444006e198721e0ea0b98b", "name": "ChiChiKan", "location": {"address": "Goltzstr. 52", "lat": 52.48982529890705, "lng": 13.353032923246406, "labeledLatLngs": [{"label": "display", "lat": 52.48982529890705, "lng": 13.353032923246406}], "distance": 637, "postalCode": "10781", "cc": "DE", "city": "Berlin", "state": "Berlin", "country": "Deutschland", "formattedAddress": ["Goltzstr. 52", "10781 Berlin", "Deutschland"]}, "categories": [{"id": "4bf58dd8d48988d145941735", "name": "Chinese Restaurant", "pluralName": "Chinese Restaurants", "shortName": "Chinese", "icon": {"prefix": "https://ss3.4sqi.net/img/categories_v2/food/asian_", "suffix": ".png"}, "primary": true}], "photos": {"count": 0, "groups": []}}, "referralId": "e-0-4d444006e198721e0ea0b98b-64"}, {"reasons": {"count": 0, "items": [{"summary": "This spot is popular", "type": "general", "reasonName": "globalInteractionReason"}]}, "venue": {"id": "58433186126ae8746860a7fc", "name": "Sardinen.Bar", "location": {"address": "Grunewaldstr. 79", "lat": 52.489994, "lng": 13.354334, "labeledLatLngs": [{"label": "display", "lat": 52.489994, "lng": 13.354334}], "distance": 657, "postalCode": "10823", "cc": "DE", "city": "Berlin", "state": "Berlin", "country": "Deutschland", "formattedAddress": ["Grunewaldstr. 79", "10823 Berlin", "Deutschland"]}, "categories": [{"id": "4bf58dd8d48988d123941735", "name": "Wine Bar", "pluralName": "Wine Bars", "shortName": "Wine Bar", "icon": {"prefix": "https://ss3.4sqi.net/img/categories_v2/food/winery_", "suffix": ".png"}, "primary": true}], "photos": {"count": 0, "groups": []}}, "referralId": "e-0-58433186126ae8746860a7fc-65"}, {"reasons": {"count": 0, "items": [{"summary": "This spot is popular", "type": "general", "reasonName": "globalInteractionReason"}]}, "venue": {"id": "4cbc62a3adcd548145102ea2", "name": "Spielplatz an der Apostel-Paulus-Kirche", "location": {"address": "Apostel-Paulus-Str.", "crossStreet": "Akazienstr.", "lat": 52.488837575591, "lng": 13.352430849343149, "labeledLatLngs": [{"label": "display", "lat": 52.488837575591, "lng": 13.352430849343149}], "distance": 531, "postalCode": "10823", "cc": "DE", "city": "Berlin", "state": "Berlin", "country": "Deutschland", "formattedAddress": ["Apostel-Paulus-Str. (Akazienstr.)", "10823 Berlin", "Deutschland"]}, "categories": [{"id": "4bf58dd8d48988d1e7941735", "name": "Playground", "pluralName": "Playgrounds", "shortName": "Playground", "icon": {"prefix": "https://ss3.4sqi.net/img/categories_v2/parks_outdoors/playground_", "suffix": ".png"}, "primary": true}], "photos": {"count": 0, "groups": []}}, "referralId": "e-0-4cbc62a3adcd548145102ea2-66"}, {"reasons": {"count": 0, "items": [{"summary": "This spot is popular", "type": "general", "reasonName": "globalInteractionReason"}]}, "venue": {"id": "4adcda7df964a520894721e3", "name": "Rudolph-Wilde-Park", "location": {"address": "Martin-Luther-Str.", "crossStreet": "Fritz-Elsas-Str.", "lat": 52.48257113808005, "lng": 13.339848518371582, "labeledLatLngs": [{"label": "display", "lat": 52.48257113808005, "lng": 13.339848518371582}], "distance": 944, "postalCode": "10825", "cc": "DE", "city": "Berlin", "state": "Berlin", "country": "Deutschland", "formattedAddress": ["Martin-Luther-Str. (Fritz-Elsas-Str.)", "10825 Berlin", "Deutschland"]}, "categories": [{"id": "4bf58dd8d48988d163941735", "name": "Park", "pluralName": "Parks", "shortName": "Park", "icon": {"prefix": "https://ss3.4sqi.net/img/categories_v2/parks_outdoors/park_", "suffix": ".png"}, "primary": true}], "photos": {"count": 0, "groups": []}}, "referralId": "e-0-4adcda7df964a520894721e3-67"}, {"reasons": {"count": 0, "items": [{"summary": "This spot is popular", "type": "general", "reasonName": "globalInteractionReason"}]}, "venue": {"id": "4fbc582de4b0fb19b1090a99", "name": "B\u00e4ckerei Johann Mayer", "location": {"address": "Ebersstr. 42", "crossStreet": "Hauptstr.", "lat": 52.47856722942611, "lng": 13.34568397498558, "labeledLatLngs": [{"label": "display", "lat": 52.47856722942611, "lng": 13.34568397498558}], "distance": 815, "postalCode": "10827", "cc": "DE", "city": "Berlin", "state": "Berlin", "country": "Deutschland", "formattedAddress": ["Ebersstr. 42 (Hauptstr.)", "10827 Berlin", "Deutschland"]}, "categories": [{"id": "4bf58dd8d48988d16a941735", "name": "Bakery", "pluralName": "Bakeries", "shortName": "Bakery", "icon": {"prefix": "https://ss3.4sqi.net/img/categories_v2/food/bakery_", "suffix": ".png"}, "primary": true}], "photos": {"count": 0, "groups": []}}, "referralId": "e-0-4fbc582de4b0fb19b1090a99-68"}, {"reasons": {"count": 0, "items": [{"summary": "This spot is popular", "type": "general", "reasonName": "globalInteractionReason"}]}, "venue": {"id": "4eed15f9775b3c580d182959", "name": "Imren Grill & Restaurant", "location": {"address": "Hauptstr. 156", "lat": 52.489552923652155, "lng": 13.359472941413834, "labeledLatLngs": [{"label": "display", "lat": 52.489552923652155, "lng": 13.359472941413834}], "distance": 727, "postalCode": "10827", "cc": "DE", "neighborhood": "Gro\u00dfg\u00f6rschenstra\u00dfe", "city": "Berlin", "state": "Berlin", "country": "Deutschland", "formattedAddress": ["Hauptstr. 156", "10827 Berlin", "Deutschland"]}, "categories": [{"id": "4f04af1f2fb6e1c99f3db0bb", "name": "Turkish Restaurant", "pluralName": "Turkish Restaurants", "shortName": "Turkish", "icon": {"prefix": "https://ss3.4sqi.net/img/categories_v2/food/turkish_", "suffix": ".png"}, "primary": true}], "photos": {"count": 0, "groups": []}}, "referralId": "e-0-4eed15f9775b3c580d182959-69"}, {"reasons": {"count": 0, "items": [{"summary": "This spot is popular", "type": "general", "reasonName": "globalInteractionReason"}]}, "venue": {"id": "4adcda88f964a5208b4921e3", "name": "Xenon-Kino", "location": {"address": "Kolonnenstr. 5 - 6", "lat": 52.4863622662621, "lng": 13.359475149594585, "labeledLatLngs": [{"label": "display", "lat": 52.4863622662621, "lng": 13.359475149594585}], "distance": 473, "postalCode": "10827", "cc": "DE", "city": "Berlin", "state": "Berlin", "country": "Deutschland", "formattedAddress": ["Kolonnenstr. 5 - 6", "10827 Berlin", "Deutschland"]}, "categories": [{"id": "4bf58dd8d48988d17e941735", "name": "Indie Movie Theater", "pluralName": "Indie Movie Theaters", "shortName": "Indie Movies", "icon": {"prefix": "https://ss3.4sqi.net/img/categories_v2/arts_entertainment/movietheater_", "suffix": ".png"}, "primary": true}], "photos": {"count": 0, "groups": []}}, "referralId": "e-0-4adcda88f964a5208b4921e3-70"}, {"reasons": {"count": 0, "items": [{"summary": "This spot is popular", "type": "general", "reasonName": "globalInteractionReason"}]}, "venue": {"id": "54722f87498e3f6064d6d6cb", "name": "Olio Sale Pepe", "location": {"address": "Willmanndamm 15", "lat": 52.490228, "lng": 13.361858, "labeledLatLngs": [{"label": "display", "lat": 52.490228, "lng": 13.361858}], "distance": 883, "postalCode": "10827", "cc": "DE", "city": "Berlin", "state": "Berlin", "country": "Deutschland", "formattedAddress": ["Willmanndamm 15", "10827 Berlin", "Deutschland"]}, "categories": [{"id": "4bf58dd8d48988d1ca941735", "name": "Pizza Place", "pluralName": "Pizza Places", "shortName": "Pizza", "icon": {"prefix": "https://ss3.4sqi.net/img/categories_v2/food/pizza_", "suffix": ".png"}, "primary": true}], "photos": {"count": 0, "groups": []}, "venuePage": {"id": "560106648"}}, "referralId": "e-0-54722f87498e3f6064d6d6cb-71"}, {"reasons": {"count": 0, "items": [{"summary": "This spot is popular", "type": "general", "reasonName": "globalInteractionReason"}]}, "venue": {"id": "57612b72498e1ab9efddd3ef", "name": "Lili Marleen", "location": {"address": "Crellestr. 39", "lat": 52.4878236110604, "lng": 13.360315502027223, "labeledLatLngs": [{"label": "display", "lat": 52.4878236110604, "lng": 13.360315502027223}], "distance": 617, "postalCode": "10827", "cc": "DE", "city": "Berlin", "state": "Berlin", "country": "Deutschland", "formattedAddress": ["Crellestr. 39", "10827 Berlin", "Deutschland"]}, "categories": [{"id": "52e81612bcbc57f1066b7a00", "name": "Comfort Food Restaurant", "pluralName": "Comfort Food Restaurants", "shortName": "Comfort Food", "icon": {"prefix": "https://ss3.4sqi.net/img/categories_v2/food/default_", "suffix": ".png"}, "primary": true}], "photos": {"count": 0, "groups": []}}, "referralId": "e-0-57612b72498e1ab9efddd3ef-72"}, {"reasons": {"count": 0, "items": [{"summary": "This spot is popular", "type": "general", "reasonName": "globalInteractionReason"}]}, "venue": {"id": "5655a166498e448800aaf2c2", "name": "Shawarma One", "location": {"lat": 52.48158001963898, "lng": 13.349408682953094, "labeledLatLngs": [{"label": "display", "lat": 52.48158001963898, "lng": 13.349408682953094}], "distance": 397, "cc": "DE", "city": "Berlin", "state": "Berlin", "country": "Deutschland", "formattedAddress": ["Berlin", "Deutschland"]}, "categories": [{"id": "4bf58dd8d48988d10b941735", "name": "Falafel Restaurant", "pluralName": "Falafel Restaurants", "shortName": "Falafel", "icon": {"prefix": "https://ss3.4sqi.net/img/categories_v2/food/falafel_", "suffix": ".png"}, "primary": true}], "photos": {"count": 0, "groups": []}}, "referralId": "e-0-5655a166498e448800aaf2c2-73"}, {"reasons": {"count": 0, "items": [{"summary": "This spot is popular", "type": "general", "reasonName": "globalInteractionReason"}]}, "venue": {"id": "585a65bd0b7e934bd2588e27", "name": "Le Bretagne", "location": {"address": "Karl-Schrader-Str. 1", "lat": 52.49195687156021, "lng": 13.351252581972107, "labeledLatLngs": [{"label": "display", "lat": 52.49195687156021, "lng": 13.351252581972107}], "distance": 887, "postalCode": "10781", "cc": "DE", "city": "Berlin", "state": "Berlin", "country": "Deutschland", "formattedAddress": ["Karl-Schrader-Str. 1", "10781 Berlin", "Deutschland"]}, "categories": [{"id": "4bf58dd8d48988d16d941735", "name": "Caf\u00e9", "pluralName": "Caf\u00e9s", "shortName": "Caf\u00e9", "icon": {"prefix": "https://ss3.4sqi.net/img/categories_v2/food/cafe_", "suffix": ".png"}, "primary": true}], "photos": {"count": 0, "groups": []}}, "referralId": "e-0-585a65bd0b7e934bd2588e27-74"}, {"reasons": {"count": 0, "items": [{"summary": "This spot is popular", "type": "general", "reasonName": "globalInteractionReason"}]}, "venue": {"id": "4fa0169ce4b0a2e4c33e3a29", "name": "Heuberger", "location": {"address": "Gotenstr. 1", "lat": 52.4849535536881, "lng": 13.360168819481855, "labeledLatLngs": [{"label": "display", "lat": 52.4849535536881, "lng": 13.360168819481855}], "distance": 458, "postalCode": "10829", "cc": "DE", "city": "Berlin", "state": "Berlin", "country": "Deutschland", "formattedAddress": ["Gotenstr. 1", "10829 Berlin", "Deutschland"]}, "categories": [{"id": "4bf58dd8d48988d10d941735", "name": "German Restaurant", "pluralName": "German Restaurants", "shortName": "German", "icon": {"prefix": "https://ss3.4sqi.net/img/categories_v2/food/german_", "suffix": ".png"}, "primary": true}], "photos": {"count": 0, "groups": []}}, "referralId": "e-0-4fa0169ce4b0a2e4c33e3a29-75"}, {"reasons": {"count": 0, "items": [{"summary": "This spot is popular", "type": "general", "reasonName": "globalInteractionReason"}]}, "venue": {"id": "4c5d813785a1e21ecc815911", "name": "Barbarossaplatz", "location": {"address": "Barbarossaplatz", "lat": 52.4911126106411, "lng": 13.349196640375633, "labeledLatLngs": [{"label": "display", "lat": 52.4911126106411, "lng": 13.349196640375633}], "distance": 833, "postalCode": "10781", "cc": "DE", "city": "Berlin", "state": "Berlin", "country": "Deutschland", "formattedAddress": ["Barbarossaplatz", "10781 Berlin", "Deutschland"]}, "categories": [{"id": "4bf58dd8d48988d164941735", "name": "Plaza", "pluralName": "Plazas", "shortName": "Plaza", "icon": {"prefix": "https://ss3.4sqi.net/img/categories_v2/parks_outdoors/plaza_", "suffix": ".png"}, "primary": true}], "photos": {"count": 0, "groups": []}}, "referralId": "e-0-4c5d813785a1e21ecc815911-76"}, {"reasons": {"count": 0, "items": [{"summary": "This spot is popular", "type": "general", "reasonName": "globalInteractionReason"}]}, "venue": {"id": "4bbdd86f07809521eb02db91", "name": "Berlin Homemade Icecream", "location": {"address": "El\u00dfholzstr. 10", "lat": 52.49262, "lng": 13.356314, "labeledLatLngs": [{"label": "display", "lat": 52.49262, "lng": 13.356314}], "distance": 965, "postalCode": "10781", "cc": "DE", "city": "Berlin", "state": "Berlin", "country": "Deutschland", "formattedAddress": ["El\u00dfholzstr. 10", "10781 Berlin", "Deutschland"]}, "categories": [{"id": "4bf58dd8d48988d1c9941735", "name": "Ice Cream Shop", "pluralName": "Ice Cream Shops", "shortName": "Ice Cream", "icon": {"prefix": "https://ss3.4sqi.net/img/categories_v2/food/icecream_", "suffix": ".png"}, "primary": true}], "photos": {"count": 0, "groups": []}}, "referralId": "e-0-4bbdd86f07809521eb02db91-77"}, {"reasons": {"count": 0, "items": [{"summary": "This spot is popular", "type": "general", "reasonName": "globalInteractionReason"}]}, "venue": {"id": "4defac5be4cdcd6c3f2f94cc", "name": "Der Hot Dog Laden", "location": {"address": "Goltzstr. 15", "lat": 52.49303044871963, "lng": 13.353506928510486, "labeledLatLngs": [{"label": "display", "lat": 52.49303044871963, "lng": 13.353506928510486}], "distance": 993, "postalCode": "10781", "cc": "DE", "city": "Berlin", "state": "Berlin", "country": "Deutschland", "formattedAddress": ["Goltzstr. 15", "10781 Berlin", "Deutschland"]}, "categories": [{"id": "4bf58dd8d48988d16f941735", "name": "Hot Dog Joint", "pluralName": "Hot Dog Joints", "shortName": "Hot Dogs", "icon": {"prefix": "https://ss3.4sqi.net/img/categories_v2/food/hotdog_", "suffix": ".png"}, "primary": true}], "photos": {"count": 0, "groups": []}}, "referralId": "e-0-4defac5be4cdcd6c3f2f94cc-78"}, {"reasons": {"count": 0, "items": [{"summary": "This spot is popular", "type": "general", "reasonName": "globalInteractionReason"}]}, "venue": {"id": "4b40edcbf964a520a5bd25e3", "name": "Mister Hu", "location": {"address": "Goltzstr. 39", "lat": 52.4927843170752, "lng": 13.35353126930691, "labeledLatLngs": [{"label": "display", "lat": 52.4927843170752, "lng": 13.35353126930691}], "distance": 965, "postalCode": "10781", "cc": "DE", "city": "Berlin", "state": "Berlin", "country": "Deutschland", "formattedAddress": ["Goltzstr. 39", "10781 Berlin", "Deutschland"]}, "categories": [{"id": "4bf58dd8d48988d11e941735", "name": "Cocktail Bar", "pluralName": "Cocktail Bars", "shortName": "Cocktail", "icon": {"prefix": "https://ss3.4sqi.net/img/categories_v2/nightlife/cocktails_", "suffix": ".png"}, "primary": true}], "photos": {"count": 0, "groups": []}}, "referralId": "e-0-4b40edcbf964a520a5bd25e3-79"}, {"reasons": {"count": 0, "items": [{"summary": "This spot is popular", "type": "general", "reasonName": "globalInteractionReason"}]}, "venue": {"id": "5d29d1068479fb0023b49687", "name": "Gokan", "location": {"address": "Leberstr. 9", "lat": 52.485161, "lng": 13.361607, "labeledLatLngs": [{"label": "display", "lat": 52.485161, "lng": 13.361607}], "distance": 558, "postalCode": "10829", "cc": "DE", "city": "Berlin", "state": "Berlin", "country": "Deutschland", "formattedAddress": ["Leberstr. 9", "10829 Berlin", "Deutschland"]}, "categories": [{"id": "4bf58dd8d48988d113941735", "name": "Korean Restaurant", "pluralName": "Korean Restaurants", "shortName": "Korean", "icon": {"prefix": "https://ss3.4sqi.net/img/categories_v2/food/korean_", "suffix": ".png"}, "primary": true}], "photos": {"count": 0, "groups": []}, "venuePage": {"id": "585707104"}}, "referralId": "e-0-5d29d1068479fb0023b49687-80"}, {"reasons": {"count": 0, "items": [{"summary": "This spot is popular", "type": "general", "reasonName": "globalInteractionReason"}]}, "venue": {"id": "59072f4aa2a6ce23bba9dea7", "name": "The Visit", "location": {"address": "Goltzstr. 39", "lat": 52.492878765499334, "lng": 13.353553659131794, "labeledLatLngs": [{"label": "display", "lat": 52.492878765499334, "lng": 13.353553659131794}], "distance": 976, "postalCode": "10781", "cc": "DE", "city": "Berlin", "state": "Berlin", "country": "Deutschland", "formattedAddress": ["Goltzstr. 39", "10781 Berlin", "Deutschland"]}, "categories": [{"id": "4bf58dd8d48988d16d941735", "name": "Caf\u00e9", "pluralName": "Caf\u00e9s", "shortName": "Caf\u00e9", "icon": {"prefix": "https://ss3.4sqi.net/img/categories_v2/food/cafe_", "suffix": ".png"}, "primary": true}], "photos": {"count": 0, "groups": []}, "venuePage": {"id": "448592562"}}, "referralId": "e-0-59072f4aa2a6ce23bba9dea7-81"}, {"reasons": {"count": 0, "items": [{"summary": "This spot is popular", "type": "general", "reasonName": "globalInteractionReason"}]}, "venue": {"id": "578a5a7a498e9404b26e7946", "name": "Koriat Kuchenmanufaktur", "location": {"address": "Brunhildstr. 3a", "lat": 52.486418, "lng": 13.362602, "labeledLatLngs": [{"label": "display", "lat": 52.486418, "lng": 13.362602}], "distance": 665, "cc": "DE", "city": "Berlin", "state": "Berlin", "country": "Deutschland", "formattedAddress": ["Brunhildstr. 3a", "Berlin", "Deutschland"]}, "categories": [{"id": "5744ccdfe4b0c0459246b4e2", "name": "Pastry Shop", "pluralName": "Pastry Shops", "shortName": "Pastry", "icon": {"prefix": "https://ss3.4sqi.net/img/categories_v2/food/dessert_", "suffix": ".png"}, "primary": true}], "photos": {"count": 0, "groups": []}}, "referralId": "e-0-578a5a7a498e9404b26e7946-82"}, {"reasons": {"count": 0, "items": [{"summary": "This spot is popular", "type": "general", "reasonName": "globalInteractionReason"}]}, "venue": {"id": "4adcda90f964a5206e4b21e3", "name": "Th\u00f6rner f\u00fcrs B\u00fcro GmbH", "location": {"address": "Salzburger Str. 9", "lat": 52.48739684102954, "lng": 13.341941864763616, "labeledLatLngs": [{"label": "display", "lat": 52.48739684102954, "lng": 13.341941864763616}], "distance": 867, "postalCode": "10825", "cc": "DE", "city": "Berlin", "state": "Berlin", "country": "Deutschland", "formattedAddress": ["Salzburger Str. 9", "10825 Berlin", "Deutschland"]}, "categories": [{"id": "4bf58dd8d48988d121951735", "name": "Paper / Office Supplies Store", "pluralName": "Paper / Office Supplies Stores", "shortName": "Office Supplies", "icon": {"prefix": "https://ss3.4sqi.net/img/categories_v2/shops/papergoods_", "suffix": ".png"}, "primary": true}], "photos": {"count": 0, "groups": []}}, "referralId": "e-0-4adcda90f964a5206e4b21e3-83"}, {"reasons": {"count": 0, "items": [{"summary": "This spot is popular", "type": "general", "reasonName": "globalInteractionReason"}]}, "venue": {"id": "5b0937a1c824ae002c30b63c", "name": "Viet Kitchen", "location": {"lat": 52.479964, "lng": 13.352093, "labeledLatLngs": [{"label": "display", "lat": 52.479964, "lng": 13.352093}], "distance": 471, "cc": "DE", "country": "Deutschland", "formattedAddress": ["Deutschland"]}, "categories": [{"id": "4bf58dd8d48988d14a941735", "name": "Vietnamese Restaurant", "pluralName": "Vietnamese Restaurants", "shortName": "Vietnamese", "icon": {"prefix": "https://ss3.4sqi.net/img/categories_v2/food/vietnamese_", "suffix": ".png"}, "primary": true}], "photos": {"count": 0, "groups": []}}, "referralId": "e-0-5b0937a1c824ae002c30b63c-84"}, {"reasons": {"count": 0, "items": [{"summary": "This spot is popular", "type": "general", "reasonName": "globalInteractionReason"}]}, "venue": {"id": "4b891fd4f964a520121e32e3", "name": "Ess Eins", "location": {"address": "Kolonnenstr. 56", "lat": 52.486546465203254, "lng": 13.360996059841387, "labeledLatLngs": [{"label": "display", "lat": 52.486546465203254, "lng": 13.360996059841387}], "distance": 573, "cc": "DE", "city": "Berlin", "state": "Berlin", "country": "Deutschland", "formattedAddress": ["Kolonnenstr. 56", "Berlin", "Deutschland"]}, "categories": [{"id": "4bf58dd8d48988d16d941735", "name": "Caf\u00e9", "pluralName": "Caf\u00e9s", "shortName": "Caf\u00e9", "icon": {"prefix": "https://ss3.4sqi.net/img/categories_v2/food/cafe_", "suffix": ".png"}, "primary": true}], "photos": {"count": 0, "groups": []}}, "referralId": "e-0-4b891fd4f964a520121e32e3-85"}, {"reasons": {"count": 0, "items": [{"summary": "This spot is popular", "type": "general", "reasonName": "globalInteractionReason"}]}, "venue": {"id": "4d2cc117feaaa1cd9fc3e290", "name": "Billardaire", "location": {"address": "Monumentenstr. 35", "crossStreet": "2. Hinterhof", "lat": 52.48934776057287, "lng": 13.365354848608277, "labeledLatLngs": [{"label": "display", "lat": 52.48934776057287, "lng": 13.365354848608277}], "distance": 990, "postalCode": "10829", "cc": "DE", "city": "Berlin", "state": "Berlin", "country": "Deutschland", "formattedAddress": ["Monumentenstr. 35 (2. Hinterhof)", "10829 Berlin", "Deutschland"]}, "categories": [{"id": "4bf58dd8d48988d1e3931735", "name": "Pool Hall", "pluralName": "Pool Halls", "shortName": "Billiards", "icon": {"prefix": "https://ss3.4sqi.net/img/categories_v2/arts_entertainment/billiards_", "suffix": ".png"}, "primary": true}], "photos": {"count": 0, "groups": []}}, "referralId": "e-0-4d2cc117feaaa1cd9fc3e290-86"}, {"reasons": {"count": 0, "items": [{"summary": "This spot is popular", "type": "general", "reasonName": "globalInteractionReason"}]}, "venue": {"id": "503a4134e4b05a7a71c12b8e", "name": "Caf\u00e9 Peri", "location": {"address": "Potsdamer Str. 203", "crossStreet": "Gro\u00dfg\u00f6rschenstr.", "lat": 52.49123401105851, "lng": 13.36088860187262, "labeledLatLngs": [{"label": "display", "lat": 52.49123401105851, "lng": 13.36088860187262}], "distance": 936, "postalCode": "10783", "cc": "DE", "city": "Berlin", "state": "Berlin", "country": "Deutschland", "formattedAddress": ["Potsdamer Str. 203 (Gro\u00dfg\u00f6rschenstr.)", "10783 Berlin", "Deutschland"]}, "categories": [{"id": "4bf58dd8d48988d16d941735", "name": "Caf\u00e9", "pluralName": "Caf\u00e9s", "shortName": "Caf\u00e9", "icon": {"prefix": "https://ss3.4sqi.net/img/categories_v2/food/cafe_", "suffix": ".png"}, "primary": true}], "photos": {"count": 0, "groups": []}}, "referralId": "e-0-503a4134e4b05a7a71c12b8e-87"}, {"reasons": {"count": 0, "items": [{"summary": "This spot is popular", "type": "general", "reasonName": "globalInteractionReason"}]}, "venue": {"id": "5208c81311d2c865ecd2e6fc", "name": "Caf\u00e9 Peppe", "location": {"address": "Torgauer Str. 2", "lat": 52.478996954810036, "lng": 13.362743854522705, "labeledLatLngs": [{"label": "display", "lat": 52.478996954810036, "lng": 13.362743854522705}], "distance": 844, "postalCode": "10829", "cc": "DE", "city": "Berlin", "state": "Berlin", "country": "Deutschland", "formattedAddress": ["Torgauer Str. 2", "10829 Berlin", "Deutschland"]}, "categories": [{"id": "52e81612bcbc57f1066b79f1", "name": "Bistro", "pluralName": "Bistros", "shortName": "Bistro", "icon": {"prefix": "https://ss3.4sqi.net/img/categories_v2/food/default_", "suffix": ".png"}, "primary": true}], "photos": {"count": 0, "groups": []}}, "referralId": "e-0-5208c81311d2c865ecd2e6fc-88"}, {"reasons": {"count": 0, "items": [{"summary": "This spot is popular", "type": "general", "reasonName": "globalInteractionReason"}]}, "venue": {"id": "4c319a26213c2d7fd235345d", "name": "Caffein", "location": {"address": "Kolonnenstr. 54", "lat": 52.48616574158397, "lng": 13.361372775813772, "labeledLatLngs": [{"label": "display", "lat": 52.48616574158397, "lng": 13.361372775813772}], "distance": 577, "postalCode": "10829", "cc": "DE", "city": "Berlin", "state": "Berlin", "country": "Deutschland", "formattedAddress": ["Kolonnenstr. 54", "10829 Berlin", "Deutschland"]}, "categories": [{"id": "4bf58dd8d48988d1e0931735", "name": "Coffee Shop", "pluralName": "Coffee Shops", "shortName": "Coffee Shop", "icon": {"prefix": "https://ss3.4sqi.net/img/categories_v2/food/coffeeshop_", "suffix": ".png"}, "primary": true}], "photos": {"count": 0, "groups": []}}, "referralId": "e-0-4c319a26213c2d7fd235345d-89"}, {"reasons": {"count": 0, "items": [{"summary": "This spot is popular", "type": "general", "reasonName": "globalInteractionReason"}]}, "venue": {"id": "4e058d551f6e21103380e440", "name": "Konditorei Czerr", "location": {"address": "Grunewaldstra\u00dfe 57", "crossStreet": "Bayerischer Platz", "lat": 52.48848, "lng": 13.341226, "labeledLatLngs": [{"label": "display", "lat": 52.48848, "lng": 13.341226}], "distance": 966, "postalCode": "10825", "cc": "DE", "neighborhood": "Bayerisches Viertel, Berlin", "city": "Berlin", "state": "Berlin", "country": "Deutschland", "formattedAddress": ["Grunewaldstra\u00dfe 57 (Bayerischer Platz)", "10825 Berlin", "Deutschland"]}, "categories": [{"id": "4bf58dd8d48988d16a941735", "name": "Bakery", "pluralName": "Bakeries", "shortName": "Bakery", "icon": {"prefix": "https://ss3.4sqi.net/img/categories_v2/food/bakery_", "suffix": ".png"}, "primary": true}], "photos": {"count": 0, "groups": []}}, "referralId": "e-0-4e058d551f6e21103380e440-90"}, {"reasons": {"count": 0, "items": [{"summary": "This spot is popular", "type": "general", "reasonName": "globalInteractionReason"}]}, "venue": {"id": "557d852b498ec492c93b3e03", "name": "Atlantik Fischrestaurant", "location": {"address": "Martin Luther Stra\u00dfe 134", "crossStreet": "Hauptstra\u00dfe", "lat": 52.47902907504363, "lng": 13.34465281633804, "labeledLatLngs": [{"label": "display", "lat": 52.47902907504363, "lng": 13.34465281633804}], "distance": 826, "postalCode": "10825", "cc": "DE", "city": "Berlin", "state": "Berlin", "country": "Deutschland", "formattedAddress": ["Martin Luther Stra\u00dfe 134 (Hauptstra\u00dfe)", "10825 Berlin", "Deutschland"]}, "categories": [{"id": "4bf58dd8d48988d1ce941735", "name": "Seafood Restaurant", "pluralName": "Seafood Restaurants", "shortName": "Seafood", "icon": {"prefix": "https://ss3.4sqi.net/img/categories_v2/food/seafood_", "suffix": ".png"}, "primary": true}], "photos": {"count": 0, "groups": []}}, "referralId": "e-0-557d852b498ec492c93b3e03-91"}, {"reasons": {"count": 0, "items": [{"summary": "This spot is popular", "type": "general", "reasonName": "globalInteractionReason"}]}, "venue": {"id": "5acf2df635811b64a5b08dcf", "name": "Ksara", "location": {"address": "Crellerstr. 17", "lat": 52.488052, "lng": 13.360496, "labeledLatLngs": [{"label": "display", "lat": 52.488052, "lng": 13.360496}], "distance": 643, "postalCode": "10827", "cc": "DE", "city": "Berlin", "state": "Berlin", "country": "Deutschland", "formattedAddress": ["Crellerstr. 17", "10827 Berlin", "Deutschland"]}, "categories": [{"id": "58daa1558bbb0b01f18ec1cd", "name": "Lebanese Restaurant", "pluralName": "Lebanese Restaurants", "shortName": "Lebanese", "icon": {"prefix": "https://ss3.4sqi.net/img/categories_v2/food/middleeastern_", "suffix": ".png"}, "primary": true}], "photos": {"count": 0, "groups": []}}, "referralId": "e-0-5acf2df635811b64a5b08dcf-92"}, {"reasons": {"count": 0, "items": [{"summary": "This spot is popular", "type": "general", "reasonName": "globalInteractionReason"}]}, "venue": {"id": "5b3bce3d9deb7d002c33fee8", "name": "Pizzeria LuNa", "location": {"address": "Gotenstra\u00dfe 18", "lat": 52.48114, "lng": 13.35995, "labeledLatLngs": [{"label": "display", "lat": 52.48114, "lng": 13.35995}], "distance": 545, "postalCode": "10829", "cc": "DE", "city": "Berlin", "state": "Berlin", "country": "Deutschland", "formattedAddress": ["Gotenstra\u00dfe 18", "10829 Berlin", "Deutschland"]}, "categories": [{"id": "4bf58dd8d48988d1c4941735", "name": "Restaurant", "pluralName": "Restaurants", "shortName": "Restaurant", "icon": {"prefix": "https://ss3.4sqi.net/img/categories_v2/food/default_", "suffix": ".png"}, "primary": true}], "photos": {"count": 0, "groups": []}}, "referralId": "e-0-5b3bce3d9deb7d002c33fee8-93"}, {"reasons": {"count": 0, "items": [{"summary": "This spot is popular", "type": "general", "reasonName": "globalInteractionReason"}]}, "venue": {"id": "5804c322d67c92f7d28962f9", "name": "Naumannk\u00fcche", "location": {"address": "Wilhelm-Kabus-Str. 36", "crossStreet": "Haus 10", "lat": 52.48149074618202, "lng": 13.365731884043749, "labeledLatLngs": [{"label": "display", "lat": 52.48149074618202, "lng": 13.365731884043749}], "distance": 875, "postalCode": "10829", "cc": "DE", "city": "Berlin", "state": "Berlin", "country": "Deutschland", "formattedAddress": ["Wilhelm-Kabus-Str. 36 (Haus 10)", "10829 Berlin", "Deutschland"]}, "categories": [{"id": "52e81612bcbc57f1066b79f1", "name": "Bistro", "pluralName": "Bistros", "shortName": "Bistro", "icon": {"prefix": "https://ss3.4sqi.net/img/categories_v2/food/default_", "suffix": ".png"}, "primary": true}], "photos": {"count": 0, "groups": []}}, "referralId": "e-0-5804c322d67c92f7d28962f9-94"}, {"reasons": {"count": 0, "items": [{"summary": "This spot is popular", "type": "general", "reasonName": "globalInteractionReason"}]}, "venue": {"id": "5190b993498e2afc45be069d", "name": "Taormina II", "location": {"address": "Hauptstr. 112", "lat": 52.48177495313017, "lng": 13.348486065644233, "labeledLatLngs": [{"label": "display", "lat": 52.48177495313017, "lng": 13.348486065644233}], "distance": 430, "postalCode": "10827", "cc": "DE", "city": "Berlin", "state": "Berlin", "country": "Deutschland", "formattedAddress": ["Hauptstr. 112", "10827 Berlin", "Deutschland"]}, "categories": [{"id": "4bf58dd8d48988d110941735", "name": "Italian Restaurant", "pluralName": "Italian Restaurants", "shortName": "Italian", "icon": {"prefix": "https://ss3.4sqi.net/img/categories_v2/food/italian_", "suffix": ".png"}, "primary": true}], "photos": {"count": 0, "groups": []}}, "referralId": "e-0-5190b993498e2afc45be069d-95"}, {"reasons": {"count": 0, "items": [{"summary": "This spot is popular", "type": "general", "reasonName": "globalInteractionReason"}]}, "venue": {"id": "4c72bc27d944224b347c0d29", "name": "Resonanz", "location": {"address": "Ebersstr. 66", "lat": 52.47937494149133, "lng": 13.34996152070579, "labeledLatLngs": [{"label": "display", "lat": 52.47937494149133, "lng": 13.34996152070579}], "distance": 580, "postalCode": "10827", "cc": "DE", "city": "Berlin", "state": "Berlin", "country": "Deutschland", "formattedAddress": ["Ebersstr. 66", "10827 Berlin", "Deutschland"]}, "categories": [{"id": "4bf58dd8d48988d11b941735", "name": "Pub", "pluralName": "Pubs", "shortName": "Pub", "icon": {"prefix": "https://ss3.4sqi.net/img/categories_v2/nightlife/pub_", "suffix": ".png"}, "primary": true}], "photos": {"count": 0, "groups": []}}, "referralId": "e-0-4c72bc27d944224b347c0d29-96"}, {"reasons": {"count": 0, "items": [{"summary": "This spot is popular", "type": "general", "reasonName": "globalInteractionReason"}]}, "venue": {"id": "4adcda84f964a520d14821e3", "name": "Tuk-Tuk", "location": {"address": "Gro\u00dfg\u00f6rschenstr. 2", "lat": 52.49112069186333, "lng": 13.361346457837838, "labeledLatLngs": [{"label": "display", "lat": 52.49112069186333, "lng": 13.361346457837838}], "distance": 942, "postalCode": "10827", "cc": "DE", "city": "Berlin", "state": "Berlin", "country": "Deutschland", "formattedAddress": ["Gro\u00dfg\u00f6rschenstr. 2", "10827 Berlin", "Deutschland"]}, "categories": [{"id": "4deefc054765f83613cdba6f", "name": "Indonesian Restaurant", "pluralName": "Indonesian Restaurants", "shortName": "Indonesian", "icon": {"prefix": "https://ss3.4sqi.net/img/categories_v2/food/indonesian_", "suffix": ".png"}, "primary": true}], "photos": {"count": 0, "groups": []}, "venuePage": {"id": "51754594"}}, "referralId": "e-0-4adcda84f964a520d14821e3-97"}, {"reasons": {"count": 0, "items": [{"summary": "This spot is popular", "type": "general", "reasonName": "globalInteractionReason"}]}, "venue": {"id": "5709f9a5498e75ddbce8029b", "name": "Akai Shima No Hana", "location": {"address": "Leberstr. 9", "lat": 52.484922, "lng": 13.361585, "labeledLatLngs": [{"label": "display", "lat": 52.484922, "lng": 13.361585}], "distance": 552, "postalCode": "10829", "cc": "DE", "city": "Berlin", "state": "Berlin", "country": "Deutschland", "formattedAddress": ["Leberstr. 9", "10829 Berlin", "Deutschland"]}, "categories": [{"id": "4bf58dd8d48988d111941735", "name": "Japanese Restaurant", "pluralName": "Japanese Restaurants", "shortName": "Japanese", "icon": {"prefix": "https://ss3.4sqi.net/img/categories_v2/food/japanese_", "suffix": ".png"}, "primary": true}], "photos": {"count": 0, "groups": []}, "venuePage": {"id": "205753815"}}, "referralId": "e-0-5709f9a5498e75ddbce8029b-98"}, {"reasons": {"count": 0, "items": [{"summary": "This spot is popular", "type": "general", "reasonName": "globalInteractionReason"}]}, "venue": {"id": "4c51d76a9426c928f8a56f74", "name": "Sorrentina", "location": {"address": "Gustav-M\u00fcller-Str. 1", "lat": 52.48542136271376, "lng": 13.362654439364041, "labeledLatLngs": [{"label": "display", "lat": 52.48542136271376, "lng": 13.362654439364041}], "distance": 634, "postalCode": "10829", "cc": "DE", "city": "Berlin", "state": "Berlin", "country": "Deutschland", "formattedAddress": ["Gustav-M\u00fcller-Str. 1", "10829 Berlin", "Deutschland"]}, "categories": [{"id": "4bf58dd8d48988d110941735", "name": "Italian Restaurant", "pluralName": "Italian Restaurants", "shortName": "Italian", "icon": {"prefix": "https://ss3.4sqi.net/img/categories_v2/food/italian_", "suffix": ".png"}, "primary": true}], "photos": {"count": 0, "groups": []}}, "referralId": "e-0-4c51d76a9426c928f8a56f74-99"}]