[{"reasons": {"count": 0, "items": [{"summary": "This spot is popular", "type": "general", "reasonName": "globalInteractionReason"}]}, "venue": {"id": "525917e111d2f0c56dd42659", "name": "BMW Autohaus Nefzger", "location": {"address": "Nonnendammallee 62-64", "lat": 52.53733392527038, "lng": 13.257120893653365, "labeledLatLngs": [{"label": "display", "lat": 52.53733392527038, "lng": 13.257120893653365}], "distance": 211, "postalCode": "14059", "cc": "DE", "city": "Berlin", "state": "Berlin", "country": "Deutschland", "formattedAddress": ["Nonnendammallee 62-64", "14059 Berlin", "Deutschland"]}, "categories": [{"id": "4eb1c1623b7b52c0e1adc2ec", "name": "Auto Dealership", "pluralName": "Auto Dealerships", "shortName": "Auto Dealer", "icon": {"prefix": "https://ss3.4sqi.net/img/categories_v2/shops/automotive_", "suffix": ".png"}, "primary": true}], "photos": {"count": 0, "groups": []}}, "referralId": "e-0-525917e111d2f0c56dd42659-0"}, {"reasons": {"count": 0, "items": [{"summary": "This spot is popular", "type": "general", "reasonName": "globalInteractionReason"}]}, "venue": {"id": "4e143094b61c18a826ff3bae", "name": "Delizie da Vito", "location": {"address": "Nonnendammallee 97", "crossStreet": "Wattstr.", "lat": 52.53677547040034, "lng": 13.266495341933384, "labeledLatLngs": [{"label": "display", "lat": 52.53677547040034, "lng": 13.266495341933384}], "distance": 663, "postalCode": "13629", "cc": "DE", "city": "Berlin", "state": "Berlin", "country": "Deutschland", "formattedAddress": ["Nonnendammallee 97 (Wattstr.)", "13629 Berlin", "Deutschland"]}, "categories": [{"id": "4bf58dd8d48988d1ca941735", "name": "Pizza Place", "pluralName": "Pizza Places", "shortName": "Pizza", "icon": {"prefix": "https://ss3.4sqi.net/img/categories_v2/food/pizza_", "suffix": ".png"}, "primary": true}], "photos": {"count": 0, "groups": []}}, "referralId": "e-0-4e143094b61c18a826ff3bae-1"}, {"reasons": {"count": 0, "items": [{"summary": "This spot is popular", "type": "general", "reasonName": "globalInteractionReason"}]}, "venue": {"id": "4f9e982ce4b087d95ef5bd3e", "name": "Ital. Eis da Mauro", "location": {"address": "Nonnendammallee 89", "lat": 52.53675029039395, "lng": 13.271065440585321, "labeledLatLngs": [{"label": "display", "lat": 52.53675029039395, "lng": 13.271065440585321}], "distance": 955, "postalCode": "13627", "cc": "DE", "neighborhood": "Siemensstadt", "city": "Berlin", "state": "Berlin", "country": "Deutschland", "formattedAddress": ["Nonnendammallee 89", "13627 Berlin", "Deutschland"]}, "categories": [{"id": "4bf58dd8d48988d1c9941735", "name": "Ice Cream Shop", "pluralName": "Ice Cream Shops", "shortName": "Ice Cream", "icon": {"prefix": "https://ss3.4sqi.net/img/categories_v2/food/icecream_", "suffix": ".png"}, "primary": true}], "photos": {"count": 0, "groups": []}}, "referralId": "e-0-4f9e982ce4b087d95ef5bd3e-2"}, {"reasons": {"count": 0, "items": [{"summary": "This spot is popular", "type": "general", "reasonName": "globalInteractionReason"}]}, "venue": {"id": "4c5bd6ba6ebe2d7f856bce2e", "name": "Argentinisches Steakhaus", "location": {"address": "Nonnendammalle 98", "lat": 52.53683029837386, "lng": 13.265927146628668, "labeledLatLngs": [{"label": "display", "lat": 52.53683029837386, "lng": 13.265927146628668}], "distance": 626, "postalCode": "13629", "cc": "DE", "city": "Berlin", "state": "Berlin", "country": "Deutschland", "formattedAddress": ["Nonnendammalle 98", "13629 Berlin", "Deutschland"]}, "categories": [{"id": "4bf58dd8d48988d107941735", "name": "Argentinian Restaurant", "pluralName": "Argentinian Restaurants", "shortName": "Argentinian", "icon": {"prefix": "https://ss3.4sqi.net/img/categories_v2/food/argentinian_", "suffix": ".png"}, "primary": true}], "photos": {"count": 0, "groups": []}}, "referralId": "e-0-4c5bd6ba6ebe2d7f856bce2e-3"}, {"reasons": {"count": 0, "items": [{"summary": "This spot is popular", "type": "general", "reasonName": "globalInteractionReason"}]}, "venue": {"id": "4bdae77bc79cc9282f2d80e9", "name": "METRO Cash & Carry", "location": {"address": "Nonnendammallee 135", "lat": 52.5398034176966, "lng": 13.244978785514832, "labeledLatLngs": [{"label": "display", "lat": 52.5398034176966, "lng": 13.244978785514832}], "distance": 853, "postalCode": "13599", "cc": "DE", "city": "Berlin", "state": "Berlin", "country": "Deutschland", "formattedAddress": ["Nonnendammallee 135", "13599 Berlin", "Deutschland"]}, "categories": [{"id": "52f2ab2ebcbc57f1066b8b42", "name": "Big Box Store", "pluralName": "Big Box Stores", "shortName": "Big Box Store", "icon": {"prefix": "https://ss3.4sqi.net/img/categories_v2/shops/default_", "suffix": ".png"}, "primary": true}], "photos": {"count": 0, "groups": []}}, "referralId": "e-0-4bdae77bc79cc9282f2d80e9-4"}, {"reasons": {"count": 0, "items": [{"summary": "This spot is popular", "type": "general", "reasonName": "globalInteractionReason"}]}, "venue": {"id": "4c29aac3ce3fc9281a176f88", "name": "Sport Centrum Siemensstadt", "location": {"address": "Buolstr. 14", "crossStreet": "Rohrdamm", "lat": 52.54577374067258, "lng": 13.258652687072754, "labeledLatLngs": [{"label": "display", "lat": 52.54577374067258, "lng": 13.258652687072754}], "distance": 733, "postalCode": "13629", "cc": "DE", "city": "Berlin", "state": "Berlin", "country": "Deutschland", "formattedAddress": ["Buolstr. 14 (Rohrdamm)", "13629 Berlin", "Deutschland"]}, "categories": [{"id": "52e81612bcbc57f1066b7a26", "name": "Recreation Center", "pluralName": "Recreation Centers", "shortName": "Recreation Center", "icon": {"prefix": "https://ss3.4sqi.net/img/categories_v2/shops/sports_outdoors_", "suffix": ".png"}, "primary": true}], "photos": {"count": 0, "groups": []}, "venuePage": {"id": "34513316"}}, "referralId": "e-0-4c29aac3ce3fc9281a176f88-5"}, {"reasons": {"count": 0, "items": [{"summary": "This spot is popular", "type": "general", "reasonName": "globalInteractionReason"}]}, "venue": {"id": "4d7cd9dff260a093315c41ba", "name": "BabyOne", "location": {"address": "Nonnendammallee 117", "lat": 52.53902734704677, "lng": 13.250416346133532, "labeledLatLngs": [{"label": "display", "lat": 52.53902734704677, "lng": 13.250416346133532}], "distance": 483, "postalCode": "13629", "cc": "DE", "city": "Berlin", "state": "Berlin", "country": "Deutschland", "formattedAddress": ["Nonnendammallee 117", "13629 Berlin", "Deutschland"]}, "categories": [{"id": "52f2ab2ebcbc57f1066b8b32", "name": "Baby Store", "pluralName": "Baby Stores", "shortName": "Baby Store", "icon": {"prefix": "https://ss3.4sqi.net/img/categories_v2/shops/apparel_kids_", "suffix": ".png"}, "primary": true}], "photos": {"count": 0, "groups": []}}, "referralId": "e-0-4d7cd9dff260a093315c41ba-6"}, {"reasons": {"count": 0, "items": [{"summary": "This spot is popular", "type": "general", "reasonName": "globalInteractionReason"}]}, "venue": {"id": "4d2886013c795481abf5ce9b", "name": "SUBWAY", "location": {"address": "Nonnendammallee 119", "crossStreet": "Siemensstadt-Park", "lat": 52.53895859638595, "lng": 13.250606279762223, "labeledLatLngs": [{"label": "display", "lat": 52.53895859638595, "lng": 13.250606279762223}], "distance": 471, "postalCode": "13629", "cc": "DE", "city": "Berlin", "state": "Berlin", "country": "Deutschland", "formattedAddress": ["Nonnendammallee 119 (Siemensstadt-Park)", "13629 Berlin", "Deutschland"]}, "categories": [{"id": "4bf58dd8d48988d1c5941735", "name": "Sandwich Place", "pluralName": "Sandwich Places", "shortName": "Sandwiches", "icon": {"prefix": "https://ss3.4sqi.net/img/categories_v2/food/deli_", "suffix": ".png"}, "primary": true}], "photos": {"count": 0, "groups": []}, "venuePage": {"id": "575010638"}}, "referralId": "e-0-4d2886013c795481abf5ce9b-7"}, {"reasons": {"count": 0, "items": [{"summary": "This spot is popular", "type": "general", "reasonName": "globalInteractionReason"}]}, "venue": {"id": "4b38cfcbf964a520975025e3", "name": "Burger King", "location": {"address": "Paulsternstr. 16", "lat": 52.53997032482899, "lng": 13.248804982458063, "labeledLatLngs": [{"label": "display", "lat": 52.53997032482899, "lng": 13.248804982458063}], "distance": 598, "postalCode": "13629", "cc": "DE", "city": "Berlin", "state": "Berlin", "country": "Deutschland", "formattedAddress": ["Paulsternstr. 16", "13629 Berlin", "Deutschland"]}, "categories": [{"id": "4bf58dd8d48988d16e941735", "name": "Fast Food Restaurant", "pluralName": "Fast Food Restaurants", "shortName": "Fast Food", "icon": {"prefix": "https://ss3.4sqi.net/img/categories_v2/food/fastfood_", "suffix": ".png"}, "primary": true}], "photos": {"count": 0, "groups": []}}, "referralId": "e-0-4b38cfcbf964a520975025e3-8"}, {"reasons": {"count": 0, "items": [{"summary": "This spot is popular", "type": "general", "reasonName": "globalInteractionReason"}]}, "venue": {"id": "4fb77af9e4b0363b12001871", "name": "SB M\u00f6bel Boss", "location": {"address": "Nonnendammallee 118", "lat": 52.539288177606124, "lng": 13.251057557088604, "labeledLatLngs": [{"label": "display", "lat": 52.539288177606124, "lng": 13.251057557088604}], "distance": 439, "postalCode": "13629", "cc": "DE", "city": "Berlin", "state": "Berlin", "country": "Deutschland", "formattedAddress": ["Nonnendammallee 118", "13629 Berlin", "Deutschland"]}, "categories": [{"id": "4bf58dd8d48988d1f8941735", "name": "Furniture / Home Store", "pluralName": "Furniture / Home Stores", "shortName": "Furniture / Home", "icon": {"prefix": "https://ss3.4sqi.net/img/categories_v2/shops/furniture_", "suffix": ".png"}, "primary": true}], "photos": {"count": 0, "groups": []}, "venuePage": {"id": "579569499"}}, "referralId": "e-0-4fb77af9e4b0363b12001871-9"}, {"reasons": {"count": 0, "items": [{"summary": "This spot is popular", "type": "general", "reasonName": "globalInteractionReason"}]}, "venue": {"id": "4d289d6e849f370465b67541", "name": "Bambooland", "location": {"address": "Nonnedammallee 117", "lat": 52.53898662446252, "lng": 13.25041261217226, "labeledLatLngs": [{"label": "display", "lat": 52.53898662446252, "lng": 13.25041261217226}], "distance": 484, "postalCode": "13629", "cc": "DE", "city": "Berlin", "state": "Berlin", "country": "Deutschland", "formattedAddress": ["Nonnedammallee 117", "13629 Berlin", "Deutschland"]}, "categories": [{"id": "4bf58dd8d48988d1e7941735", "name": "Playground", "pluralName": "Playgrounds", "shortName": "Playground", "icon": {"prefix": "https://ss3.4sqi.net/img/categories_v2/parks_outdoors/playground_", "suffix": ".png"}, "primary": true}], "photos": {"count": 0, "groups": []}}, "referralId": "e-0-4d289d6e849f370465b67541-10"}, {"reasons": {"count": 0, "items": [{"summary": "This spot is popular", "type": "general", "reasonName": "globalInteractionReason"}]}, "venue": {"id": "4bfa64168d30d13ade780318", "name": "U Rohrdamm", "location": {"address": "Nonnendammallee", "crossStreet": "Rohrdamm", "lat": 52.53695534927465, "lng": 13.263806320288202, "labeledLatLngs": [{"label": "display", "lat": 52.53695534927465, "lng": 13.263806320288202}], "distance": 492, "postalCode": "13629", "cc": "DE", "city": "Berlin", "state": "Berlin", "country": "Deutschland", "formattedAddress": ["Nonnendammallee (Rohrdamm)", "13629 Berlin", "Deutschland"]}, "categories": [{"id": "4bf58dd8d48988d1fd931735", "name": "Metro Station", "pluralName": "Metro Stations", "shortName": "Metro", "icon": {"prefix": "https://ss3.4sqi.net/img/categories_v2/travel/subway_", "suffix": ".png"}, "primary": true}], "photos": {"count": 0, "groups": []}}, "referralId": "e-0-4bfa64168d30d13ade780318-11"}, {"reasons": {"count": 0, "items": [{"summary": "This spot is popular", "type": "general", "reasonName": "globalInteractionReason"}]}, "venue": {"id": "511a260ee4b073159ee17193", "name": "K\u00fcchen Aktuell", "location": {"address": "Nonnendammallee 119", "lat": 52.539415531631306, "lng": 13.250144906394663, "labeledLatLngs": [{"label": "display", "lat": 52.539415531631306, "lng": 13.250144906394663}], "distance": 502, "postalCode": "13629", "cc": "DE", "city": "Berlin", "state": "Berlin", "country": "Deutschland", "formattedAddress": ["Nonnendammallee 119", "13629 Berlin", "Deutschland"]}, "categories": [{"id": "4bf58dd8d48988d1f8941735", "name": "Furniture / Home Store", "pluralName": "Furniture / Home Stores", "shortName": "Furniture / Home", "icon": {"prefix": "https://ss3.4sqi.net/img/categories_v2/shops/furniture_", "suffix": ".png"}, "primary": true}], "photos": {"count": 0, "groups": []}}, "referralId": "e-0-511a260ee4b073159ee17193-12"}, {"reasons": {"count": 0, "items": [{"summary": "This spot is popular", "type": "general", "reasonName": "globalInteractionReason"}]}, "venue": {"id": "4d5cc7df590b224ba8dea46d", "name": "REWE", "location": {"address": "Nonnendammallee 120", "lat": 52.54007113003847, "lng": 13.249118627780717, "labeledLatLngs": [{"label": "display", "lat": 52.54007113003847, "lng": 13.249118627780717}], "distance": 578, "postalCode": "13629", "cc": "DE", "city": "Berlin", "state": "Berlin", "country": "Deutschland", "formattedAddress": ["Nonnendammallee 120", "13629 Berlin", "Deutschland"]}, "categories": [{"id": "52f2ab2ebcbc57f1066b8b46", "name": "Supermarket", "pluralName": "Supermarkets", "shortName": "Supermarket", "icon": {"prefix": "https://ss3.4sqi.net/img/categories_v2/shops/food_grocery_", "suffix": ".png"}, "primary": true}], "photos": {"count": 0, "groups": []}, "venuePage": {"id": "557869845"}}, "referralId": "e-0-4d5cc7df590b224ba8dea46d-13"}, {"reasons": {"count": 0, "items": [{"summary": "This spot is popular", "type": "general", "reasonName": "globalInteractionReason"}]}, "venue": {"id": "504dd176e4b037e086783ba3", "name": "Hoi An", "location": {"address": "Paulsternstra\u00dfe 4", "lat": 52.53827457263588, "lng": 13.248338421724506, "labeledLatLngs": [{"label": "display", "lat": 52.53827457263588, "lng": 13.248338421724506}], "distance": 632, "postalCode": "13629", "cc": "DE", "city": "Berlin", "state": "Berlin", "country": "Deutschland", "formattedAddress": ["Paulsternstra\u00dfe 4", "13629 Berlin", "Deutschland"]}, "categories": [{"id": "4bf58dd8d48988d142941735", "name": "Asian Restaurant", "pluralName": "Asian Restaurants", "shortName": "Asian", "icon": {"prefix": "https://ss3.4sqi.net/img/categories_v2/food/asian_", "suffix": ".png"}, "primary": true}], "photos": {"count": 0, "groups": []}}, "referralId": "e-0-504dd176e4b037e086783ba3-14"}, {"reasons": {"count": 0, "items": [{"summary": "This spot is popular", "type": "general", "reasonName": "globalInteractionReason"}]}, "venue": {"id": "4bb4da67f1b976b0cb6d1f20", "name": "U Paulsternstra\u00dfe", "location": {"address": "Nonnendammallee", "crossStreet": "Paulsternstr.", "lat": 52.53795626325414, "lng": 13.248367242454007, "labeledLatLngs": [{"label": "display", "lat": 52.53795626325414, "lng": 13.248367242454007}], "distance": 637, "postalCode": "13599", "cc": "DE", "city": "Berlin", "state": "Berlin", "country": "Deutschland", "formattedAddress": ["Nonnendammallee (Paulsternstr.)", "13599 Berlin", "Deutschland"]}, "categories": [{"id": "4bf58dd8d48988d1fd931735", "name": "Metro Station", "pluralName": "Metro Stations", "shortName": "Metro", "icon": {"prefix": "https://ss3.4sqi.net/img/categories_v2/travel/subway_", "suffix": ".png"}, "primary": true}], "photos": {"count": 0, "groups": []}}, "referralId": "e-0-4bb4da67f1b976b0cb6d1f20-15"}, {"reasons": {"count": 0, "items": [{"summary": "This spot is popular", "type": "general", "reasonName": "globalInteractionReason"}]}, "venue": {"id": "553e1ae1498e0272f077acfd", "name": "ALDI NORD", "location": {"address": "Paulsternstr. 20", "lat": 52.54117556365418, "lng": 13.248372050714508, "labeledLatLngs": [{"label": "display", "lat": 52.54117556365418, "lng": 13.248372050714508}], "distance": 658, "postalCode": "13599", "cc": "DE", "neighborhood": "Gartenfeld", "city": "Berlin", "state": "Berlin", "country": "Deutschland", "formattedAddress": ["Paulsternstr. 20", "13599 Berlin", "Deutschland"]}, "categories": [{"id": "52f2ab2ebcbc57f1066b8b46", "name": "Supermarket", "pluralName": "Supermarkets", "shortName": "Supermarket", "icon": {"prefix": "https://ss3.4sqi.net/img/categories_v2/shops/food_grocery_", "suffix": ".png"}, "primary": true}], "photos": {"count": 0, "groups": []}}, "referralId": "e-0-553e1ae1498e0272f077acfd-16"}, {"reasons": {"count": 0, "items": [{"summary": "This spot is popular", "type": "general", "reasonName": "globalInteractionReason"}]}, "venue": {"id": "4c14afbea1010f47c9d24c18", "name": "SC Siemensstadt", "location": {"address": "Buolstr. 14", "lat": 52.54531239880685, "lng": 13.258905537681969, "distance": 684, "postalCode": "13629", "cc": "DE", "city": "Berlin", "state": "Berlin", "country": "Deutschland", "formattedAddress": ["Buolstr. 14", "13629 Berlin", "Deutschland"]}, "categories": [{"id": "52e81612bcbc57f1066b7a2e", "name": "Sports Club", "pluralName": "Sports Clubs", "shortName": "Sports Club", "icon": {"prefix": "https://ss3.4sqi.net/img/categories_v2/shops/sports_outdoors_", "suffix": ".png"}, "primary": true}], "photos": {"count": 0, "groups": []}}, "referralId": "e-0-4c14afbea1010f47c9d24c18-17"}, {"reasons": {"count": 0, "items": [{"summary": "This spot is popular", "type": "general", "reasonName": "globalInteractionReason"}]}, "venue": {"id": "4d4470ce7c55594184f11bd2", "name": "Hai-Life Musikcaf\u00e9", "location": {"address": "Nonnendammallee 94", "crossStreet": "Quellweg", "lat": 52.536766146536266, "lng": 13.268205862939393, "labeledLatLngs": [{"label": "display", "lat": 52.536766146536266, "lng": 13.268205862939393}], "distance": 771, "postalCode": "13629", "cc": "DE", "city": "Berlin", "state": "Berlin", "country": "Deutschland", "formattedAddress": ["Nonnendammallee 94 (Quellweg)", "13629 Berlin", "Deutschland"]}, "categories": [{"id": "4bf58dd8d48988d16d941735", "name": "Caf\u00e9", "pluralName": "Caf\u00e9s", "shortName": "Caf\u00e9", "icon": {"prefix": "https://ss3.4sqi.net/img/categories_v2/food/cafe_", "suffix": ".png"}, "primary": true}], "photos": {"count": 0, "groups": []}}, "referralId": "e-0-4d4470ce7c55594184f11bd2-18"}, {"reasons": {"count": 0, "items": [{"summary": "This spot is popular", "type": "general", "reasonName": "globalInteractionReason"}]}, "venue": {"id": "4bfc08ccd6f2c9b624984ec8", "name": "Wilhelm-von-Siemens-Park", "location": {"address": "Dihlmannstr.", "crossStreet": "Rohrdamm", "lat": 52.543411808333666, "lng": 13.26674222946167, "labeledLatLngs": [{"label": "display", "lat": 52.543411808333666, "lng": 13.26674222946167}], "distance": 777, "postalCode": "13629", "cc": "DE", "city": "Berlin", "state": "Berlin", "country": "Deutschland", "formattedAddress": ["Dihlmannstr. (Rohrdamm)", "13629 Berlin", "Deutschland"]}, "categories": [{"id": "4bf58dd8d48988d163941735", "name": "Park", "pluralName": "Parks", "shortName": "Park", "icon": {"prefix": "https://ss3.4sqi.net/img/categories_v2/parks_outdoors/park_", "suffix": ".png"}, "primary": true}], "photos": {"count": 0, "groups": []}}, "referralId": "e-0-4bfc08ccd6f2c9b624984ec8-19"}, {"reasons": {"count": 0, "items": [{"summary": "This spot is popular", "type": "general", "reasonName": "globalInteractionReason"}]}, "venue": {"id": "534022b5498e3037ac48454a", "name": "Brunnen", "location": {"lat": 52.53812789916992, "lng": 13.270186424255371, "labeledLatLngs": [{"label": "display", "lat": 52.53812789916992, "lng": 13.270186424255371}], "distance": 863, "postalCode": "13629", "cc": "DE", "neighborhood": "Siemensstadt", "city": "Berlin", "state": "Berlin", "country": "Deutschland", "formattedAddress": ["13629 Berlin", "Deutschland"]}, "categories": [{"id": "507c8c4091d498d9fc8c67a9", "name": "Public Art", "pluralName": "Public Art", "shortName": "Public Art", "icon": {"prefix": "https://ss3.4sqi.net/img/categories_v2/arts_entertainment/default_", "suffix": ".png"}, "primary": true}], "photos": {"count": 0, "groups": []}}, "referralId": "e-0-534022b5498e3037ac48454a-20"}, {"reasons": {"count": 0, "items": [{"summary": "This spot is popular", "type": "general", "reasonName": "globalInteractionReason"}]}, "venue": {"id": "4f4b803ee4b0922ac86038c6", "name": "Dallmayr Caf\u00e9 & Bar", "location": {"address": "Wernerwerkdamm 5", "crossStreet": "Haus 1", "lat": 52.53425508933133, "lng": 13.26856534556858, "labeledLatLngs": [{"label": "display", "lat": 52.53425508933133, "lng": 13.26856534556858}], "distance": 928, "postalCode": "13629", "cc": "DE", "city": "Berlin", "state": "Berlin", "country": "Deutschland", "formattedAddress": ["Wernerwerkdamm 5 (Haus 1)", "13629 Berlin", "Deutschland"]}, "categories": [{"id": "4bf58dd8d48988d1e0931735", "name": "Coffee Shop", "pluralName": "Coffee Shops", "shortName": "Coffee Shop", "icon": {"prefix": "https://ss3.4sqi.net/img/categories_v2/food/coffeeshop_", "suffix": ".png"}, "primary": true}], "photos": {"count": 0, "groups": []}}, "referralId": "e-0-4f4b803ee4b0922ac86038c6-21"}, {"reasons": {"count": 0, "items": [{"summary": "This spot is popular", "type": "general", "reasonName": "globalInteractionReason"}]}, "venue": {"id": "4ca732bfb7106dcb634165a5", "name": "OBI", "location": {"address": "Nonnendammallee 121", "lat": 52.53873225376276, "lng": 13.24887004597968, "labeledLatLngs": [{"label": "display", "lat": 52.53873225376276, "lng": 13.24887004597968}], "distance": 590, "postalCode": "13629", "cc": "DE", "city": "Berlin", "state": "Berlin", "country": "Deutschland", "formattedAddress": ["Nonnendammallee 121", "13629 Berlin-Spandau", "Deutschland"]}, "categories": [{"id": "4bf58dd8d48988d112951735", "name": "Hardware Store", "pluralName": "Hardware Stores", "shortName": "Hardware", "icon": {"prefix": "https://ss3.4sqi.net/img/categories_v2/shops/hardware_", "suffix": ".png"}, "primary": true}], "photos": {"count": 0, "groups": []}}, "referralId": "e-0-4ca732bfb7106dcb634165a5-22"}, {"reasons": {"count": 0, "items": [{"summary": "This spot is popular", "type": "general", "reasonName": "globalInteractionReason"}]}, "venue": {"id": "4f7464b2e4b0250b713c7bb2", "name": "H Paulsternstra\u00dfe / Gartenfelder Stra\u00dfe", "location": {"address": "Gartenfelder Str.", "crossStreet": "Paulsternstr.", "lat": 52.54426614046797, "lng": 13.24622970672781, "labeledLatLngs": [{"label": "display", "lat": 52.54426614046797, "lng": 13.24622970672781}], "distance": 950, "postalCode": "13599", "cc": "DE", "city": "Berlin", "state": "Berlin", "country": "Deutschland", "formattedAddress": ["Gartenfelder Str. (Paulsternstr.)", "13599 Berlin", "Deutschland"]}, "categories": [{"id": "52f2ab2ebcbc57f1066b8b4f", "name": "Bus Stop", "pluralName": "Bus Stops", "shortName": "Bus Stop", "icon": {"prefix": "https://ss3.4sqi.net/img/categories_v2/travel/busstation_", "suffix": ".png"}, "primary": true}], "photos": {"count": 0, "groups": []}}, "referralId": "e-0-4f7464b2e4b0250b713c7bb2-23"}]