[{"reasons": {"count": 0, "items": [{"summary": "This spot is popular", "type": "general", "reasonName": "globalInteractionReason"}]}, "venue": {"id": "4adcda81f964a520784821e3", "name": "Berlinische Galerie", "location": {"address": "Alte Jakobstr. 124-128", "lat": 52.50349443401274, "lng": 13.398402651232848, "labeledLatLngs": [{"label": "display", "lat": 52.50349443401274, "lng": 13.398402651232848}], "distance": 154, "postalCode": "10969", "cc": "DE", "city": "Berlin", "state": "Berlin", "country": "Deutschland", "formattedAddress": ["Alte Jakobstr. 124-128", "10969 Berlin", "Deutschland"]}, "categories": [{"id": "4bf58dd8d48988d18f941735", "name": "Art Museum", "pluralName": "Art Museums", "shortName": "Art Museum", "icon": {"prefix": "https://ss3.4sqi.net/img/categories_v2/arts_entertainment/museum_art_", "suffix": ".png"}, "primary": true}], "photos": {"count": 0, "groups": []}}, "referralId": "e-0-4adcda81f964a520784821e3-0"}, {"reasons": {"count": 0, "items": [{"summary": "This spot is popular", "type": "general", "reasonName": "globalInteractionReason"}]}, "venue": {"id": "5b36892ad48ec1002c68a10b", "name": "NaNum", "location": {"address": "Lindenstr.90, 10969 Berlin-Kreuzberg", "lat": 52.502560299809886, "lng": 13.394136428833008, "labeledLatLngs": [{"label": "display", "lat": 52.502560299809886, "lng": 13.394136428833008}], "distance": 228, "postalCode": "10969", "cc": "DE", "city": "Berlin", "state": "Berlin", "country": "Deutschland", "formattedAddress": ["Lindenstr.90, 10969 Berlin-Kreuzberg", "10969 Berlin", "Deutschland"]}, "categories": [{"id": "4bf58dd8d48988d113941735", "name": "Korean Restaurant", "pluralName": "Korean Restaurants", "shortName": "Korean", "icon": {"prefix": "https://ss3.4sqi.net/img/categories_v2/food/korean_", "suffix": ".png"}, "primary": true}], "photos": {"count": 0, "groups": []}}, "referralId": "e-0-5b36892ad48ec1002c68a10b-1"}, {"reasons": {"count": 0, "items": [{"summary": "This spot is popular", "type": "general", "reasonName": "globalInteractionReason"}]}, "venue": {"id": "5138d0c6e4b03cf69cbc4441", "name": "St. Agnes", "location": {"address": "Alexandrinenstr. 118-121", "lat": 52.500645241285184, "lng": 13.40104614278766, "labeledLatLngs": [{"label": "display", "lat": 52.500645241285184, "lng": 13.40104614278766}], "distance": 300, "postalCode": "10969", "cc": "DE", "city": "Berlin", "state": "Berlin", "country": "Deutschland", "formattedAddress": ["Alexandrinenstr. 118-121", "10969 Berlin", "Deutschland"]}, "categories": [{"id": "4bf58dd8d48988d1e2931735", "name": "Art Gallery", "pluralName": "Art Galleries", "shortName": "Art Gallery", "icon": {"prefix": "https://ss3.4sqi.net/img/categories_v2/arts_entertainment/artgallery_", "suffix": ".png"}, "primary": true}], "photos": {"count": 0, "groups": []}}, "referralId": "e-0-5138d0c6e4b03cf69cbc4441-2"}, {"reasons": {"count": 0, "items": [{"summary": "This spot is popular", "type": "general", "reasonName": "globalInteractionReason"}]}, "venue": {"id": "56927984498e1afb37ad631c", "name": "K\u00f6nig Gallery", "location": {"address": "Alexandrinenstr. 181-121", "lat": 52.5007963346421, "lng": 13.40108333958754, "labeledLatLngs": [{"label": "display", "lat": 52.5007963346421, "lng": 13.40108333958754}], "distance": 292, "postalCode": "10969", "cc": "DE", "city": "Berlin", "state": "Berlin", "country": "Deutschland", "formattedAddress": ["Alexandrinenstr. 181-121", "10969 Berlin", "Deutschland"]}, "categories": [{"id": "4bf58dd8d48988d1e2931735", "name": "Art Gallery", "pluralName": "Art Galleries", "shortName": "Art Gallery", "icon": {"prefix": "https://ss3.4sqi.net/img/categories_v2/arts_entertainment/artgallery_", "suffix": ".png"}, "primary": true}], "photos": {"count": 0, "groups": []}}, "referralId": "e-0-56927984498e1afb37ad631c-3"}, {"reasons": {"count": 0, "items": [{"summary": "This spot is popular", "type": "general", "reasonName": "globalInteractionReason"}]}, "venue": {"id": "4adcda81f964a520584821e3", "name": "J\u00fcdisches Museum Berlin", "location": {"address": "Lindenstr. 9-14", "crossStreet": "Am Berlin Museum", "lat": 52.501946388929426, "lng": 13.395241498947144, "labeledLatLngs": [{"label": "display", "lat": 52.501946388929426, "lng": 13.395241498947144}], "distance": 154, "postalCode": "10969", "cc": "DE", "neighborhood": "Kreuzberg", "city": "Berlin", "state": "Berlin", "country": "Deutschland", "formattedAddress": ["Lindenstr. 9-14 (Am Berlin Museum)", "10969 Berlin", "Deutschland"]}, "categories": [{"id": "4bf58dd8d48988d190941735", "name": "History Museum", "pluralName": "History Museums", "shortName": "History Museum", "icon": {"prefix": "https://ss3.4sqi.net/img/categories_v2/arts_entertainment/museum_history_", "suffix": ".png"}, "primary": true}], "photos": {"count": 0, "groups": []}}, "referralId": "e-0-4adcda81f964a520584821e3-4"}, {"reasons": {"count": 0, "items": [{"summary": "This spot is popular", "type": "general", "reasonName": "globalInteractionReason"}]}, "venue": {"id": "4ece57574690a03b5afb46e4", "name": "MAHLZEIT Kreuzberg", "location": {"address": "Alexandrinenstr. 1a", "lat": 52.49889271281548, "lng": 13.400009368629338, "labeledLatLngs": [{"label": "display", "lat": 52.49889271281548, "lng": 13.400009368629338}], "distance": 409, "postalCode": "10969", "cc": "DE", "city": "Berlin", "state": "Berlin", "country": "Deutschland", "formattedAddress": ["Alexandrinenstr. 1a", "10969 Berlin", "Deutschland"]}, "categories": [{"id": "52e81612bcbc57f1066b79f1", "name": "Bistro", "pluralName": "Bistros", "shortName": "Bistro", "icon": {"prefix": "https://ss3.4sqi.net/img/categories_v2/food/default_", "suffix": ".png"}, "primary": true}], "photos": {"count": 0, "groups": []}}, "referralId": "e-0-4ece57574690a03b5afb46e4-5"}, {"reasons": {"count": 0, "items": [{"summary": "This spot is popular", "type": "general", "reasonName": "globalInteractionReason"}]}, "venue": {"id": "54920b4b498eac4fe2056cc7", "name": "Nobelhart & Schmutzig", "location": {"address": "Friedrichstr. 218", "crossStreet": "Kochstr.", "lat": 52.50533, "lng": 13.390483, "labeledLatLngs": [{"label": "display", "lat": 52.50533, "lng": 13.390483}], "distance": 585, "postalCode": "10969", "cc": "DE", "neighborhood": "Kreuzberg", "city": "Berlin", "state": "Berlin", "country": "Deutschland", "formattedAddress": ["Friedrichstr. 218 (Kochstr.)", "10969 Berlin", "Deutschland"]}, "categories": [{"id": "52e81612bcbc57f1066b79f9", "name": "Modern European Restaurant", "pluralName": "Modern European Restaurants", "shortName": "Modern European", "icon": {"prefix": "https://ss3.4sqi.net/img/categories_v2/food/default_", "suffix": ".png"}, "primary": true}], "photos": {"count": 0, "groups": []}, "venuePage": {"id": "106521002"}}, "referralId": "e-0-54920b4b498eac4fe2056cc7-6"}, {"reasons": {"count": 0, "items": [{"summary": "This spot is popular", "type": "general", "reasonName": "globalInteractionReason"}]}, "venue": {"id": "521cbef011d20310a7b03da3", "name": "Charlotte 1", "location": {"address": "Charlottenstr. 1", "lat": 52.505344, "lng": 13.393114, "labeledLatLngs": [{"label": "display", "lat": 52.505344, "lng": 13.393114}], "distance": 454, "postalCode": "10969", "cc": "DE", "city": "Berlin", "state": "Berlin", "country": "Deutschland", "formattedAddress": ["Charlottenstr. 1", "10969 Berlin", "Deutschland"]}, "categories": [{"id": "4bf58dd8d48988d110941735", "name": "Italian Restaurant", "pluralName": "Italian Restaurants", "shortName": "Italian", "icon": {"prefix": "https://ss3.4sqi.net/img/categories_v2/food/italian_", "suffix": ".png"}, "primary": true}], "photos": {"count": 0, "groups": []}}, "referralId": "e-0-521cbef011d20310a7b03da3-7"}, {"reasons": {"count": 0, "items": [{"summary": "This spot is popular", "type": "general", "reasonName": "globalInteractionReason"}]}, "venue": {"id": "4adcda8af964a520b54921e3", "name": "Tiyatrom", "location": {"address": "Alte Jakobstr. 12", "lat": 52.50404884927763, "lng": 13.39924998591818, "labeledLatLngs": [{"label": "display", "lat": 52.50404884927763, "lng": 13.39924998591818}], "distance": 235, "postalCode": "10969", "cc": "DE", "city": "Berlin", "state": "Berlin", "country": "Deutschland", "formattedAddress": ["Alte Jakobstr. 12", "10969 Berlin", "Deutschland"]}, "categories": [{"id": "4bf58dd8d48988d137941735", "name": "Theater", "pluralName": "Theaters", "shortName": "Theater", "icon": {"prefix": "https://ss3.4sqi.net/img/categories_v2/arts_entertainment/performingarts_theater_", "suffix": ".png"}, "primary": true}], "photos": {"count": 0, "groups": []}}, "referralId": "e-0-4adcda8af964a520b54921e3-8"}, {"reasons": {"count": 0, "items": [{"summary": "This spot is popular", "type": "general", "reasonName": "globalInteractionReason"}]}, "venue": {"id": "50813986e4b0ba1a30a13d60", "name": "westberlin", "location": {"address": "Friedrichstr. 215", "lat": 52.50579145371837, "lng": 13.390610929329334, "labeledLatLngs": [{"label": "display", "lat": 52.50579145371837, "lng": 13.390610929329334}], "distance": 610, "postalCode": "10969", "cc": "DE", "city": "Berlin", "state": "Berlin", "country": "Deutschland", "formattedAddress": ["Friedrichstr. 215", "10969 Berlin", "Deutschland"]}, "categories": [{"id": "4bf58dd8d48988d1e0931735", "name": "Coffee Shop", "pluralName": "Coffee Shops", "shortName": "Coffee Shop", "icon": {"prefix": "https://ss3.4sqi.net/img/categories_v2/food/coffeeshop_", "suffix": ".png"}, "primary": true}], "photos": {"count": 0, "groups": []}, "venuePage": {"id": "50177224"}}, "referralId": "e-0-50813986e4b0ba1a30a13d60-9"}, {"reasons": {"count": 0, "items": [{"summary": "This spot is popular", "type": "general", "reasonName": "globalInteractionReason"}]}, "venue": {"id": "4f9d565ae4b087d95e1357c3", "name": "Carlier | Gebauer", "location": {"address": "Markgrafenstra\u00dfe 67", "lat": 52.505787477254415, "lng": 13.394153061607286, "labeledLatLngs": [{"label": "display", "lat": 52.505787477254415, "lng": 13.394153061607286}], "distance": 455, "postalCode": "D-10969", "cc": "DE", "city": "Berlin", "state": "Berlin", "country": "Deutschland", "formattedAddress": ["Markgrafenstra\u00dfe 67", "D-10969 Berlin", "Deutschland"]}, "categories": [{"id": "4bf58dd8d48988d1e2931735", "name": "Art Gallery", "pluralName": "Art Galleries", "shortName": "Art Gallery", "icon": {"prefix": "https://ss3.4sqi.net/img/categories_v2/arts_entertainment/artgallery_", "suffix": ".png"}, "primary": true}], "photos": {"count": 0, "groups": []}}, "referralId": "e-0-4f9d565ae4b087d95e1357c3-10"}, {"reasons": {"count": 0, "items": [{"summary": "This spot is popular", "type": "general", "reasonName": "globalInteractionReason"}]}, "venue": {"id": "5cc2d907286fda003976e32b", "name": "Alsancak Simit Saray\u0131", "location": {"lat": 52.495948, "lng": 13.395356, "labeledLatLngs": [{"label": "display", "lat": 52.495948, "lng": 13.395356}], "distance": 714, "cc": "DE", "city": "Berlin", "state": "Berlin", "country": "Deutschland", "formattedAddress": ["Berlin", "Deutschland"]}, "categories": [{"id": "4f04af1f2fb6e1c99f3db0bb", "name": "Turkish Restaurant", "pluralName": "Turkish Restaurants", "shortName": "Turkish", "icon": {"prefix": "https://ss3.4sqi.net/img/categories_v2/food/turkish_", "suffix": ".png"}, "primary": true}], "photos": {"count": 0, "groups": []}}, "referralId": "e-0-5cc2d907286fda003976e32b-11"}, {"reasons": {"count": 0, "items": [{"summary": "This spot is popular", "type": "general", "reasonName": "globalInteractionReason"}]}, "venue": {"id": "4adcda83f964a520bc4821e3", "name": "Altes Zollhaus", "location": {"address": "Carl-Herz-Ufer 30", "lat": 52.49659220630421, "lng": 13.40122178935574, "labeledLatLngs": [{"label": "display", "lat": 52.49659220630421, "lng": 13.40122178935574}], "distance": 677, "postalCode": "10961", "cc": "DE", "city": "Berlin", "state": "Berlin", "country": "Deutschland", "formattedAddress": ["Carl-Herz-Ufer 30", "10961 Berlin", "Deutschland"]}, "categories": [{"id": "4bf58dd8d48988d123941735", "name": "Wine Bar", "pluralName": "Wine Bars", "shortName": "Wine Bar", "icon": {"prefix": "https://ss3.4sqi.net/img/categories_v2/food/winery_", "suffix": ".png"}, "primary": true}], "photos": {"count": 0, "groups": []}}, "referralId": "e-0-4adcda83f964a520bc4821e3-12"}, {"reasons": {"count": 0, "items": [{"summary": "This spot is popular", "type": "general", "reasonName": "globalInteractionReason"}]}, "venue": {"id": "4b5f3109f964a5203eac29e3", "name": "Paracas", "location": {"address": "Friedrichstr. 12", "lat": 52.50158732226628, "lng": 13.391445750901426, "labeledLatLngs": [{"label": "display", "lat": 52.50158732226628, "lng": 13.391445750901426}], "distance": 414, "postalCode": "10969", "cc": "DE", "city": "Berlin", "state": "Berlin", "country": "Deutschland", "formattedAddress": ["Friedrichstr. 12", "10969 Berlin", "Deutschland"]}, "categories": [{"id": "4eb1bfa43b7b52c0e1adc2e8", "name": "Peruvian Restaurant", "pluralName": "Peruvian Restaurants", "shortName": "Peruvian", "icon": {"prefix": "https://ss3.4sqi.net/img/categories_v2/food/peruvian_", "suffix": ".png"}, "primary": true}], "photos": {"count": 0, "groups": []}}, "referralId": "e-0-4b5f3109f964a5203eac29e3-13"}, {"reasons": {"count": 0, "items": [{"summary": "This spot is popular", "type": "general", "reasonName": "globalInteractionReason"}]}, "venue": {"id": "5d4153ddaba95e0008205a18", "name": "Caf\u00e9 Nullpunkt", "location": {"address": "Friedrichstrasse 23B", "crossStreet": "Fromet-und-Moses-Mendelssohn-Platz", "lat": 52.5033962497766, "lng": 13.392398357391357, "labeledLatLngs": [{"label": "display", "lat": 52.5033962497766, "lng": 13.392398357391357}], "distance": 367, "postalCode": "10969", "cc": "DE", "city": "Berlin", "state": "Berlin", "country": "Deutschland", "formattedAddress": ["Friedrichstrasse 23B (Fromet-und-Moses-Mendelssohn-Platz)", "10969 Berlin", "Deutschland"]}, "categories": [{"id": "4bf58dd8d48988d1d3941735", "name": "Vegetarian / Vegan Restaurant", "pluralName": "Vegetarian / Vegan Restaurants", "shortName": "Vegetarian / Vegan", "icon": {"prefix": "https://ss3.4sqi.net/img/categories_v2/food/vegetarian_", "suffix": ".png"}, "primary": true}], "photos": {"count": 0, "groups": []}, "venuePage": {"id": "551788854"}}, "referralId": "e-0-5d4153ddaba95e0008205a18-14"}, {"reasons": {"count": 0, "items": [{"summary": "This spot is popular", "type": "general", "reasonName": "globalInteractionReason"}]}, "venue": {"id": "58e37dba5f671703a0ac8504", "name": "Chupenga", "location": {"address": "Charlottenstr. 4", "crossStreet": "Rudi-Dutschke-Str.", "lat": 52.50629052412916, "lng": 13.392837328451982, "labeledLatLngs": [{"label": "display", "lat": 52.50629052412916, "lng": 13.392837328451982}], "distance": 550, "postalCode": "10969", "cc": "DE", "neighborhood": "Kreuzberg", "city": "Berlin", "state": "Berlin", "country": "Deutschland", "formattedAddress": ["Charlottenstr. 4 (Rudi-Dutschke-Str.)", "10969 Berlin", "Deutschland"]}, "categories": [{"id": "4bf58dd8d48988d153941735", "name": "Burrito Place", "pluralName": "Burrito Places", "shortName": "Burritos", "icon": {"prefix": "https://ss3.4sqi.net/img/categories_v2/food/burrito_", "suffix": ".png"}, "primary": true}], "photos": {"count": 0, "groups": []}}, "referralId": "e-0-58e37dba5f671703a0ac8504-15"}, {"reasons": {"count": 0, "items": [{"summary": "This spot is popular", "type": "general", "reasonName": "globalInteractionReason"}]}, "venue": {"id": "4c83978ed34ca143328b3680", "name": "Restaurant TIM RAUE", "location": {"address": "Rudi-Dutschke-Str. 26", "lat": 52.50686227699108, "lng": 13.391638965162887, "labeledLatLngs": [{"label": "display", "lat": 52.50686227699108, "lng": 13.391638965162887}], "distance": 649, "postalCode": "10969", "cc": "DE", "city": "Berlin", "state": "Berlin", "country": "Deutschland", "formattedAddress": ["Rudi-Dutschke-Str. 26", "10969 Berlin", "Deutschland"]}, "categories": [{"id": "52e81612bcbc57f1066b79f9", "name": "Modern European Restaurant", "pluralName": "Modern European Restaurants", "shortName": "Modern European", "icon": {"prefix": "https://ss3.4sqi.net/img/categories_v2/food/default_", "suffix": ".png"}, "primary": true}], "photos": {"count": 0, "groups": []}}, "referralId": "e-0-4c83978ed34ca143328b3680-16"}, {"reasons": {"count": 0, "items": [{"summary": "This spot is popular", "type": "general", "reasonName": "globalInteractionReason"}]}, "venue": {"id": "513254a7e4b0ed893579a5c0", "name": "Flying Steps Academy", "location": {"lat": 52.50301816496556, "lng": 13.407391986424827, "labeledLatLngs": [{"label": "display", "lat": 52.50301816496556, "lng": 13.407391986424827}], "distance": 678, "cc": "DE", "city": "Berlin", "state": "Berlin", "country": "Deutschland", "formattedAddress": ["Berlin", "Deutschland"]}, "categories": [{"id": "4bf58dd8d48988d134941735", "name": "Dance Studio", "pluralName": "Dance Studios", "shortName": "Dance Studio", "icon": {"prefix": "https://ss3.4sqi.net/img/categories_v2/arts_entertainment/performingarts_dancestudio_", "suffix": ".png"}, "primary": true}], "photos": {"count": 0, "groups": []}}, "referralId": "e-0-513254a7e4b0ed893579a5c0-17"}, {"reasons": {"count": 0, "items": [{"summary": "This spot is popular", "type": "general", "reasonName": "globalInteractionReason"}]}, "venue": {"id": "55014bbe498ecb9c69787391", "name": "Hallesches Haus General Store", "location": {"address": "Tempelhofer Ufer 1", "lat": 52.49719041170512, "lng": 13.390275603087503, "labeledLatLngs": [{"label": "display", "lat": 52.49719041170512, "lng": 13.390275603087503}], "distance": 743, "postalCode": "10961", "cc": "DE", "city": "Berlin", "state": "Berlin", "country": "Deutschland", "formattedAddress": ["Tempelhofer Ufer 1", "10961 Berlin", "Deutschland"]}, "categories": [{"id": "52e81612bcbc57f1066b79f1", "name": "Bistro", "pluralName": "Bistros", "shortName": "Bistro", "icon": {"prefix": "https://ss3.4sqi.net/img/categories_v2/food/default_", "suffix": ".png"}, "primary": true}], "photos": {"count": 0, "groups": []}}, "referralId": "e-0-55014bbe498ecb9c69787391-18"}, {"reasons": {"count": 0, "items": [{"summary": "This spot is popular", "type": "general", "reasonName": "globalInteractionReason"}]}, "venue": {"id": "571cc909cd104795c11968d8", "name": "ride.bln Studio Mitte", "location": {"address": "Sch\u00fctzenstrasse 70", "lat": 52.5087611625007, "lng": 13.391629563159995, "labeledLatLngs": [{"label": "display", "lat": 52.5087611625007, "lng": 13.391629563159995}], "distance": 827, "postalCode": "10117", "cc": "DE", "city": "Berlin", "state": "Berlin", "country": "Deutschland", "formattedAddress": ["Sch\u00fctzenstrasse 70", "10117 Berlin", "Deutschland"]}, "categories": [{"id": "52f2ab2ebcbc57f1066b8b49", "name": "Cycle Studio", "pluralName": "Cycle Studios", "shortName": "Cycle Studio", "icon": {"prefix": "https://ss3.4sqi.net/img/categories_v2/shops/bikeshop_", "suffix": ".png"}, "primary": true}], "photos": {"count": 0, "groups": []}}, "referralId": "e-0-571cc909cd104795c11968d8-19"}, {"reasons": {"count": 0, "items": [{"summary": "This spot is popular", "type": "general", "reasonName": "globalInteractionReason"}]}, "venue": {"id": "4adcda8af964a520c04921e3", "name": "HAU 1 | Hebbel am Ufer", "location": {"address": "Stresemannstr. 29", "lat": 52.500032189110684, "lng": 13.387387820139207, "labeledLatLngs": [{"label": "display", "lat": 52.500032189110684, "lng": 13.387387820139207}], "distance": 725, "postalCode": "10963", "cc": "DE", "city": "Berlin", "state": "Berlin", "country": "Deutschland", "formattedAddress": ["Stresemannstr. 29", "10963 Berlin", "Deutschland"]}, "categories": [{"id": "4bf58dd8d48988d137941735", "name": "Theater", "pluralName": "Theaters", "shortName": "Theater", "icon": {"prefix": "https://ss3.4sqi.net/img/categories_v2/arts_entertainment/performingarts_theater_", "suffix": ".png"}, "primary": true}], "photos": {"count": 0, "groups": []}}, "referralId": "e-0-4adcda8af964a520c04921e3-20"}, {"reasons": {"count": 0, "items": [{"summary": "This spot is popular", "type": "general", "reasonName": "globalInteractionReason"}]}, "venue": {"id": "4d985880942ba0936498828c", "name": "Bakery & Coffee", "location": {"address": "Kommandantenstr. 34", "lat": 52.50616019189693, "lng": 13.406130590001856, "labeledLatLngs": [{"label": "display", "lat": 52.50616019189693, "lng": 13.406130590001856}], "distance": 731, "postalCode": "10969", "cc": "DE", "city": "Berlin", "state": "Berlin", "country": "Deutschland", "formattedAddress": ["Kommandantenstr. 34", "10969 Berlin", "Deutschland"]}, "categories": [{"id": "4bf58dd8d48988d16d941735", "name": "Caf\u00e9", "pluralName": "Caf\u00e9s", "shortName": "Caf\u00e9", "icon": {"prefix": "https://ss3.4sqi.net/img/categories_v2/food/cafe_", "suffix": ".png"}, "primary": true}], "photos": {"count": 0, "groups": []}}, "referralId": "e-0-4d985880942ba0936498828c-21"}, {"reasons": {"count": 0, "items": [{"summary": "This spot is popular", "type": "general", "reasonName": "globalInteractionReason"}]}, "venue": {"id": "538f155f498e9c843c3aa01d", "name": "John & Thommy\u2018s", "location": {"address": "Charlottenstr. 2", "lat": 52.5055384700557, "lng": 13.393144230693691, "labeledLatLngs": [{"label": "display", "lat": 52.5055384700557, "lng": 13.393144230693691}], "distance": 470, "postalCode": "10969", "cc": "DE", "neighborhood": "Kreuzberg", "city": "Berlin", "state": "Berlin", "country": "Deutschland", "formattedAddress": ["Charlottenstr. 2", "10969 Berlin", "Deutschland"]}, "categories": [{"id": "4bf58dd8d48988d116941735", "name": "Bar", "pluralName": "Bars", "shortName": "Bar", "icon": {"prefix": "https://ss3.4sqi.net/img/categories_v2/nightlife/pub_", "suffix": ".png"}, "primary": true}], "photos": {"count": 0, "groups": []}}, "referralId": "e-0-538f155f498e9c843c3aa01d-22"}, {"reasons": {"count": 0, "items": [{"summary": "This spot is popular", "type": "general", "reasonName": "globalInteractionReason"}]}, "venue": {"id": "57dbcd60498e3068119f8144", "name": "Le Bon Mori", "location": {"lat": 52.49967767873268, "lng": 13.388140136629866, "labeledLatLngs": [{"label": "display", "lat": 52.49967767873268, "lng": 13.388140136629866}], "distance": 693, "cc": "DE", "city": "Berlin", "state": "Berlin", "country": "Deutschland", "formattedAddress": ["Berlin", "Deutschland"]}, "categories": [{"id": "4bf58dd8d48988d10c941735", "name": "French Restaurant", "pluralName": "French Restaurants", "shortName": "French", "icon": {"prefix": "https://ss3.4sqi.net/img/categories_v2/food/french_", "suffix": ".png"}, "primary": true}], "photos": {"count": 0, "groups": []}}, "referralId": "e-0-57dbcd60498e3068119f8144-23"}, {"reasons": {"count": 0, "items": [{"summary": "This spot is popular", "type": "general", "reasonName": "globalInteractionReason"}]}, "venue": {"id": "56b778b6498e7c199b6b1e7d", "name": "Mama Cook", "location": {"address": "Hedemannstra\u00dfe 10", "lat": 52.50297528052083, "lng": 13.388150737751431, "labeledLatLngs": [{"label": "display", "lat": 52.50297528052083, "lng": 13.388150737751431}], "distance": 636, "postalCode": "10969", "cc": "DE", "neighborhood": "Kreuzberg", "city": "Berlin", "state": "Berlin", "country": "Deutschland", "formattedAddress": ["Hedemannstra\u00dfe 10", "10969 Berlin", "Deutschland"]}, "categories": [{"id": "4bf58dd8d48988d14a941735", "name": "Vietnamese Restaurant", "pluralName": "Vietnamese Restaurants", "shortName": "Vietnamese", "icon": {"prefix": "https://ss3.4sqi.net/img/categories_v2/food/vietnamese_", "suffix": ".png"}, "primary": true}], "photos": {"count": 0, "groups": []}}, "referralId": "e-0-56b778b6498e7c199b6b1e7d-24"}, {"reasons": {"count": 0, "items": [{"summary": "This spot is popular", "type": "general", "reasonName": "globalInteractionReason"}]}, "venue": {"id": "4db6a3ec81543d71da6fec74", "name": "Modulor", "location": {"address": "Prinzenstr. 85", "crossStreet": "Moritzplatz", "lat": 52.50349293851038, "lng": 13.410140375994867, "labeledLatLngs": [{"label": "display", "lat": 52.50349293851038, "lng": 13.410140375994867}], "distance": 870, "postalCode": "10969", "cc": "DE", "city": "Berlin", "state": "Berlin", "country": "Deutschland", "formattedAddress": ["Prinzenstr. 85 (Moritzplatz)", "10969 Berlin", "Deutschland"]}, "categories": [{"id": "4bf58dd8d48988d127951735", "name": "Arts & Crafts Store", "pluralName": "Arts & Crafts Stores", "shortName": "Arts & Crafts", "icon": {"prefix": "https://ss3.4sqi.net/img/categories_v2/shops/artstore_", "suffix": ".png"}, "primary": true}], "photos": {"count": 0, "groups": []}, "venuePage": {"id": "376820014"}}, "referralId": "e-0-4db6a3ec81543d71da6fec74-25"}, {"reasons": {"count": 0, "items": [{"summary": "This spot is popular", "type": "general", "reasonName": "globalInteractionReason"}]}, "venue": {"id": "51b86921498e804a1690c2e4", "name": "JustMusic", "location": {"address": "Oranienstr. 140-142", "lat": 52.50397422151317, "lng": 13.408974409103394, "labeledLatLngs": [{"label": "display", "lat": 52.50397422151317, "lng": 13.408974409103394}], "distance": 803, "postalCode": "10969", "cc": "DE", "neighborhood": "Moritzplatz", "city": "Berlin", "state": "Berlin", "country": "Deutschland", "formattedAddress": ["Oranienstr. 140-142", "10969 Berlin", "Deutschland"]}, "categories": [{"id": "4bf58dd8d48988d1fe941735", "name": "Music Store", "pluralName": "Music Stores", "shortName": "Music Store", "icon": {"prefix": "https://ss3.4sqi.net/img/categories_v2/shops/music_instruments_", "suffix": ".png"}, "primary": true}], "photos": {"count": 0, "groups": []}, "venuePage": {"id": "588507929"}}, "referralId": "e-0-51b86921498e804a1690c2e4-26"}, {"reasons": {"count": 0, "items": [{"summary": "This spot is popular", "type": "general", "reasonName": "globalInteractionReason"}]}, "venue": {"id": "507d5ed8e4b07db109341a49", "name": "motion*s (motion*s Tanz- und Bewegungsstudio)", "location": {"address": "Prinzenstr. 85B1", "crossStreet": "Oranienstr.", "lat": 52.50323297954792, "lng": 13.408416509628294, "labeledLatLngs": [{"label": "display", "lat": 52.50323297954792, "lng": 13.408416509628294}], "distance": 750, "postalCode": "10969", "cc": "DE", "city": "Berlin", "state": "Berlin", "country": "Deutschland", "formattedAddress": ["Prinzenstr. 85B1 (Oranienstr.)", "10969 Berlin", "Deutschland"]}, "categories": [{"id": "4bf58dd8d48988d134941735", "name": "Dance Studio", "pluralName": "Dance Studios", "shortName": "Dance Studio", "icon": {"prefix": "https://ss3.4sqi.net/img/categories_v2/arts_entertainment/performingarts_dancestudio_", "suffix": ".png"}, "primary": true}], "photos": {"count": 0, "groups": []}}, "referralId": "e-0-507d5ed8e4b07db109341a49-27"}, {"reasons": {"count": 0, "items": [{"summary": "This spot is popular", "type": "general", "reasonName": "globalInteractionReason"}]}, "venue": {"id": "512cffdce4b01feb073cfb4f", "name": "SPREE CrossFit", "location": {"address": "Lobeckstr. 30-50", "lat": 52.502843806522364, "lng": 13.407586669756228, "labeledLatLngs": [{"label": "display", "lat": 52.502843806522364, "lng": 13.407586669756228}], "distance": 689, "postalCode": "10969", "cc": "DE", "city": "Berlin", "state": "Berlin", "country": "Deutschland", "formattedAddress": ["Lobeckstr. 30-50", "10969 Berlin", "Deutschland"]}, "categories": [{"id": "4bf58dd8d48988d175941735", "name": "Gym / Fitness Center", "pluralName": "Gyms or Fitness Centers", "shortName": "Gym / Fitness", "icon": {"prefix": "https://ss3.4sqi.net/img/categories_v2/building/gym_", "suffix": ".png"}, "primary": true}], "photos": {"count": 0, "groups": []}}, "referralId": "e-0-512cffdce4b01feb073cfb4f-28"}, {"reasons": {"count": 0, "items": [{"summary": "This spot is popular", "type": "general", "reasonName": "globalInteractionReason"}]}, "venue": {"id": "581db6e308396928a379397a", "name": "Die Espressonisten", "location": {"address": "Zimmerstr. 90", "lat": 52.507648415439206, "lng": 13.388159410183967, "labeledLatLngs": [{"label": "display", "lat": 52.507648415439206, "lng": 13.388159410183967}], "distance": 872, "cc": "DE", "city": "Berlin", "state": "Berlin", "country": "Deutschland", "formattedAddress": ["Zimmerstr. 90", "Berlin", "Deutschland"]}, "categories": [{"id": "4bf58dd8d48988d1e0931735", "name": "Coffee Shop", "pluralName": "Coffee Shops", "shortName": "Coffee Shop", "icon": {"prefix": "https://ss3.4sqi.net/img/categories_v2/food/coffeeshop_", "suffix": ".png"}, "primary": true}], "photos": {"count": 0, "groups": []}}, "referralId": "e-0-581db6e308396928a379397a-29"}, {"reasons": {"count": 0, "items": [{"summary": "This spot is popular", "type": "general", "reasonName": "globalInteractionReason"}]}, "venue": {"id": "4be1715c8dd062b5884a3e3c", "name": "Hotel Johann", "location": {"address": "Johanniterstr. 8", "lat": 52.495807603907636, "lng": 13.40007172201482, "labeledLatLngs": [{"label": "display", "lat": 52.495807603907636, "lng": 13.40007172201482}], "distance": 736, "postalCode": "10961", "cc": "DE", "city": "Berlin", "state": "Berlin", "country": "Deutschland", "formattedAddress": ["Johanniterstr. 8", "10961 Berlin", "Deutschland"]}, "categories": [{"id": "4bf58dd8d48988d1fa931735", "name": "Hotel", "pluralName": "Hotels", "shortName": "Hotel", "icon": {"prefix": "https://ss3.4sqi.net/img/categories_v2/travel/hotel_", "suffix": ".png"}, "primary": true}], "photos": {"count": 0, "groups": []}}, "referralId": "e-0-4be1715c8dd062b5884a3e3c-30"}, {"reasons": {"count": 0, "items": [{"summary": "This spot is popular", "type": "general", "reasonName": "globalInteractionReason"}]}, "venue": {"id": "4cf39fb83e996a31b128ea8f", "name": "Caf\u00e9 B\u00e4ckerei Bonjour", "location": {"address": "Markgrafenstr. 19", "lat": 52.50693334691126, "lng": 13.394422452516856, "labeledLatLngs": [{"label": "display", "lat": 52.50693334691126, "lng": 13.394422452516856}], "distance": 562, "postalCode": "10969", "cc": "DE", "city": "Berlin", "state": "Berlin", "country": "Deutschland", "formattedAddress": ["Markgrafenstr. 19", "10969 Berlin", "Deutschland"]}, "categories": [{"id": "4bf58dd8d48988d16a941735", "name": "Bakery", "pluralName": "Bakeries", "shortName": "Bakery", "icon": {"prefix": "https://ss3.4sqi.net/img/categories_v2/food/bakery_", "suffix": ".png"}, "primary": true}], "photos": {"count": 0, "groups": []}}, "referralId": "e-0-4cf39fb83e996a31b128ea8f-31"}, {"reasons": {"count": 0, "items": [{"summary": "This spot is popular", "type": "general", "reasonName": "globalInteractionReason"}]}, "venue": {"id": "4adcda88f964a520524921e3", "name": "Entrec\u00f4te", "location": {"address": "Sch\u00fctzenstr. 5", "lat": 52.508503595789044, "lng": 13.391074918766897, "labeledLatLngs": [{"label": "display", "lat": 52.508503595789044, "lng": 13.391074918766897}], "distance": 821, "postalCode": "10117", "cc": "DE", "city": "Berlin", "state": "Berlin", "country": "Deutschland", "formattedAddress": ["Sch\u00fctzenstr. 5", "10117 Berlin", "Deutschland"]}, "categories": [{"id": "4bf58dd8d48988d1cc941735", "name": "Steakhouse", "pluralName": "Steakhouses", "shortName": "Steakhouse", "icon": {"prefix": "https://ss3.4sqi.net/img/categories_v2/food/steakhouse_", "suffix": ".png"}, "primary": true}], "photos": {"count": 0, "groups": []}}, "referralId": "e-0-4adcda88f964a520524921e3-32"}, {"reasons": {"count": 0, "items": [{"summary": "This spot is popular", "type": "general", "reasonName": "globalInteractionReason"}]}, "venue": {"id": "4b798128f964a5204cfd2ee3", "name": "Marsano Flowers", "location": {"address": "Charlottenstr. 75", "lat": 52.50923323304768, "lng": 13.392135797537648, "labeledLatLngs": [{"label": "display", "lat": 52.50923323304768, "lng": 13.392135797537648}], "distance": 859, "postalCode": "10117", "cc": "DE", "city": "Berlin", "state": "Berlin", "country": "Deutschland", "formattedAddress": ["Charlottenstr. 75", "10117 Berlin", "Deutschland"]}, "categories": [{"id": "4bf58dd8d48988d11b951735", "name": "Flower Shop", "pluralName": "Flower Shops", "shortName": "Flower Shop", "icon": {"prefix": "https://ss3.4sqi.net/img/categories_v2/shops/flowershop_", "suffix": ".png"}, "primary": true}], "photos": {"count": 0, "groups": []}}, "referralId": "e-0-4b798128f964a5204cfd2ee3-33"}, {"reasons": {"count": 0, "items": [{"summary": "This spot is popular", "type": "general", "reasonName": "globalInteractionReason"}]}, "venue": {"id": "4bc9abf1b6c49c7468bf8e91", "name": "Prinzessinneng\u00e4rten", "location": {"address": "Prinzessinnenstr. 15", "crossStreet": "Moritzplatz", "lat": 52.50286547589601, "lng": 13.410995108138165, "labeledLatLngs": [{"label": "display", "lat": 52.50286547589601, "lng": 13.410995108138165}], "distance": 919, "postalCode": "10969", "cc": "DE", "city": "Berlin", "state": "Berlin", "country": "Deutschland", "formattedAddress": ["Prinzessinnenstr. 15 (Moritzplatz)", "10969 Kreuzberg", "Deutschland"]}, "categories": [{"id": "4bf58dd8d48988d15a941735", "name": "Garden", "pluralName": "Gardens", "shortName": "Garden", "icon": {"prefix": "https://ss3.4sqi.net/img/categories_v2/parks_outdoors/garden_", "suffix": ".png"}, "primary": true}], "photos": {"count": 0, "groups": []}}, "referralId": "e-0-4bc9abf1b6c49c7468bf8e91-34"}, {"reasons": {"count": 0, "items": [{"summary": "This spot is popular", "type": "general", "reasonName": "globalInteractionReason"}]}, "venue": {"id": "59676d09b6eedb34a91bee44", "name": "The Yard Hotel", "location": {"address": "Alexandrinenstr. 125", "lat": 52.49914531869051, "lng": 13.39979160441218, "labeledLatLngs": [{"label": "display", "lat": 52.49914531869051, "lng": 13.39979160441218}], "distance": 378, "postalCode": "10969", "cc": "DE", "neighborhood": "Kreuzberg", "city": "Berlin", "state": "Berlin", "country": "Deutschland", "formattedAddress": ["Alexandrinenstr. 125", "10969 Berlin", "Deutschland"]}, "categories": [{"id": "4bf58dd8d48988d1fa931735", "name": "Hotel", "pluralName": "Hotels", "shortName": "Hotel", "icon": {"prefix": "https://ss3.4sqi.net/img/categories_v2/travel/hotel_", "suffix": ".png"}, "primary": true}], "photos": {"count": 0, "groups": []}}, "referralId": "e-0-59676d09b6eedb34a91bee44-35"}, {"reasons": {"count": 0, "items": [{"summary": "This spot is popular", "type": "general", "reasonName": "globalInteractionReason"}]}, "venue": {"id": "4bea8f256295c9b62e828608", "name": "Trabi-Safari / Trabi-World", "location": {"address": "Zimmerstr. 97", "lat": 52.50762662685895, "lng": 13.386632240518113, "labeledLatLngs": [{"label": "display", "lat": 52.50762662685895, "lng": 13.386632240518113}], "distance": 948, "postalCode": "10117", "cc": "DE", "city": "Berlin", "state": "Berlin", "country": "Deutschland", "formattedAddress": ["Zimmerstr. 97", "10117 Berlin", "Deutschland"]}, "categories": [{"id": "4bf58dd8d48988d1ef941735", "name": "Rental Car Location", "pluralName": "Rental Car Locations", "shortName": "Rental Car", "icon": {"prefix": "https://ss3.4sqi.net/img/categories_v2/shops/airport_rentalcar_", "suffix": ".png"}, "primary": true}], "photos": {"count": 0, "groups": []}}, "referralId": "e-0-4bea8f256295c9b62e828608-36"}, {"reasons": {"count": 0, "items": [{"summary": "This spot is popular", "type": "general", "reasonName": "globalInteractionReason"}]}, "venue": {"id": "583fd815d60c8b31d221e74f", "name": "Junge - Die B\u00e4ckerei", "location": {"address": "Rudi-Dutschke-Str. 17", "lat": 52.50689690057598, "lng": 13.393291229527554, "labeledLatLngs": [{"label": "display", "lat": 52.50689690057598, "lng": 13.393291229527554}], "distance": 591, "postalCode": "10969", "cc": "DE", "city": "Berlin", "state": "Berlin", "country": "Deutschland", "formattedAddress": ["Rudi-Dutschke-Str. 17", "10969 Berlin", "Deutschland"]}, "categories": [{"id": "4bf58dd8d48988d16a941735", "name": "Bakery", "pluralName": "Bakeries", "shortName": "Bakery", "icon": {"prefix": "https://ss3.4sqi.net/img/categories_v2/food/bakery_", "suffix": ".png"}, "primary": true}], "photos": {"count": 0, "groups": []}}, "referralId": "e-0-583fd815d60c8b31d221e74f-37"}, {"reasons": {"count": 0, "items": [{"summary": "This spot is popular", "type": "general", "reasonName": "globalInteractionReason"}]}, "venue": {"id": "54f0647d498ed1ceeaf9e623", "name": "Zwipf", "location": {"address": "Charlottenstr. 75", "lat": 52.509037, "lng": 13.392016, "labeledLatLngs": [{"label": "display", "lat": 52.509037, "lng": 13.392016}], "distance": 842, "postalCode": "10117", "cc": "DE", "city": "Berlin", "state": "Berlin", "country": "Deutschland", "formattedAddress": ["Charlottenstr. 75", "10117 Berlin", "Deutschland"]}, "categories": [{"id": "4bf58dd8d48988d143941735", "name": "Breakfast Spot", "pluralName": "Breakfast Spots", "shortName": "Breakfast", "icon": {"prefix": "https://ss3.4sqi.net/img/categories_v2/food/breakfast_", "suffix": ".png"}, "primary": true}], "photos": {"count": 0, "groups": []}}, "referralId": "e-0-54f0647d498ed1ceeaf9e623-38"}, {"reasons": {"count": 0, "items": [{"summary": "This spot is popular", "type": "general", "reasonName": "globalInteractionReason"}]}, "venue": {"id": "4cb88ce67148f04de9d3d0ab", "name": "Hostaria Del Monte Croce", "location": {"address": "Mittenwalderstrasse 6", "crossStreet": "HH", "lat": 52.494132673012686, "lng": 13.39634082324524, "labeledLatLngs": [{"label": "display", "lat": 52.494132673012686, "lng": 13.39634082324524}], "distance": 904, "postalCode": "10961", "cc": "DE", "city": "Berlin", "state": "Berlin", "country": "Deutschland", "formattedAddress": ["Mittenwalderstrasse 6 (HH)", "10961 Berlin", "Deutschland"]}, "categories": [{"id": "4bf58dd8d48988d110941735", "name": "Italian Restaurant", "pluralName": "Italian Restaurants", "shortName": "Italian", "icon": {"prefix": "https://ss3.4sqi.net/img/categories_v2/food/italian_", "suffix": ".png"}, "primary": true}], "photos": {"count": 0, "groups": []}}, "referralId": "e-0-4cb88ce67148f04de9d3d0ab-39"}, {"reasons": {"count": 0, "items": [{"summary": "This spot is popular", "type": "general", "reasonName": "globalInteractionReason"}]}, "venue": {"id": "4adcda87f964a520294921e3", "name": "Ristorante Sale e Tabacchi", "location": {"address": "Rudi-Dutschke-Str. 23", "lat": 52.50651607894083, "lng": 13.391500588831969, "labeledLatLngs": [{"label": "display", "lat": 52.50651607894083, "lng": 13.391500588831969}], "distance": 625, "postalCode": "10969", "cc": "DE", "neighborhood": "Kreuzberg", "city": "Berlin", "state": "Berlin", "country": "Deutschland", "formattedAddress": ["Rudi-Dutschke-Str. 23", "10969 Berlin", "Deutschland"]}, "categories": [{"id": "4bf58dd8d48988d110941735", "name": "Italian Restaurant", "pluralName": "Italian Restaurants", "shortName": "Italian", "icon": {"prefix": "https://ss3.4sqi.net/img/categories_v2/food/italian_", "suffix": ".png"}, "primary": true}], "photos": {"count": 0, "groups": []}}, "referralId": "e-0-4adcda87f964a520294921e3-40"}, {"reasons": {"count": 0, "items": [{"summary": "This spot is popular", "type": "general", "reasonName": "globalInteractionReason"}]}, "venue": {"id": "4c8929c9ed0aa1431f76aff3", "name": "A.HORN", "location": {"address": "Carl-Herz-Ufer 9", "crossStreet": "Baerwaldstr.", "lat": 52.495925, "lng": 13.405344, "labeledLatLngs": [{"label": "display", "lat": 52.495925, "lng": 13.405344}], "distance": 881, "postalCode": "10961", "cc": "DE", "city": "Berlin", "state": "Berlin", "country": "Deutschland", "formattedAddress": ["Carl-Herz-Ufer 9 (Baerwaldstr.)", "10961 Berlin", "Deutschland"]}, "categories": [{"id": "4bf58dd8d48988d16d941735", "name": "Caf\u00e9", "pluralName": "Caf\u00e9s", "shortName": "Caf\u00e9", "icon": {"prefix": "https://ss3.4sqi.net/img/categories_v2/food/cafe_", "suffix": ".png"}, "primary": true}], "photos": {"count": 0, "groups": []}}, "referralId": "e-0-4c8929c9ed0aa1431f76aff3-41"}, {"reasons": {"count": 0, "items": [{"summary": "This spot is popular", "type": "general", "reasonName": "globalInteractionReason"}]}, "venue": {"id": "55816981498e05173dd24f69", "name": "Chili Coffee", "location": {"address": "Charlottenstr. 81", "lat": 52.50769647158264, "lng": 13.392326721394955, "labeledLatLngs": [{"label": "display", "lat": 52.50769647158264, "lng": 13.392326721394955}], "distance": 700, "postalCode": "10969", "cc": "DE", "city": "Berlin", "state": "Berlin", "country": "Deutschland", "formattedAddress": ["Charlottenstr. 81", "10969 Berlin", "Deutschland"]}, "categories": [{"id": "4bf58dd8d48988d1e0931735", "name": "Coffee Shop", "pluralName": "Coffee Shops", "shortName": "Coffee Shop", "icon": {"prefix": "https://ss3.4sqi.net/img/categories_v2/food/coffeeshop_", "suffix": ".png"}, "primary": true}], "photos": {"count": 0, "groups": []}}, "referralId": "e-0-55816981498e05173dd24f69-42"}, {"reasons": {"count": 0, "items": [{"summary": "This spot is popular", "type": "general", "reasonName": "globalInteractionReason"}]}, "venue": {"id": "4adcda89f964a520a24921e3", "name": "HAU 2 | Hebbel am Ufer", "location": {"address": "Hallesches Ufer 32", "lat": 52.49887755198866, "lng": 13.385697648675205, "labeledLatLngs": [{"label": "display", "lat": 52.49887755198866, "lng": 13.385697648675205}], "distance": 880, "postalCode": "10963", "cc": "DE", "city": "Berlin", "state": "Berlin", "country": "Deutschland", "formattedAddress": ["Hallesches Ufer 32", "10963 Berlin", "Deutschland"]}, "categories": [{"id": "4bf58dd8d48988d137941735", "name": "Theater", "pluralName": "Theaters", "shortName": "Theater", "icon": {"prefix": "https://ss3.4sqi.net/img/categories_v2/arts_entertainment/performingarts_theater_", "suffix": ".png"}, "primary": true}], "photos": {"count": 0, "groups": []}}, "referralId": "e-0-4adcda89f964a520a24921e3-43"}, {"reasons": {"count": 0, "items": [{"summary": "This spot is popular", "type": "general", "reasonName": "globalInteractionReason"}]}, "venue": {"id": "4c22661d11de20a1dbce84ce", "name": "Grand Hostel", "location": {"address": "Tempelhofer Ufer 14", "lat": 52.49842203535925, "lng": 13.384516793290212, "labeledLatLngs": [{"label": "display", "lat": 52.49842203535925, "lng": 13.384516793290212}], "distance": 974, "postalCode": "10963", "cc": "DE", "city": "Berlin", "state": "Berlin", "country": "Deutschland", "formattedAddress": ["Tempelhofer Ufer 14", "10963 Berlin", "Deutschland"]}, "categories": [{"id": "4bf58dd8d48988d1ee931735", "name": "Hostel", "pluralName": "Hostels", "shortName": "Hostel", "icon": {"prefix": "https://ss3.4sqi.net/img/categories_v2/travel/hostel_", "suffix": ".png"}, "primary": true}], "photos": {"count": 0, "groups": []}, "venuePage": {"id": "51640121"}}, "referralId": "e-0-4c22661d11de20a1dbce84ce-44"}, {"reasons": {"count": 0, "items": [{"summary": "This spot is popular", "type": "general", "reasonName": "globalInteractionReason"}]}, "venue": {"id": "513b99b6e4b0334da4ee9f91", "name": "Frau Tonis Parfum", "location": {"address": "Zimmerstr. 13", "crossStreet": "Checkpoint Charlie", "lat": 52.507432097056245, "lng": 13.388412594795227, "labeledLatLngs": [{"label": "display", "lat": 52.507432097056245, "lng": 13.388412594795227}], "distance": 843, "postalCode": "10969", "cc": "DE", "city": "Kreuzberg", "state": "Berlin", "country": "Deutschland", "formattedAddress": ["Zimmerstr. 13 (Checkpoint Charlie)", "10969 Berlin Kreuzberg", "Deutschland"]}, "categories": [{"id": "52f2ab2ebcbc57f1066b8b23", "name": "Perfume Shop", "pluralName": "Perfume Shops", "shortName": "Perfume Shop", "icon": {"prefix": "https://ss3.4sqi.net/img/categories_v2/shops/default_", "suffix": ".png"}, "primary": true}], "photos": {"count": 0, "groups": []}, "venuePage": {"id": "68612275"}}, "referralId": "e-0-513b99b6e4b0334da4ee9f91-45"}, {"reasons": {"count": 0, "items": [{"summary": "This spot is popular", "type": "general", "reasonName": "globalInteractionReason"}]}, "venue": {"id": "5af994a3dd8442002c561e24", "name": "Mix & Match", "location": {"address": "Markgrafenstra\u00dfe 58", "crossStreet": "Sch\u00fctzenstra\u00dfe", "lat": 52.508732, "lng": 13.393911, "labeledLatLngs": [{"label": "display", "lat": 52.508732, "lng": 13.393911}], "distance": 762, "postalCode": "10117", "cc": "DE", "city": "Berlin", "state": "Berlin", "country": "Deutschland", "formattedAddress": ["Markgrafenstra\u00dfe 58 (Sch\u00fctzenstra\u00dfe)", "10117 Berlin", "Deutschland"]}, "categories": [{"id": "4bf58dd8d48988d1bd941735", "name": "Salad Place", "pluralName": "Salad Places", "shortName": "Salad", "icon": {"prefix": "https://ss3.4sqi.net/img/categories_v2/food/salad_", "suffix": ".png"}, "primary": true}], "photos": {"count": 0, "groups": []}}, "referralId": "e-0-5af994a3dd8442002c561e24-46"}, {"reasons": {"count": 0, "items": [{"summary": "This spot is popular", "type": "general", "reasonName": "globalInteractionReason"}]}, "venue": {"id": "58937f152f91cb2559afca18", "name": "enso yoga berlin", "location": {"address": "Krausenstra\u00dfe 28", "lat": 52.509705392117255, "lng": 13.39703360400076, "labeledLatLngs": [{"label": "display", "lat": 52.509705392117255, "lng": 13.39703360400076}], "distance": 832, "postalCode": "10117", "cc": "DE", "city": "Berlin", "state": "Berlin", "country": "Deutschland", "formattedAddress": ["Krausenstra\u00dfe 28", "10117 Berlin", "Deutschland"]}, "categories": [{"id": "4bf58dd8d48988d102941735", "name": "Yoga Studio", "pluralName": "Yoga Studios", "shortName": "Yoga Studio", "icon": {"prefix": "https://ss3.4sqi.net/img/categories_v2/shops/gym_yogastudio_", "suffix": ".png"}, "primary": true}], "photos": {"count": 0, "groups": []}}, "referralId": "e-0-58937f152f91cb2559afca18-47"}, {"reasons": {"count": 0, "items": [{"summary": "This spot is popular", "type": "general", "reasonName": "globalInteractionReason"}]}, "venue": {"id": "4be997656295c9b6db668508", "name": "Steakhaus Asador", "location": {"address": "Wilhelmstr. 22", "lat": 52.503518645755335, "lng": 13.387594842287493, "labeledLatLngs": [{"label": "display", "lat": 52.503518645755335, "lng": 13.387594842287493}], "distance": 684, "postalCode": "10963", "cc": "DE", "city": "Berlin", "state": "Berlin", "country": "Deutschland", "formattedAddress": ["Wilhelmstr. 22", "10963 Berlin", "Deutschland"]}, "categories": [{"id": "4bf58dd8d48988d107941735", "name": "Argentinian Restaurant", "pluralName": "Argentinian Restaurants", "shortName": "Argentinian", "icon": {"prefix": "https://ss3.4sqi.net/img/categories_v2/food/argentinian_", "suffix": ".png"}, "primary": true}], "photos": {"count": 0, "groups": []}}, "referralId": "e-0-4be997656295c9b6db668508-48"}, {"reasons": {"count": 0, "items": [{"summary": "This spot is popular", "type": "general", "reasonName": "globalInteractionReason"}]}, "venue": {"id": "5c0546e2916bc1002c2590ea", "name": "betahaus", "location": {"address": "Rudi-Dutschke-Str. 23", "crossStreet": "Charlottenstra\u00dfe", "lat": 52.50679847629093, "lng": 13.391678869420659, "labeledLatLngs": [{"label": "display", "lat": 52.50679847629093, "lng": 13.391678869420659}], "distance": 642, "postalCode": "10969", "cc": "DE", "neighborhood": "Kreuzberg", "city": "Berlin", "state": "Berlin", "country": "Deutschland", "formattedAddress": ["Rudi-Dutschke-Str. 23 (Charlottenstra\u00dfe)", "10969 Berlin", "Deutschland"]}, "categories": [{"id": "4bf58dd8d48988d174941735", "name": "Coworking Space", "pluralName": "Coworking Spaces", "shortName": "Coworking Space", "icon": {"prefix": "https://ss3.4sqi.net/img/categories_v2/building/office_coworkingspace_", "suffix": ".png"}, "primary": true}], "photos": {"count": 0, "groups": []}}, "referralId": "e-0-5c0546e2916bc1002c2590ea-49"}, {"reasons": {"count": 0, "items": [{"summary": "This spot is popular", "type": "general", "reasonName": "globalInteractionReason"}]}, "venue": {"id": "4c0a6e557e3fc928b387f382", "name": "Sommerbad Kreuzberg | Prinzenbad", "location": {"address": "Prinzenstr. 113-119", "lat": 52.49817900304599, "lng": 13.406295992253497, "labeledLatLngs": [{"label": "display", "lat": 52.49817900304599, "lng": 13.406295992253497}], "distance": 749, "postalCode": "10969", "cc": "DE", "city": "Berlin", "state": "Berlin", "country": "Deutschland", "formattedAddress": ["Prinzenstr. 113-119", "10969 Berlin", "Deutschland"]}, "categories": [{"id": "4bf58dd8d48988d15e941735", "name": "Pool", "pluralName": "Pools", "shortName": "Pool", "icon": {"prefix": "https://ss3.4sqi.net/img/categories_v2/parks_outdoors/pool_", "suffix": ".png"}, "primary": true}], "photos": {"count": 0, "groups": []}}, "referralId": "e-0-4c0a6e557e3fc928b387f382-50"}, {"reasons": {"count": 0, "items": [{"summary": "This spot is popular", "type": "general", "reasonName": "globalInteractionReason"}]}, "venue": {"id": "4d3d446105b8721e88689337", "name": "Zieten-Apotheke", "location": {"address": "Gro\u00dfbeerenstr. 11", "lat": 52.49811904906019, "lng": 13.384931087493896, "labeledLatLngs": [{"label": "display", "lat": 52.49811904906019, "lng": 13.384931087493896}], "distance": 965, "postalCode": "10963", "cc": "DE", "city": "Berlin", "state": "Berlin", "country": "Deutschland", "formattedAddress": ["Gro\u00dfbeerenstr. 11", "10963 Berlin", "Deutschland"]}, "categories": [{"id": "4bf58dd8d48988d10f951735", "name": "Pharmacy", "pluralName": "Pharmacies", "shortName": "Pharmacy", "icon": {"prefix": "https://ss3.4sqi.net/img/categories_v2/shops/pharmacy_", "suffix": ".png"}, "primary": true}], "photos": {"count": 0, "groups": []}}, "referralId": "e-0-4d3d446105b8721e88689337-51"}, {"reasons": {"count": 0, "items": [{"summary": "This spot is popular", "type": "general", "reasonName": "globalInteractionReason"}]}, "venue": {"id": "4dea5ba6e4cdc079f481372b", "name": "B\u00f6cklerpark", "location": {"address": "B\u00f6cklerstr.", "crossStreet": "Fraenkelufer", "lat": 52.49670820492938, "lng": 13.407418727874756, "labeledLatLngs": [{"label": "display", "lat": 52.49670820492938, "lng": 13.407418727874756}], "distance": 912, "postalCode": "10969", "cc": "DE", "city": "Berlin", "state": "Berlin", "country": "Deutschland", "formattedAddress": ["B\u00f6cklerstr. (Fraenkelufer)", "10969 Berlin", "Deutschland"]}, "categories": [{"id": "4bf58dd8d48988d163941735", "name": "Park", "pluralName": "Parks", "shortName": "Park", "icon": {"prefix": "https://ss3.4sqi.net/img/categories_v2/parks_outdoors/park_", "suffix": ".png"}, "primary": true}], "photos": {"count": 0, "groups": []}}, "referralId": "e-0-4dea5ba6e4cdc079f481372b-52"}, {"reasons": {"count": 0, "items": [{"summary": "This spot is popular", "type": "general", "reasonName": "globalInteractionReason"}]}, "venue": {"id": "56dd6508498e12e3c58083eb", "name": "Little Green Rabbit", "location": {"address": "Friedrichstr. 200", "lat": 52.508782640619074, "lng": 13.389224714135477, "labeledLatLngs": [{"label": "display", "lat": 52.508782640619074, "lng": 13.389224714135477}], "distance": 918, "postalCode": "10117", "cc": "DE", "city": "Berlin", "state": "Berlin", "country": "Deutschland", "formattedAddress": ["Friedrichstr. 200", "10117 Berlin", "Deutschland"]}, "categories": [{"id": "4bf58dd8d48988d1bd941735", "name": "Salad Place", "pluralName": "Salad Places", "shortName": "Salad", "icon": {"prefix": "https://ss3.4sqi.net/img/categories_v2/food/salad_", "suffix": ".png"}, "primary": true}], "photos": {"count": 0, "groups": []}}, "referralId": "e-0-56dd6508498e12e3c58083eb-53"}, {"reasons": {"count": 0, "items": [{"summary": "This spot is popular", "type": "general", "reasonName": "globalInteractionReason"}]}, "venue": {"id": "5d94ff44ad1688000734f642", "name": "Basement Boulderstudio", "location": {"address": "Stresemannstr. 72", "lat": 52.50383381099916, "lng": 13.38361144065857, "labeledLatLngs": [{"label": "display", "lat": 52.50383381099916, "lng": 13.38361144065857}], "distance": 955, "postalCode": "10963", "cc": "DE", "neighborhood": "Kreuzberg", "city": "Berlin", "state": "Berlin", "country": "Deutschland", "formattedAddress": ["Stresemannstr. 72", "10963 Berlin", "Deutschland"]}, "categories": [{"id": "503289d391d4c4b30a586d6a", "name": "Climbing Gym", "pluralName": "Climbing Gyms", "shortName": "Climbing Gym", "icon": {"prefix": "https://ss3.4sqi.net/img/categories_v2/building/gym_", "suffix": ".png"}, "primary": true}], "photos": {"count": 0, "groups": []}}, "referralId": "e-0-5d94ff44ad1688000734f642-54"}, {"reasons": {"count": 0, "items": [{"summary": "This spot is popular", "type": "general", "reasonName": "globalInteractionReason"}]}, "venue": {"id": "4c0fcd5ff1b6a59375da7a27", "name": "Taverna Athene", "location": {"address": "Tempelhofer Ufer 12", "lat": 52.498527907594045, "lng": 13.385537236408604, "labeledLatLngs": [{"label": "display", "lat": 52.498527907594045, "lng": 13.385537236408604}], "distance": 907, "postalCode": "10963", "cc": "DE", "city": "Berlin", "state": "Berlin", "country": "Deutschland", "formattedAddress": ["Tempelhofer Ufer 12", "10963 Berlin", "Deutschland"]}, "categories": [{"id": "53d6c1b0e4b02351e88a83d2", "name": "Taverna", "pluralName": "Tavernas", "shortName": "Tavernas", "icon": {"prefix": "https://ss3.4sqi.net/img/categories_v2/food/greek_", "suffix": ".png"}, "primary": true}], "photos": {"count": 0, "groups": []}}, "referralId": "e-0-4c0fcd5ff1b6a59375da7a27-55"}, {"reasons": {"count": 0, "items": [{"summary": "This spot is popular", "type": "general", "reasonName": "globalInteractionReason"}]}, "venue": {"id": "4adcda83f964a520c94821e3", "name": "van Loon Restaurantschiff", "location": {"address": "Carl-Herz-Ufer 5", "crossStreet": "Baerwaldbr\u00fccke", "lat": 52.49582143246863, "lng": 13.4070826800045, "labeledLatLngs": [{"label": "display", "lat": 52.49582143246863, "lng": 13.4070826800045}], "distance": 966, "postalCode": "10961", "cc": "DE", "city": "Berlin", "state": "Berlin", "country": "Deutschland", "formattedAddress": ["Carl-Herz-Ufer 5 (Baerwaldbr\u00fccke)", "10961 Berlin", "Deutschland"]}, "categories": [{"id": "4bf58dd8d48988d10d941735", "name": "German Restaurant", "pluralName": "German Restaurants", "shortName": "German", "icon": {"prefix": "https://ss3.4sqi.net/img/categories_v2/food/german_", "suffix": ".png"}, "primary": true}], "photos": {"count": 0, "groups": []}}, "referralId": "e-0-4adcda83f964a520c94821e3-56"}, {"reasons": {"count": 0, "items": [{"summary": "This spot is popular", "type": "general", "reasonName": "globalInteractionReason"}]}, "venue": {"id": "4c3d4821a9509c745d73395b", "name": "Adina Apartment Hotel Berlin Checkpoint Charlie", "location": {"address": "Krausenstr. 35-36", "lat": 52.50963425397286, "lng": 13.397532639098973, "labeledLatLngs": [{"label": "display", "lat": 52.50963425397286, "lng": 13.397532639098973}], "distance": 824, "postalCode": "10117", "cc": "DE", "city": "Berlin", "state": "Berlin", "country": "Deutschland", "formattedAddress": ["Krausenstr. 35-36", "10117 Berlin", "Deutschland"]}, "categories": [{"id": "4bf58dd8d48988d1fa931735", "name": "Hotel", "pluralName": "Hotels", "shortName": "Hotel", "icon": {"prefix": "https://ss3.4sqi.net/img/categories_v2/travel/hotel_", "suffix": ".png"}, "primary": true}], "photos": {"count": 0, "groups": []}}, "referralId": "e-0-4c3d4821a9509c745d73395b-57"}, {"reasons": {"count": 0, "items": [{"summary": "This spot is popular", "type": "general", "reasonName": "globalInteractionReason"}]}, "venue": {"id": "55bceead498e58c1296dbafc", "name": "AVAN", "location": {"address": "Mauerstr. 81", "lat": 52.50910138180226, "lng": 13.388735019641526, "labeledLatLngs": [{"label": "display", "lat": 52.50910138180226, "lng": 13.388735019641526}], "distance": 966, "postalCode": "10117", "cc": "DE", "city": "Berlin", "state": "Berlin", "country": "Deutschland", "formattedAddress": ["Mauerstr. 81", "10117 Berlin", "Deutschland"]}, "categories": [{"id": "4bf58dd8d48988d142941735", "name": "Asian Restaurant", "pluralName": "Asian Restaurants", "shortName": "Asian", "icon": {"prefix": "https://ss3.4sqi.net/img/categories_v2/food/asian_", "suffix": ".png"}, "primary": true}], "photos": {"count": 0, "groups": []}}, "referralId": "e-0-55bceead498e58c1296dbafc-58"}, {"reasons": {"count": 0, "items": [{"summary": "This spot is popular", "type": "general", "reasonName": "globalInteractionReason"}]}, "venue": {"id": "5911e5dca0215b2f37d5ab60", "name": "Novum Select Hotel Berlin The Wall", "location": {"address": "Zimmerstr. 88", "lat": 52.507945591800805, "lng": 13.388608718368271, "labeledLatLngs": [{"label": "display", "lat": 52.507945591800805, "lng": 13.388608718368271}], "distance": 874, "postalCode": "10117", "cc": "DE", "city": "Berlin", "state": "Berlin", "country": "Deutschland", "formattedAddress": ["Zimmerstr. 88", "10117 Berlin", "Deutschland"]}, "categories": [{"id": "4bf58dd8d48988d1fa931735", "name": "Hotel", "pluralName": "Hotels", "shortName": "Hotel", "icon": {"prefix": "https://ss3.4sqi.net/img/categories_v2/travel/hotel_", "suffix": ".png"}, "primary": true}], "photos": {"count": 0, "groups": []}}, "referralId": "e-0-5911e5dca0215b2f37d5ab60-59"}, {"reasons": {"count": 0, "items": [{"summary": "This spot is popular", "type": "general", "reasonName": "globalInteractionReason"}]}, "venue": {"id": "554cf6dc498e1edf5569bf09", "name": "Crowne Plaza Berlin Potsdamer Platz", "location": {"address": "Hallesche Str 10", "crossStreet": "M\u00f6ckernstr.", "lat": 52.5015295, "lng": 13.3830256, "labeledLatLngs": [{"label": "display", "lat": 52.5015295, "lng": 13.3830256}], "distance": 981, "postalCode": "10963", "cc": "DE", "city": "Berlin", "state": "Berlin", "country": "Deutschland", "formattedAddress": ["Hallesche Str 10 (M\u00f6ckernstr.)", "10963 Berlin", "Deutschland"]}, "categories": [{"id": "4bf58dd8d48988d1fa931735", "name": "Hotel", "pluralName": "Hotels", "shortName": "Hotel", "icon": {"prefix": "https://ss3.4sqi.net/img/categories_v2/travel/hotel_", "suffix": ".png"}, "primary": true}], "photos": {"count": 0, "groups": []}}, "referralId": "e-0-554cf6dc498e1edf5569bf09-60"}, {"reasons": {"count": 0, "items": [{"summary": "This spot is popular", "type": "general", "reasonName": "globalInteractionReason"}]}, "venue": {"id": "55c88a49498e01d9ef871c9a", "name": "Mazot Coffee Roasters", "location": {"address": "Marktgrafenstr. 58", "lat": 52.50798457532964, "lng": 13.394045202299008, "labeledLatLngs": [{"label": "display", "lat": 52.50798457532964, "lng": 13.394045202299008}], "distance": 681, "postalCode": "10117", "cc": "DE", "city": "Berlin", "state": "Berlin", "country": "Deutschland", "formattedAddress": ["Marktgrafenstr. 58", "10117 Berlin", "Deutschland"]}, "categories": [{"id": "4bf58dd8d48988d16d941735", "name": "Caf\u00e9", "pluralName": "Caf\u00e9s", "shortName": "Caf\u00e9", "icon": {"prefix": "https://ss3.4sqi.net/img/categories_v2/food/cafe_", "suffix": ".png"}, "primary": true}], "photos": {"count": 0, "groups": []}}, "referralId": "e-0-55c88a49498e01d9ef871c9a-61"}, {"reasons": {"count": 0, "items": [{"summary": "This spot is popular", "type": "general", "reasonName": "globalInteractionReason"}]}, "venue": {"id": "4bac9df2f964a52089fe3ae3", "name": "Mercure Hotel & Residenz Checkpoint Charlie", "location": {"address": "Schuetzenstrasse 11", "crossStreet": "Markgrafenstr.", "lat": 52.50861975369737, "lng": 13.393126360157453, "labeledLatLngs": [{"label": "display", "lat": 52.50861975369737, "lng": 13.393126360157453}], "distance": 769, "postalCode": "10117", "cc": "DE", "city": "Berlin", "state": "Berlin", "country": "Deutschland", "formattedAddress": ["Schuetzenstrasse 11 (Markgrafenstr.)", "10117 Berlin", "Deutschland"]}, "categories": [{"id": "4bf58dd8d48988d1fa931735", "name": "Hotel", "pluralName": "Hotels", "shortName": "Hotel", "icon": {"prefix": "https://ss3.4sqi.net/img/categories_v2/travel/hotel_", "suffix": ".png"}, "primary": true}], "photos": {"count": 0, "groups": []}}, "referralId": "e-0-4bac9df2f964a52089fe3ae3-62"}, {"reasons": {"count": 0, "items": [{"summary": "This spot is popular", "type": "general", "reasonName": "globalInteractionReason"}]}, "venue": {"id": "5529326b498e28d039433338", "name": "High5", "location": {"address": "Leipziger Stra\u00dfe 46/47", "lat": 52.510495330017875, "lng": 13.397393964150979, "labeledLatLngs": [{"label": "display", "lat": 52.510495330017875, "lng": 13.397393964150979}], "distance": 919, "postalCode": "10117", "cc": "DE", "city": "Berlin", "state": "Berlin", "country": "Deutschland", "formattedAddress": ["Leipziger Stra\u00dfe 46/47", "10117 Berlin", "Deutschland"]}, "categories": [{"id": "4bf58dd8d48988d175941735", "name": "Gym / Fitness Center", "pluralName": "Gyms or Fitness Centers", "shortName": "Gym / Fitness", "icon": {"prefix": "https://ss3.4sqi.net/img/categories_v2/building/gym_", "suffix": ".png"}, "primary": true}], "photos": {"count": 0, "groups": []}}, "referralId": "e-0-5529326b498e28d039433338-63"}, {"reasons": {"count": 0, "items": [{"summary": "This spot is popular", "type": "general", "reasonName": "globalInteractionReason"}]}, "venue": {"id": "50684fc6e4b08b705a5dee84", "name": "B-swingt", "location": {"address": "Ritterstra\u00dfe 12 - 14", "lat": 52.50180944600324, "lng": 13.411082364671932, "labeledLatLngs": [{"label": "display", "lat": 52.50180944600324, "lng": 13.411082364671932}], "distance": 923, "postalCode": "10969", "cc": "DE", "city": "Berlin", "state": "Berlin", "country": "Deutschland", "formattedAddress": ["Ritterstra\u00dfe 12 - 14", "10969 Berlin", "Deutschland"]}, "categories": [{"id": "4bf58dd8d48988d134941735", "name": "Dance Studio", "pluralName": "Dance Studios", "shortName": "Dance Studio", "icon": {"prefix": "https://ss3.4sqi.net/img/categories_v2/arts_entertainment/performingarts_dancestudio_", "suffix": ".png"}, "primary": true}], "photos": {"count": 0, "groups": []}}, "referralId": "e-0-50684fc6e4b08b705a5dee84-64"}, {"reasons": {"count": 0, "items": [{"summary": "This spot is popular", "type": "general", "reasonName": "globalInteractionReason"}]}, "venue": {"id": "4aeca2a8f964a520b6c921e3", "name": "Ritter Butzke", "location": {"address": "Ritterstr. 26", "crossStreet": "Lobeckstr.", "lat": 52.50282340294553, "lng": 13.40804611989337, "labeledLatLngs": [{"label": "display", "lat": 52.50282340294553, "lng": 13.40804611989337}], "distance": 719, "postalCode": "10969", "cc": "DE", "city": "Berlin", "state": "Berlin", "country": "Deutschland", "formattedAddress": ["Ritterstr. 26 (Lobeckstr.)", "10969 Berlin", "Deutschland"]}, "categories": [{"id": "4bf58dd8d48988d11f941735", "name": "Nightclub", "pluralName": "Nightclubs", "shortName": "Nightclub", "icon": {"prefix": "https://ss3.4sqi.net/img/categories_v2/nightlife/nightclub_", "suffix": ".png"}, "primary": true}], "photos": {"count": 0, "groups": []}}, "referralId": "e-0-4aeca2a8f964a520b6c921e3-65"}, {"reasons": {"count": 0, "items": [{"summary": "This spot is popular", "type": "general", "reasonName": "globalInteractionReason"}]}, "venue": {"id": "4c86209047cc224b4b66a69f", "name": "Sp\u00e4tzle Club", "location": {"address": "Seydelstr. 2", "lat": 52.510680750205964, "lng": 13.40229570865631, "labeledLatLngs": [{"label": "display", "lat": 52.510680750205964, "lng": 13.40229570865631}], "distance": 995, "postalCode": "10117", "cc": "DE", "city": "Berlin", "state": "Berlin", "country": "Deutschland", "formattedAddress": ["Seydelstr. 2", "10117 Berlin", "Deutschland"]}, "categories": [{"id": "56aa371ce4b08b9a8d573576", "name": "Swabian Restaurant", "pluralName": "Swabian Restaurants", "shortName": "Swabian", "icon": {"prefix": "https://ss3.4sqi.net/img/categories_v2/food/german_", "suffix": ".png"}, "primary": true}], "photos": {"count": 0, "groups": []}}, "referralId": "e-0-4c86209047cc224b4b66a69f-66"}, {"reasons": {"count": 0, "items": [{"summary": "This spot is popular", "type": "general", "reasonName": "globalInteractionReason"}]}, "venue": {"id": "587611d925911e3390a89ada", "name": "Gung Korean Restaurant", "location": {"lat": 52.50878974820595, "lng": 13.404687623935066, "labeledLatLngs": [{"label": "display", "lat": 52.50878974820595, "lng": 13.404687623935066}], "distance": 878, "cc": "DE", "city": "Berlin", "state": "Berlin", "country": "Deutschland", "formattedAddress": ["Berlin", "Deutschland"]}, "categories": [{"id": "4bf58dd8d48988d113941735", "name": "Korean Restaurant", "pluralName": "Korean Restaurants", "shortName": "Korean", "icon": {"prefix": "https://ss3.4sqi.net/img/categories_v2/food/korean_", "suffix": ".png"}, "primary": true}], "photos": {"count": 0, "groups": []}}, "referralId": "e-0-587611d925911e3390a89ada-67"}, {"reasons": {"count": 0, "items": [{"summary": "This spot is popular", "type": "general", "reasonName": "globalInteractionReason"}]}, "venue": {"id": "4c9619c6f244b1f7fc4c311d", "name": "Hotel Gat Point Charlie", "location": {"address": "Mauerstr. 81", "crossStreet": "Krausenstr.", "lat": 52.50889793775351, "lng": 13.38823873091376, "labeledLatLngs": [{"label": "display", "lat": 52.50889793775351, "lng": 13.38823873091376}], "distance": 970, "postalCode": "10117", "cc": "DE", "city": "Berlin", "state": "Berlin", "country": "Deutschland", "formattedAddress": ["Mauerstr. 81 (Krausenstr.)", "10117 Berlin", "Deutschland"]}, "categories": [{"id": "4bf58dd8d48988d1fa931735", "name": "Hotel", "pluralName": "Hotels", "shortName": "Hotel", "icon": {"prefix": "https://ss3.4sqi.net/img/categories_v2/travel/hotel_", "suffix": ".png"}, "primary": true}], "photos": {"count": 0, "groups": []}}, "referralId": "e-0-4c9619c6f244b1f7fc4c311d-68"}, {"reasons": {"count": 0, "items": [{"summary": "This spot is popular", "type": "general", "reasonName": "globalInteractionReason"}]}, "venue": {"id": "4ed9f077be7be2833726d3e0", "name": "Buchhandlung am Moritzplatz", "location": {"address": "Prinzenstr. 85", "lat": 52.50356439036725, "lng": 13.41027681121108, "labeledLatLngs": [{"label": "display", "lat": 52.50356439036725, "lng": 13.41027681121108}], "distance": 880, "postalCode": "10969", "cc": "DE", "city": "Berlin", "state": "Berlin", "country": "Deutschland", "formattedAddress": ["Prinzenstr. 85", "10969 Berlin", "Deutschland"]}, "categories": [{"id": "4bf58dd8d48988d114951735", "name": "Bookstore", "pluralName": "Bookstores", "shortName": "Bookstore", "icon": {"prefix": "https://ss3.4sqi.net/img/categories_v2/shops/bookstore_", "suffix": ".png"}, "primary": true}], "photos": {"count": 0, "groups": []}}, "referralId": "e-0-4ed9f077be7be2833726d3e0-69"}, {"reasons": {"count": 0, "items": [{"summary": "This spot is popular", "type": "general", "reasonName": "globalInteractionReason"}]}, "venue": {"id": "5b59feb2acb00b0039cfbcdc", "name": "Mirami - Sushi & Asia fusion cuisin", "location": {"address": "Stresemannstr. 48", "lat": 52.50176728510371, "lng": 13.385925009408492, "labeledLatLngs": [{"label": "display", "lat": 52.50176728510371, "lng": 13.385925009408492}], "distance": 783, "postalCode": "10963", "cc": "DE", "city": "Berlin", "state": "Berlin", "country": "Deutschland", "formattedAddress": ["Stresemannstr. 48", "10963 Berlin", "Deutschland"]}, "categories": [{"id": "4bf58dd8d48988d142941735", "name": "Asian Restaurant", "pluralName": "Asian Restaurants", "shortName": "Asian", "icon": {"prefix": "https://ss3.4sqi.net/img/categories_v2/food/asian_", "suffix": ".png"}, "primary": true}], "photos": {"count": 0, "groups": []}}, "referralId": "e-0-5b59feb2acb00b0039cfbcdc-70"}, {"reasons": {"count": 0, "items": [{"summary": "This spot is popular", "type": "general", "reasonName": "globalInteractionReason"}]}, "venue": {"id": "4da1ae34540ea1cd0d596cde", "name": "Split-Grill", "location": {"address": "Bl\u00fccherplatz 2", "lat": 52.49633720113276, "lng": 13.390552552143735, "labeledLatLngs": [{"label": "display", "lat": 52.49633720113276, "lng": 13.390552552143735}], "distance": 806, "cc": "DE", "city": "Berlin", "state": "Berlin", "country": "Deutschland", "formattedAddress": ["Bl\u00fccherplatz 2", "Berlin", "Deutschland"]}, "categories": [{"id": "4bf58dd8d48988d109941735", "name": "Eastern European Restaurant", "pluralName": "Eastern European Restaurants", "shortName": "Eastern European", "icon": {"prefix": "https://ss3.4sqi.net/img/categories_v2/food/default_", "suffix": ".png"}, "primary": true}], "photos": {"count": 0, "groups": []}}, "referralId": "e-0-4da1ae34540ea1cd0d596cde-71"}, {"reasons": {"count": 0, "items": [{"summary": "This spot is popular", "type": "general", "reasonName": "globalInteractionReason"}]}, "venue": {"id": "4b818041f964a52097aa30e3", "name": "HAU 3 | Hebbel am Ufer", "location": {"address": "Tempelhofer Ufer 10", "lat": 52.49753803223642, "lng": 13.385848357590852, "labeledLatLngs": [{"label": "display", "lat": 52.49753803223642, "lng": 13.385848357590852}], "distance": 944, "postalCode": "10963", "cc": "DE", "city": "Berlin", "state": "Berlin", "country": "Deutschland", "formattedAddress": ["Tempelhofer Ufer 10", "10963 Berlin", "Deutschland"]}, "categories": [{"id": "4bf58dd8d48988d137941735", "name": "Theater", "pluralName": "Theaters", "shortName": "Theater", "icon": {"prefix": "https://ss3.4sqi.net/img/categories_v2/arts_entertainment/performingarts_theater_", "suffix": ".png"}, "primary": true}], "photos": {"count": 0, "groups": []}}, "referralId": "e-0-4b818041f964a52097aa30e3-72"}, {"reasons": {"count": 0, "items": [{"summary": "This spot is popular", "type": "general", "reasonName": "globalInteractionReason"}]}, "venue": {"id": "4e05f5b11f6e211033832b90", "name": "minimum im Aufbau Haus", "location": {"address": "Prinzenstr. 85", "lat": 52.50318334, "lng": 13.40982699, "labeledLatLngs": [{"label": "display", "lat": 52.50318334, "lng": 13.40982699}], "distance": 844, "postalCode": "10969", "cc": "DE", "neighborhood": "Moritzplatz", "city": "Berlin", "state": "Berlin", "country": "Deutschland", "formattedAddress": ["Prinzenstr. 85", "10969 Berlin", "Deutschland"]}, "categories": [{"id": "4bf58dd8d48988d1f8941735", "name": "Furniture / Home Store", "pluralName": "Furniture / Home Stores", "shortName": "Furniture / Home", "icon": {"prefix": "https://ss3.4sqi.net/img/categories_v2/shops/furniture_", "suffix": ".png"}, "primary": true}], "photos": {"count": 0, "groups": []}, "venuePage": {"id": "573512812"}}, "referralId": "e-0-4e05f5b11f6e211033832b90-73"}, {"reasons": {"count": 0, "items": [{"summary": "This spot is popular", "type": "general", "reasonName": "globalInteractionReason"}]}, "venue": {"id": "4e143b30d16447c40d15f7c3", "name": "\u00d6kotussi", "location": {"address": "Gro\u00dfbeerenstr. 11", "crossStreet": "Tempelhofer Ufer", "lat": 52.498151706953045, "lng": 13.38478088378906, "labeledLatLngs": [{"label": "display", "lat": 52.498151706953045, "lng": 13.38478088378906}], "distance": 972, "postalCode": "10963", "cc": "DE", "neighborhood": "Viktoriakiez", "city": "Berlin", "state": "Berlin", "country": "Deutschland", "formattedAddress": ["Gro\u00dfbeerenstr. 11 (Tempelhofer Ufer)", "10963 Berlin", "Deutschland"]}, "categories": [{"id": "4bf58dd8d48988d1d3941735", "name": "Vegetarian / Vegan Restaurant", "pluralName": "Vegetarian / Vegan Restaurants", "shortName": "Vegetarian / Vegan", "icon": {"prefix": "https://ss3.4sqi.net/img/categories_v2/food/vegetarian_", "suffix": ".png"}, "primary": true}], "photos": {"count": 0, "groups": []}}, "referralId": "e-0-4e143b30d16447c40d15f7c3-74"}, {"reasons": {"count": 0, "items": [{"summary": "This spot is popular", "type": "general", "reasonName": "globalInteractionReason"}]}, "venue": {"id": "59c0f2544b78c507e0b0b975", "name": "Yarok", "location": {"address": "Wilhelmstr. 41a", "lat": 52.50701781738316, "lng": 13.385916868771202, "labeledLatLngs": [{"label": "display", "lat": 52.50701781738316, "lng": 13.385916868771202}], "distance": 946, "postalCode": "10963", "cc": "DE", "neighborhood": "Kreuzberg", "city": "Berlin", "state": "Berlin", "country": "Deutschland", "formattedAddress": ["Wilhelmstr. 41a", "10963 Berlin", "Deutschland"]}, "categories": [{"id": "4bf58dd8d48988d115941735", "name": "Middle Eastern Restaurant", "pluralName": "Middle Eastern Restaurants", "shortName": "Middle Eastern", "icon": {"prefix": "https://ss3.4sqi.net/img/categories_v2/food/middleeastern_", "suffix": ".png"}, "primary": true}], "photos": {"count": 0, "groups": []}}, "referralId": "e-0-59c0f2544b78c507e0b0b975-75"}, {"reasons": {"count": 0, "items": [{"summary": "This spot is popular", "type": "general", "reasonName": "globalInteractionReason"}]}, "venue": {"id": "4b98c796f964a520424f35e3", "name": "LPG BioMarkt", "location": {"address": "Mehringdamm 20 - 30", "lat": 52.49591051023063, "lng": 13.388715124262275, "labeledLatLngs": [{"label": "display", "lat": 52.49591051023063, "lng": 13.388715124262275}], "distance": 920, "postalCode": "10961", "cc": "DE", "city": "Berlin", "state": "Berlin", "country": "Deutschland", "formattedAddress": ["Mehringdamm 20 - 30", "10961 Berlin", "Deutschland"]}, "categories": [{"id": "52f2ab2ebcbc57f1066b8b45", "name": "Organic Grocery", "pluralName": "Organic Groceries", "shortName": "Organic Grocery", "icon": {"prefix": "https://ss3.4sqi.net/img/categories_v2/shops/food_grocery_", "suffix": ".png"}, "primary": true}], "photos": {"count": 0, "groups": []}}, "referralId": "e-0-4b98c796f964a520424f35e3-76"}, {"reasons": {"count": 0, "items": [{"summary": "This spot is popular", "type": "general", "reasonName": "globalInteractionReason"}]}, "venue": {"id": "4e71dc9f2271d116928c6654", "name": "Getr\u00e4nke Hoffmann", "location": {"address": "Gitschiner Str. 83-84", "lat": 52.49870264111934, "lng": 13.40353980466, "labeledLatLngs": [{"label": "display", "lat": 52.49870264111934, "lng": 13.40353980466}], "distance": 568, "postalCode": "10969", "cc": "DE", "city": "Berlin", "state": "Berlin", "country": "Deutschland", "formattedAddress": ["Gitschiner Str. 83-84", "10969 Berlin", "Deutschland"]}, "categories": [{"id": "4bf58dd8d48988d1f9941735", "name": "Food & Drink Shop", "pluralName": "Food & Drink Shops", "shortName": "Food & Drink", "icon": {"prefix": "https://ss3.4sqi.net/img/categories_v2/shops/foodanddrink_", "suffix": ".png"}, "primary": true}], "photos": {"count": 0, "groups": []}}, "referralId": "e-0-4e71dc9f2271d116928c6654-77"}, {"reasons": {"count": 0, "items": [{"summary": "This spot is popular", "type": "general", "reasonName": "globalInteractionReason"}]}, "venue": {"id": "523eea39498e54212d2d7162", "name": "Ellys Back & Caf\u00e9", "location": {"address": "Gro\u00dfbeerenstr. 85", "lat": 52.49818436482165, "lng": 13.3853280544281, "labeledLatLngs": [{"label": "display", "lat": 52.49818436482165, "lng": 13.3853280544281}], "distance": 937, "postalCode": "10963", "cc": "DE", "city": "Berlin", "state": "Berlin", "country": "Deutschland", "formattedAddress": ["Gro\u00dfbeerenstr. 85", "10963 Berlin", "Deutschland"]}, "categories": [{"id": "4bf58dd8d48988d16a941735", "name": "Bakery", "pluralName": "Bakeries", "shortName": "Bakery", "icon": {"prefix": "https://ss3.4sqi.net/img/categories_v2/food/bakery_", "suffix": ".png"}, "primary": true}], "photos": {"count": 0, "groups": []}}, "referralId": "e-0-523eea39498e54212d2d7162-78"}, {"reasons": {"count": 0, "items": [{"summary": "This spot is popular", "type": "general", "reasonName": "globalInteractionReason"}]}, "venue": {"id": "5c9cb462054e29002c28d5dc", "name": "Dookie", "location": {"address": "Prinzenstrasse 85D", "lat": 52.502998, "lng": 13.409968, "labeledLatLngs": [{"label": "display", "lat": 52.502998, "lng": 13.409968}], "distance": 851, "postalCode": "10969", "cc": "DE", "neighborhood": "Moritzplatz", "city": "Berlin", "state": "Berlin", "country": "Deutschland", "formattedAddress": ["Prinzenstrasse 85D", "10969 Berlin", "Deutschland"]}, "categories": [{"id": "4bf58dd8d48988d1ca941735", "name": "Pizza Place", "pluralName": "Pizza Places", "shortName": "Pizza", "icon": {"prefix": "https://ss3.4sqi.net/img/categories_v2/food/pizza_", "suffix": ".png"}, "primary": true}], "photos": {"count": 0, "groups": []}}, "referralId": "e-0-5c9cb462054e29002c28d5dc-79"}, {"reasons": {"count": 0, "items": [{"summary": "This spot is popular", "type": "general", "reasonName": "globalInteractionReason"}]}, "venue": {"id": "5a520364d552c76a47afad4b", "name": "ZWEITAUSEND - Kaffee Kantine", "location": {"address": "Lobeckstrasse 30-35", "lat": 52.503108893768555, "lng": 13.407526016235352, "labeledLatLngs": [{"label": "display", "lat": 52.503108893768555, "lng": 13.407526016235352}], "distance": 688, "postalCode": "10969", "cc": "DE", "neighborhood": "Moritzplatz", "city": "Berlin", "state": "Berlin", "country": "Deutschland", "formattedAddress": ["Lobeckstrasse 30-35", "10969 Berlin", "Deutschland"]}, "categories": [{"id": "4bf58dd8d48988d1e0931735", "name": "Coffee Shop", "pluralName": "Coffee Shops", "shortName": "Coffee Shop", "icon": {"prefix": "https://ss3.4sqi.net/img/categories_v2/food/coffeeshop_", "suffix": ".png"}, "primary": true}], "photos": {"count": 0, "groups": []}}, "referralId": "e-0-5a520364d552c76a47afad4b-80"}, {"reasons": {"count": 0, "items": [{"summary": "This spot is popular", "type": "general", "reasonName": "globalInteractionReason"}]}, "venue": {"id": "4bb51a93f562ef3b1f7e2e97", "name": "\u00cfMA Design Village", "location": {"address": "Ritterstr. 12-14", "lat": 52.50202852864877, "lng": 13.4111661803341, "labeledLatLngs": [{"label": "display", "lat": 52.50202852864877, "lng": 13.4111661803341}], "distance": 928, "postalCode": "10969", "cc": "DE", "city": "Berlin", "state": "Berlin", "country": "Deutschland", "formattedAddress": ["Ritterstr. 12-14", "10969 Berlin", "Deutschland"]}, "categories": [{"id": "4bf58dd8d48988d171941735", "name": "Event Space", "pluralName": "Event Spaces", "shortName": "Event Space", "icon": {"prefix": "https://ss3.4sqi.net/img/categories_v2/building/eventspace_", "suffix": ".png"}, "primary": true}], "photos": {"count": 0, "groups": []}}, "referralId": "e-0-4bb51a93f562ef3b1f7e2e97-81"}, {"reasons": {"count": 0, "items": [{"summary": "This spot is popular", "type": "general", "reasonName": "globalInteractionReason"}]}, "venue": {"id": "52502623498efb890ac2cb06", "name": "Burgers & Hiphop", "location": {"address": "Prinzenstr. 85", "lat": 52.50313773939755, "lng": 13.408944084296653, "labeledLatLngs": [{"label": "display", "lat": 52.50313773939755, "lng": 13.408944084296653}], "distance": 784, "postalCode": "10969", "cc": "DE", "city": "Berlin", "state": "Berlin", "country": "Deutschland", "formattedAddress": ["Prinzenstr. 85", "10969 Berlin", "Deutschland"]}, "categories": [{"id": "4bf58dd8d48988d16c941735", "name": "Burger Joint", "pluralName": "Burger Joints", "shortName": "Burgers", "icon": {"prefix": "https://ss3.4sqi.net/img/categories_v2/food/burger_", "suffix": ".png"}, "primary": true}], "photos": {"count": 0, "groups": []}}, "referralId": "e-0-52502623498efb890ac2cb06-82"}, {"reasons": {"count": 0, "items": [{"summary": "This spot is popular", "type": "general", "reasonName": "globalInteractionReason"}]}, "venue": {"id": "5724ba64498e8d0ac14caa89", "name": "Sandwich Bar", "location": {"address": "Seydelstr. 21", "crossStreet": "Neue Gr\u00fcnstr.", "lat": 52.509097265853846, "lng": 13.404543399810791, "labeledLatLngs": [{"label": "display", "lat": 52.509097265853846, "lng": 13.404543399810791}], "distance": 902, "postalCode": "10117", "cc": "DE", "city": "Berlin", "state": "Berlin", "country": "Deutschland", "formattedAddress": ["Seydelstr. 21 (Neue Gr\u00fcnstr.)", "10117 Berlin", "Deutschland"]}, "categories": [{"id": "4bf58dd8d48988d1c5941735", "name": "Sandwich Place", "pluralName": "Sandwich Places", "shortName": "Sandwiches", "icon": {"prefix": "https://ss3.4sqi.net/img/categories_v2/food/deli_", "suffix": ".png"}, "primary": true}], "photos": {"count": 0, "groups": []}}, "referralId": "e-0-5724ba64498e8d0ac14caa89-83"}, {"reasons": {"count": 0, "items": [{"summary": "This spot is popular", "type": "general", "reasonName": "globalInteractionReason"}]}, "venue": {"id": "4c5af8e2d3aee21ea2066c55", "name": "Pizzeria Laila", "location": {"address": "Tempelherrenstr. 2", "lat": 52.4947320689501, "lng": 13.400458526135502, "labeledLatLngs": [{"label": "display", "lat": 52.4947320689501, "lng": 13.400458526135502}], "distance": 859, "postalCode": "10961", "cc": "DE", "city": "Berlin", "state": "Berlin", "country": "Deutschland", "formattedAddress": ["Tempelherrenstr. 2", "10961 Berlin", "Deutschland"]}, "categories": [{"id": "4bf58dd8d48988d110941735", "name": "Italian Restaurant", "pluralName": "Italian Restaurants", "shortName": "Italian", "icon": {"prefix": "https://ss3.4sqi.net/img/categories_v2/food/italian_", "suffix": ".png"}, "primary": true}], "photos": {"count": 0, "groups": []}}, "referralId": "e-0-4c5af8e2d3aee21ea2066c55-84"}, {"reasons": {"count": 0, "items": [{"summary": "This spot is popular", "type": "general", "reasonName": "globalInteractionReason"}]}, "venue": {"id": "4cffc7086edfa0930ba80815", "name": "Grimm's Hotel", "location": {"address": "Alte Jakobstr. 100", "lat": 52.50838380227373, "lng": 13.40512883619959, "labeledLatLngs": [{"label": "display", "lat": 52.50838380227373, "lng": 13.40512883619959}], "distance": 859, "postalCode": "10179", "cc": "DE", "city": "Berlin", "state": "Berlin", "country": "Deutschland", "formattedAddress": ["Alte Jakobstr. 100", "10179 Berlin", "Deutschland"]}, "categories": [{"id": "4bf58dd8d48988d1fa931735", "name": "Hotel", "pluralName": "Hotels", "shortName": "Hotel", "icon": {"prefix": "https://ss3.4sqi.net/img/categories_v2/travel/hotel_", "suffix": ".png"}, "primary": true}], "photos": {"count": 0, "groups": []}}, "referralId": "e-0-4cffc7086edfa0930ba80815-85"}, {"reasons": {"count": 0, "items": [{"summary": "This spot is popular", "type": "general", "reasonName": "globalInteractionReason"}]}, "venue": {"id": "4dcd5ef38877851243dc8bc5", "name": "International S\u00fcpermarket", "location": {"address": "Oranienstr. 71", "lat": 52.504793447520264, "lng": 13.407399070596492, "labeledLatLngs": [{"label": "display", "lat": 52.504793447520264, "lng": 13.407399070596492}], "distance": 730, "postalCode": "10969", "cc": "DE", "city": "Berlin", "state": "Berlin", "country": "Deutschland", "formattedAddress": ["Oranienstr. 71", "10969 Berlin", "Deutschland"]}, "categories": [{"id": "4bf58dd8d48988d118951735", "name": "Grocery Store", "pluralName": "Grocery Stores", "shortName": "Grocery Store", "icon": {"prefix": "https://ss3.4sqi.net/img/categories_v2/shops/food_grocery_", "suffix": ".png"}, "primary": true}], "photos": {"count": 0, "groups": []}}, "referralId": "e-0-4dcd5ef38877851243dc8bc5-86"}, {"reasons": {"count": 0, "items": [{"summary": "This spot is popular", "type": "general", "reasonName": "globalInteractionReason"}]}, "venue": {"id": "4e1eba5218a813a4dac2952e", "name": "Waldeckpark", "location": {"lat": 52.50612988114617, "lng": 13.403041257076449, "labeledLatLngs": [{"label": "display", "lat": 52.50612988114617, "lng": 13.403041257076449}], "distance": 575, "cc": "DE", "city": "Berlin", "state": "Berlin", "country": "Deutschland", "formattedAddress": ["Berlin", "Deutschland"]}, "categories": [{"id": "4bf58dd8d48988d163941735", "name": "Park", "pluralName": "Parks", "shortName": "Park", "icon": {"prefix": "https://ss3.4sqi.net/img/categories_v2/parks_outdoors/park_", "suffix": ".png"}, "primary": true}], "photos": {"count": 0, "groups": []}}, "referralId": "e-0-4e1eba5218a813a4dac2952e-87"}, {"reasons": {"count": 0, "items": [{"summary": "This spot is popular", "type": "general", "reasonName": "globalInteractionReason"}]}, "venue": {"id": "4e89d0b2b634bc3516294470", "name": "Caf\u00e9 Dix", "location": {"address": "Alte Jakobstr. 124-128", "lat": 52.50346734473606, "lng": 13.39855135289351, "labeledLatLngs": [{"label": "display", "lat": 52.50346734473606, "lng": 13.39855135289351}], "distance": 155, "postalCode": "10969", "cc": "DE", "city": "Berlin", "state": "Berlin", "country": "Deutschland", "formattedAddress": ["Alte Jakobstr. 124-128", "10969 Berlin", "Deutschland"]}, "categories": [{"id": "4bf58dd8d48988d16d941735", "name": "Caf\u00e9", "pluralName": "Caf\u00e9s", "shortName": "Caf\u00e9", "icon": {"prefix": "https://ss3.4sqi.net/img/categories_v2/food/cafe_", "suffix": ".png"}, "primary": true}], "photos": {"count": 0, "groups": []}}, "referralId": "e-0-4e89d0b2b634bc3516294470-88"}, {"reasons": {"count": 0, "items": [{"summary": "This spot is popular", "type": "general", "reasonName": "globalInteractionReason"}]}, "venue": {"id": "4af4da5ef964a520f0f621e3", "name": "Aral", "location": {"address": "Prinzenstra\u00dfe 29", "lat": 52.50187584, "lng": 13.409716, "labeledLatLngs": [{"label": "display", "lat": 52.50187584, "lng": 13.409716}], "distance": 830, "postalCode": "10969", "cc": "DE", "city": "Berlin", "state": "Berlin", "country": "Deutschland", "formattedAddress": ["Prinzenstra\u00dfe 29", "10969 Berlin", "Deutschland"]}, "categories": [{"id": "4bf58dd8d48988d113951735", "name": "Gas Station", "pluralName": "Gas Stations", "shortName": "Gas Station", "icon": {"prefix": "https://ss3.4sqi.net/img/categories_v2/shops/gas_", "suffix": ".png"}, "primary": true}], "photos": {"count": 0, "groups": []}, "venuePage": {"id": "583948155"}}, "referralId": "e-0-4af4da5ef964a520f0f621e3-89"}, {"reasons": {"count": 0, "items": [{"summary": "This spot is popular", "type": "general", "reasonName": "globalInteractionReason"}]}, "venue": {"id": "57099ce7498ebe45ccef0164", "name": "MIRIKA", "location": {"address": "Prinzenstr. 103", "crossStreet": "Wassertorstr.", "lat": 52.49999266651727, "lng": 13.407587532743982, "labeledLatLngs": [{"label": "display", "lat": 52.49999266651727, "lng": 13.407587532743982}], "distance": 729, "postalCode": "10969", "cc": "DE", "city": "Berlin", "state": "Berlin", "country": "Deutschland", "formattedAddress": ["Prinzenstr. 103 (Wassertorstr.)", "10969 Berlin", "Deutschland"]}, "categories": [{"id": "4bf58dd8d48988d155941735", "name": "Gastropub", "pluralName": "Gastropubs", "shortName": "Gastropub", "icon": {"prefix": "https://ss3.4sqi.net/img/categories_v2/food/gastropub_", "suffix": ".png"}, "primary": true}], "photos": {"count": 0, "groups": []}, "venuePage": {"id": "176401760"}}, "referralId": "e-0-57099ce7498ebe45ccef0164-90"}, {"reasons": {"count": 0, "items": [{"summary": "This spot is popular", "type": "general", "reasonName": "globalInteractionReason"}]}, "venue": {"id": "4b6c1312f964a52074222ce3", "name": "Getr\u00e4nke Hoffmann", "location": {"address": "Oranienstr. 110", "lat": 52.506017853844675, "lng": 13.401942469767615, "labeledLatLngs": [{"label": "display", "lat": 52.506017853844675, "lng": 13.401942469767615}], "distance": 519, "postalCode": "10969", "cc": "DE", "city": "Berlin", "state": "Berlin", "country": "Deutschland", "formattedAddress": ["Oranienstr. 110", "10969 Berlin", "Deutschland"]}, "categories": [{"id": "4bf58dd8d48988d186941735", "name": "Liquor Store", "pluralName": "Liquor Stores", "shortName": "Liquor Store", "icon": {"prefix": "https://ss3.4sqi.net/img/categories_v2/shops/food_liquor_", "suffix": ".png"}, "primary": true}], "photos": {"count": 0, "groups": []}}, "referralId": "e-0-4b6c1312f964a52074222ce3-91"}, {"reasons": {"count": 0, "items": [{"summary": "This spot is popular", "type": "general", "reasonName": "globalInteractionReason"}]}, "venue": {"id": "4b6eab6cf964a52004c62ce3", "name": "Motel One Berlin-Mitte", "location": {"address": "Prinzenstr. 40-42", "crossStreet": "Moritzplatz", "lat": 52.50421594335257, "lng": 13.411136720865482, "labeledLatLngs": [{"label": "display", "lat": 52.50421594335257, "lng": 13.411136720865482}], "distance": 952, "postalCode": "10969", "cc": "DE", "city": "Berlin", "state": "Berlin", "country": "Deutschland", "formattedAddress": ["Prinzenstr. 40-42 (Moritzplatz)", "10969 Berlin", "Deutschland"]}, "categories": [{"id": "4bf58dd8d48988d1fa931735", "name": "Hotel", "pluralName": "Hotels", "shortName": "Hotel", "icon": {"prefix": "https://ss3.4sqi.net/img/categories_v2/travel/hotel_", "suffix": ".png"}, "primary": true}], "photos": {"count": 0, "groups": []}, "venuePage": {"id": "479696110"}}, "referralId": "e-0-4b6eab6cf964a52004c62ce3-92"}, {"reasons": {"count": 0, "items": [{"summary": "This spot is popular", "type": "general", "reasonName": "globalInteractionReason"}]}, "venue": {"id": "52164d36498e2c16c64fbab0", "name": "Innervisions/Muting The Noise", "location": {"address": "Bl\u00fccherstra\u00dfe 22", "lat": 52.49430580686262, "lng": 13.39882551287591, "labeledLatLngs": [{"label": "display", "lat": 52.49430580686262, "lng": 13.39882551287591}], "distance": 887, "postalCode": "10961", "cc": "DE", "city": "Berlin", "state": "Berlin", "country": "Deutschland", "formattedAddress": ["Bl\u00fccherstra\u00dfe 22", "10961 Berlin", "Deutschland"]}, "categories": [{"id": "4bf58dd8d48988d1fe941735", "name": "Music Store", "pluralName": "Music Stores", "shortName": "Music Store", "icon": {"prefix": "https://ss3.4sqi.net/img/categories_v2/shops/music_instruments_", "suffix": ".png"}, "primary": true}], "photos": {"count": 0, "groups": []}}, "referralId": "e-0-52164d36498e2c16c64fbab0-93"}, {"reasons": {"count": 0, "items": [{"summary": "This spot is popular", "type": "general", "reasonName": "globalInteractionReason"}]}, "venue": {"id": "4e668a54d16433b9fff9f53a", "name": "Prince Charles", "location": {"address": "Prinzenstr. 85f", "lat": 52.50317850882833, "lng": 13.408848428768707, "labeledLatLngs": [{"label": "display", "lat": 52.50317850882833, "lng": 13.408848428768707}], "distance": 778, "postalCode": "10969", "cc": "DE", "city": "Berlin", "state": "Berlin", "country": "Deutschland", "formattedAddress": ["Prinzenstr. 85f", "10969 Berlin", "Deutschland"]}, "categories": [{"id": "4bf58dd8d48988d11f941735", "name": "Nightclub", "pluralName": "Nightclubs", "shortName": "Nightclub", "icon": {"prefix": "https://ss3.4sqi.net/img/categories_v2/nightlife/nightclub_", "suffix": ".png"}, "primary": true}], "photos": {"count": 0, "groups": []}}, "referralId": "e-0-4e668a54d16433b9fff9f53a-94"}, {"reasons": {"count": 0, "items": [{"summary": "This spot is popular", "type": "general", "reasonName": "globalInteractionReason"}]}, "venue": {"id": "4b883bdff964a5205ee931e3", "name": "Freudenzimmer", "location": {"address": "Ritterstr. 11", "lat": 52.501792165418486, "lng": 13.411753982471163, "labeledLatLngs": [{"label": "display", "lat": 52.501792165418486, "lng": 13.411753982471163}], "distance": 969, "cc": "DE", "city": "Berlin", "state": "Berlin", "country": "Deutschland", "formattedAddress": ["Ritterstr. 11", "Berlin", "Deutschland"]}, "categories": [{"id": "4bf58dd8d48988d11f941735", "name": "Nightclub", "pluralName": "Nightclubs", "shortName": "Nightclub", "icon": {"prefix": "https://ss3.4sqi.net/img/categories_v2/nightlife/nightclub_", "suffix": ".png"}, "primary": true}], "photos": {"count": 0, "groups": []}}, "referralId": "e-0-4b883bdff964a5205ee931e3-95"}, {"reasons": {"count": 0, "items": [{"summary": "This spot is popular", "type": "general", "reasonName": "globalInteractionReason"}]}, "venue": {"id": "5b62d645f5e9d7002c420f1d", "name": "Shishi", "location": {"address": "Ritterstra\u00dfe 12-14", "lat": 52.502155, "lng": 13.411516, "labeledLatLngs": [{"label": "display", "lat": 52.502155, "lng": 13.411516}], "distance": 952, "postalCode": "10969", "cc": "DE", "neighborhood": "Moritzplatz", "city": "Berlin", "state": "Berlin", "country": "Deutschland", "formattedAddress": ["Ritterstra\u00dfe 12-14", "10969 Berlin", "Deutschland"]}, "categories": [{"id": "56aa371be4b08b9a8d573529", "name": "Israeli Restaurant", "pluralName": "Israeli Restaurants", "shortName": "Israeli", "icon": {"prefix": "https://ss3.4sqi.net/img/categories_v2/food/falafel_", "suffix": ".png"}, "primary": true}], "photos": {"count": 0, "groups": []}}, "referralId": "e-0-5b62d645f5e9d7002c420f1d-96"}, {"reasons": {"count": 0, "items": [{"summary": "This spot is popular", "type": "general", "reasonName": "globalInteractionReason"}]}, "venue": {"id": "55eec07e498e5ccf20841caa", "name": "Pacifico", "location": {"address": "Oranienstr. 147", "lat": 52.50384734485071, "lng": 13.40989250334581, "labeledLatLngs": [{"label": "display", "lat": 52.50384734485071, "lng": 13.40989250334581}], "distance": 860, "postalCode": "10969", "cc": "DE", "city": "Berlin", "state": "Berlin", "country": "Deutschland", "formattedAddress": ["Oranienstr. 147", "10969 Berlin", "Deutschland"]}, "categories": [{"id": "4bf58dd8d48988d113941735", "name": "Korean Restaurant", "pluralName": "Korean Restaurants", "shortName": "Korean", "icon": {"prefix": "https://ss3.4sqi.net/img/categories_v2/food/korean_", "suffix": ".png"}, "primary": true}], "photos": {"count": 0, "groups": []}}, "referralId": "e-0-55eec07e498e5ccf20841caa-97"}, {"reasons": {"count": 0, "items": [{"summary": "This spot is popular", "type": "general", "reasonName": "globalInteractionReason"}]}, "venue": {"id": "514e3d73e4b057957d215970", "name": "Divan T\u00fcrk\u00fc Bar", "location": {"address": "Kommandantenstr. 33", "crossStreet": "Alexandrinenstr.", "lat": 52.50567229964117, "lng": 13.406360659574444, "labeledLatLngs": [{"label": "display", "lat": 52.50567229964117, "lng": 13.406360659574444}], "distance": 714, "postalCode": "10969", "cc": "DE", "city": "Berlin", "state": "Berlin", "country": "Deutschland", "formattedAddress": ["Kommandantenstr. 33 (Alexandrinenstr.)", "10969 Berlin", "Deutschland"]}, "categories": [{"id": "4bf58dd8d48988d116941735", "name": "Bar", "pluralName": "Bars", "shortName": "Bar", "icon": {"prefix": "https://ss3.4sqi.net/img/categories_v2/nightlife/pub_", "suffix": ".png"}, "primary": true}], "photos": {"count": 0, "groups": []}}, "referralId": "e-0-514e3d73e4b057957d215970-98"}, {"reasons": {"count": 0, "items": [{"summary": "This spot is popular", "type": "general", "reasonName": "globalInteractionReason"}]}, "venue": {"id": "4c49f99042b4d13a9e798b7c", "name": "Zum Kleinen Moritz", "location": {"address": "Prinzenstr. 39", "lat": 52.50389255454382, "lng": 13.410753539988665, "labeledLatLngs": [{"label": "display", "lat": 52.50389255454382, "lng": 13.410753539988665}], "distance": 919, "postalCode": "10969", "cc": "DE", "city": "Berlin", "state": "Berlin", "country": "Deutschland", "formattedAddress": ["Prinzenstr. 39", "10969 Berlin", "Deutschland"]}, "categories": [{"id": "4bf58dd8d48988d116941735", "name": "Bar", "pluralName": "Bars", "shortName": "Bar", "icon": {"prefix": "https://ss3.4sqi.net/img/categories_v2/nightlife/pub_", "suffix": ".png"}, "primary": true}], "photos": {"count": 0, "groups": []}}, "referralId": "e-0-4c49f99042b4d13a9e798b7c-99"}]