[{"reasons": {"count": 0, "items": [{"summary": "This spot is popular", "type": "general", "reasonName": "globalInteractionReason"}]}, "venue": {"id": "57ca9752498e22fc8f3ce61e", "name": "Caf\u00e9 Mugrabi", "location": {"address": "G\u00f6rlitzer Str. 58", "crossStreet": "Sorauer Str.", "lat": 52.49770362044022, "lng": 13.43741654590141, "labeledLatLngs": [{"label": "display", "lat": 52.49770362044022, "lng": 13.43741654590141}], "distance": 164, "postalCode": "10997", "cc": "DE", "city": "Berlin", "state": "Berlin", "country": "Deutschland", "formattedAddress": ["G\u00f6rlitzer Str. 58 (Sorauer Str.)", "10997 Berlin", "Deutschland"]}, "categories": [{"id": "4bf58dd8d48988d143941735", "name": "Breakfast Spot", "pluralName": "Breakfast Spots", "shortName": "Breakfast", "icon": {"prefix": "https://ss3.4sqi.net/img/categories_v2/food/breakfast_", "suffix": ".png"}, "primary": true}], "photos": {"count": 0, "groups": []}}, "referralId": "e-0-57ca9752498e22fc8f3ce61e-0"}, {"reasons": {"count": 0, "items": [{"summary": "This spot is popular", "type": "general", "reasonName": "globalInteractionReason"}]}, "venue": {"id": "5394c03a498e82b504ad7a95", "name": "Facciola", "location": {"address": "Forster Str. 5", "lat": 52.49572843103693, "lng": 13.433771348040839, "labeledLatLngs": [{"label": "display", "lat": 52.49572843103693, "lng": 13.433771348040839}], "distance": 217, "postalCode": "10999", "cc": "DE", "city": "Berlin", "state": "Berlin", "country": "Deutschland", "formattedAddress": ["Forster Str. 5", "10999 Berlin", "Deutschland"]}, "categories": [{"id": "4bf58dd8d48988d123941735", "name": "Wine Bar", "pluralName": "Wine Bars", "shortName": "Wine Bar", "icon": {"prefix": "https://ss3.4sqi.net/img/categories_v2/food/winery_", "suffix": ".png"}, "primary": true}], "photos": {"count": 0, "groups": []}}, "referralId": "e-0-5394c03a498e82b504ad7a95-1"}, {"reasons": {"count": 0, "items": [{"summary": "This spot is popular", "type": "general", "reasonName": "globalInteractionReason"}]}, "venue": {"id": "4d5ec4d95b276dcbea9ffec5", "name": "De Noantri", "location": {"address": "G\u00f6rlitzer Str. 63", "lat": 52.498214, "lng": 13.436039, "labeledLatLngs": [{"label": "display", "lat": 52.498214, "lng": 13.436039}], "distance": 224, "postalCode": "10997", "cc": "DE", "city": "Berlin", "state": "Berlin", "country": "Deutschland", "formattedAddress": ["G\u00f6rlitzer Str. 63", "10997 Berlin", "Deutschland"]}, "categories": [{"id": "4bf58dd8d48988d110941735", "name": "Italian Restaurant", "pluralName": "Italian Restaurants", "shortName": "Italian", "icon": {"prefix": "https://ss3.4sqi.net/img/categories_v2/food/italian_", "suffix": ".png"}, "primary": true}], "photos": {"count": 0, "groups": []}}, "referralId": "e-0-4d5ec4d95b276dcbea9ffec5-2"}, {"reasons": {"count": 0, "items": [{"summary": "This spot is popular", "type": "general", "reasonName": "globalInteractionReason"}]}, "venue": {"id": "4d5574dae7f1a1cd45b7faa4", "name": "Bar Raval", "location": {"address": "L\u00fcbbener Str. 1", "crossStreet": "G\u00f6rlitzer Str.", "lat": 52.49804393581454, "lng": 13.436357080936432, "labeledLatLngs": [{"label": "display", "lat": 52.49804393581454, "lng": 13.436357080936432}], "distance": 201, "postalCode": "10997", "cc": "DE", "city": "Berlin", "state": "Berlin", "country": "Deutschland", "formattedAddress": ["L\u00fcbbener Str. 1 (G\u00f6rlitzer Str.)", "10997 Berlin", "Deutschland"]}, "categories": [{"id": "4bf58dd8d48988d1db931735", "name": "Tapas Restaurant", "pluralName": "Tapas Restaurants", "shortName": "Tapas", "icon": {"prefix": "https://ss3.4sqi.net/img/categories_v2/food/tapas_", "suffix": ".png"}, "primary": true}], "photos": {"count": 0, "groups": []}}, "referralId": "e-0-4d5574dae7f1a1cd45b7faa4-3"}, {"reasons": {"count": 0, "items": [{"summary": "This spot is popular", "type": "general", "reasonName": "globalInteractionReason"}]}, "venue": {"id": "4af5de29f964a5200bfe21e3", "name": "Nest", "location": {"address": "G\u00f6rlitzer Str. 52", "crossStreet": "Oppelner Str.", "lat": 52.49712052755012, "lng": 13.439009234381851, "labeledLatLngs": [{"label": "display", "lat": 52.49712052755012, "lng": 13.439009234381851}], "distance": 174, "postalCode": "10997", "cc": "DE", "city": "Berlin", "state": "Berlin", "country": "Deutschland", "formattedAddress": ["G\u00f6rlitzer Str. 52 (Oppelner Str.)", "10997 Berlin", "Deutschland"]}, "categories": [{"id": "4bf58dd8d48988d16d941735", "name": "Caf\u00e9", "pluralName": "Caf\u00e9s", "shortName": "Caf\u00e9", "icon": {"prefix": "https://ss3.4sqi.net/img/categories_v2/food/cafe_", "suffix": ".png"}, "primary": true}], "photos": {"count": 0, "groups": []}, "venuePage": {"id": "42413796"}}, "referralId": "e-0-4af5de29f964a5200bfe21e3-4"}, {"reasons": {"count": 0, "items": [{"summary": "This spot is popular", "type": "general", "reasonName": "globalInteractionReason"}]}, "venue": {"id": "4db82521fa8c377d83b7e93b", "name": "Five Elephant", "location": {"address": "Reichenberger Str. 101", "crossStreet": "Glogauer Str.", "lat": 52.49332943821452, "lng": 13.438029659465533, "labeledLatLngs": [{"label": "display", "lat": 52.49332943821452, "lng": 13.438029659465533}], "distance": 336, "postalCode": "10999", "cc": "DE", "city": "Berlin", "state": "Berlin", "country": "Deutschland", "formattedAddress": ["Reichenberger Str. 101 (Glogauer Str.)", "10999 Berlin", "Deutschland"]}, "categories": [{"id": "4bf58dd8d48988d1e0931735", "name": "Coffee Shop", "pluralName": "Coffee Shops", "shortName": "Coffee Shop", "icon": {"prefix": "https://ss3.4sqi.net/img/categories_v2/food/coffeeshop_", "suffix": ".png"}, "primary": true}], "photos": {"count": 0, "groups": []}}, "referralId": "e-0-4db82521fa8c377d83b7e93b-5"}, {"reasons": {"count": 0, "items": [{"summary": "This spot is popular", "type": "general", "reasonName": "globalInteractionReason"}]}, "venue": {"id": "4c114c86416620a16fdbd8e4", "name": "USCHI nation", "location": {"address": "Reichenbergerstr. 111", "crossStreet": "Liegnitzer strasse", "lat": 52.494243279028275, "lng": 13.435198224614945, "labeledLatLngs": [{"label": "display", "lat": 52.494243279028275, "lng": 13.435198224614945}], "distance": 251, "postalCode": "10999", "cc": "DE", "city": "Berlin", "state": "Berlin", "country": "Deutschland", "formattedAddress": ["Reichenbergerstr. 111 (Liegnitzer strasse)", "10999 Berlin", "Deutschland"]}, "categories": [{"id": "4bf58dd8d48988d116941735", "name": "Bar", "pluralName": "Bars", "shortName": "Bar", "icon": {"prefix": "https://ss3.4sqi.net/img/categories_v2/nightlife/pub_", "suffix": ".png"}, "primary": true}], "photos": {"count": 0, "groups": []}}, "referralId": "e-0-4c114c86416620a16fdbd8e4-6"}, {"reasons": {"count": 0, "items": [{"summary": "This spot is popular", "type": "general", "reasonName": "globalInteractionReason"}]}, "venue": {"id": "4ee251e5f5b9c102eb136843", "name": "Senegambia", "location": {"address": "Reichenberger Str. 72a", "lat": 52.49462459251267, "lng": 13.433660414689246, "labeledLatLngs": [{"label": "display", "lat": 52.49462459251267, "lng": 13.433660414689246}], "distance": 282, "cc": "DE", "city": "Berlin", "state": "Berlin", "country": "Deutschland", "formattedAddress": ["Reichenberger Str. 72a", "Berlin", "Deutschland"]}, "categories": [{"id": "4bf58dd8d48988d1c8941735", "name": "African Restaurant", "pluralName": "African Restaurants", "shortName": "African", "icon": {"prefix": "https://ss3.4sqi.net/img/categories_v2/food/african_", "suffix": ".png"}, "primary": true}], "photos": {"count": 0, "groups": []}}, "referralId": "e-0-4ee251e5f5b9c102eb136843-7"}, {"reasons": {"count": 0, "items": [{"summary": "This spot is popular", "type": "general", "reasonName": "globalInteractionReason"}]}, "venue": {"id": "56fbd9cb498e7b20f66cc8b8", "name": "vanille & marille", "location": {"address": "Reichenberger Str. 118", "crossStreet": "Forster Str.", "lat": 52.4947747524091, "lng": 13.433350324630737, "labeledLatLngs": [{"label": "display", "lat": 52.4947747524091, "lng": 13.433350324630737}], "distance": 289, "postalCode": "10999", "cc": "DE", "neighborhood": "Kreuzberg", "city": "Berlin", "state": "Berlin", "country": "Deutschland", "formattedAddress": ["Reichenberger Str. 118 (Forster Str.)", "10999 Berlin", "Deutschland"]}, "categories": [{"id": "4bf58dd8d48988d1c9941735", "name": "Ice Cream Shop", "pluralName": "Ice Cream Shops", "shortName": "Ice Cream", "icon": {"prefix": "https://ss3.4sqi.net/img/categories_v2/food/icecream_", "suffix": ".png"}, "primary": true}], "photos": {"count": 0, "groups": []}}, "referralId": "e-0-56fbd9cb498e7b20f66cc8b8-8"}, {"reasons": {"count": 0, "items": [{"summary": "This spot is popular", "type": "general", "reasonName": "globalInteractionReason"}]}, "venue": {"id": "4e6f47e2c65b6d433ad581ef", "name": "I Golosi Briganti", "location": {"address": "Falckensteinstr. 33", "lat": 52.497944568383176, "lng": 13.441769741048313, "labeledLatLngs": [{"label": "display", "lat": 52.497944568383176, "lng": 13.441769741048313}], "distance": 382, "postalCode": "10997", "cc": "DE", "city": "Berlin", "state": "Berlin", "country": "Deutschland", "formattedAddress": ["Falckensteinstr. 33", "10997 Berlin", "Deutschland"]}, "categories": [{"id": "4bf58dd8d48988d146941735", "name": "Deli / Bodega", "pluralName": "Delis / Bodegas", "shortName": "Deli / Bodega", "icon": {"prefix": "https://ss3.4sqi.net/img/categories_v2/food/deli_", "suffix": ".png"}, "primary": true}], "photos": {"count": 0, "groups": []}}, "referralId": "e-0-4e6f47e2c65b6d433ad581ef-9"}, {"reasons": {"count": 0, "items": [{"summary": "This spot is popular", "type": "general", "reasonName": "globalInteractionReason"}]}, "venue": {"id": "4c3f19230e0d0f47ab6c167f", "name": "Nachtigall Imbiss", "location": {"address": "Ohlauer Str. 10", "lat": 52.496771, "lng": 13.431313, "labeledLatLngs": [{"label": "display", "lat": 52.496771, "lng": 13.431313}], "distance": 379, "postalCode": "10999", "cc": "DE", "neighborhood": "Kreuzberg", "city": "Berlin", "state": "Berlin", "country": "Deutschland", "formattedAddress": ["Ohlauer Str. 10", "10999 Berlin", "Deutschland"]}, "categories": [{"id": "58daa1558bbb0b01f18ec1cd", "name": "Lebanese Restaurant", "pluralName": "Lebanese Restaurants", "shortName": "Lebanese", "icon": {"prefix": "https://ss3.4sqi.net/img/categories_v2/food/middleeastern_", "suffix": ".png"}, "primary": true}], "photos": {"count": 0, "groups": []}}, "referralId": "e-0-4c3f19230e0d0f47ab6c167f-10"}, {"reasons": {"count": 0, "items": [{"summary": "This spot is popular", "type": "general", "reasonName": "globalInteractionReason"}]}, "venue": {"id": "513ed476e4b0579d42f760cc", "name": "eliza - Caf\u00e9 & Lieblingsst\u00fccke", "location": {"address": "Sorauer Str. 6", "lat": 52.49902670119798, "lng": 13.438600811407404, "labeledLatLngs": [{"label": "display", "lat": 52.49902670119798, "lng": 13.438600811407404}], "distance": 329, "postalCode": "10997", "cc": "DE", "city": "Berlin", "state": "Berlin", "country": "Deutschland", "formattedAddress": ["Sorauer Str. 6", "10997 Berlin", "Deutschland"]}, "categories": [{"id": "4bf58dd8d48988d16d941735", "name": "Caf\u00e9", "pluralName": "Caf\u00e9s", "shortName": "Caf\u00e9", "icon": {"prefix": "https://ss3.4sqi.net/img/categories_v2/food/cafe_", "suffix": ".png"}, "primary": true}], "photos": {"count": 0, "groups": []}, "venuePage": {"id": "55590248"}}, "referralId": "e-0-513ed476e4b0579d42f760cc-11"}, {"reasons": {"count": 0, "items": [{"summary": "This spot is popular", "type": "general", "reasonName": "globalInteractionReason"}]}, "venue": {"id": "4df245777d8b18e1722a3390", "name": "Restaurant Bastard", "location": {"address": "Reichenberger Str. 122", "lat": 52.495228729472586, "lng": 13.431698083877563, "labeledLatLngs": [{"label": "display", "lat": 52.495228729472586, "lng": 13.431698083877563}], "distance": 367, "postalCode": "10999", "cc": "DE", "city": "Berlin", "state": "Berlin", "country": "Deutschland", "formattedAddress": ["Reichenberger Str. 122", "10999 Berlin", "Deutschland"]}, "categories": [{"id": "4bf58dd8d48988d143941735", "name": "Breakfast Spot", "pluralName": "Breakfast Spots", "shortName": "Breakfast", "icon": {"prefix": "https://ss3.4sqi.net/img/categories_v2/food/breakfast_", "suffix": ".png"}, "primary": true}], "photos": {"count": 0, "groups": []}, "venuePage": {"id": "450580870"}}, "referralId": "e-0-4df245777d8b18e1722a3390-12"}, {"reasons": {"count": 0, "items": [{"summary": "This spot is popular", "type": "general", "reasonName": "globalInteractionReason"}]}, "venue": {"id": "5362505e498efd2c40fcc0b5", "name": "Hopfenreich", "location": {"address": "Sorauer Str. 31", "lat": 52.499639642377716, "lng": 13.43929160699031, "labeledLatLngs": [{"label": "display", "lat": 52.499639642377716, "lng": 13.43929160699031}], "distance": 410, "postalCode": "10997", "cc": "DE", "city": "Berlin", "state": "Berlin", "country": "Deutschland", "formattedAddress": ["Sorauer Str. 31", "10997 Berlin", "Deutschland"]}, "categories": [{"id": "56aa371ce4b08b9a8d57356c", "name": "Beer Bar", "pluralName": "Beer Bars", "shortName": "Beer Bar", "icon": {"prefix": "https://ss3.4sqi.net/img/categories_v2/nightlife/pub_", "suffix": ".png"}, "primary": true}], "photos": {"count": 0, "groups": []}}, "referralId": "e-0-5362505e498efd2c40fcc0b5-13"}, {"reasons": {"count": 0, "items": [{"summary": "This spot is popular", "type": "general", "reasonName": "globalInteractionReason"}]}, "venue": {"id": "4b5608a4f964a520ebfc27e3", "name": "Kvartira Nr. 62", "location": {"address": "L\u00fcbbener Str. 18", "lat": 52.49990607474777, "lng": 13.437773963752973, "labeledLatLngs": [{"label": "display", "lat": 52.49990607474777, "lng": 13.437773963752973}], "distance": 410, "postalCode": "10997", "cc": "DE", "city": "Berlin", "state": "Berlin", "country": "Deutschland", "formattedAddress": ["L\u00fcbbener Str. 18", "10997 Berlin", "Deutschland"]}, "categories": [{"id": "4bf58dd8d48988d116941735", "name": "Bar", "pluralName": "Bars", "shortName": "Bar", "icon": {"prefix": "https://ss3.4sqi.net/img/categories_v2/nightlife/pub_", "suffix": ".png"}, "primary": true}], "photos": {"count": 0, "groups": []}}, "referralId": "e-0-4b5608a4f964a520ebfc27e3-14"}, {"reasons": {"count": 0, "items": [{"summary": "This spot is popular", "type": "general", "reasonName": "globalInteractionReason"}]}, "venue": {"id": "50b7c7cbe4b08ce3c6bd56a8", "name": "Sumak Teehaus", "location": {"address": "Wrangelstr. 46", "lat": 52.49919280814795, "lng": 13.440190826698386, "labeledLatLngs": [{"label": "display", "lat": 52.49919280814795, "lng": 13.440190826698386}], "distance": 396, "postalCode": "10997", "cc": "DE", "city": "Berlin", "state": "Berlin", "country": "Deutschland", "formattedAddress": ["Wrangelstr. 46", "10997 Berlin", "Deutschland"]}, "categories": [{"id": "4bf58dd8d48988d1dc931735", "name": "Tea Room", "pluralName": "Tea Rooms", "shortName": "Tea Room", "icon": {"prefix": "https://ss3.4sqi.net/img/categories_v2/food/tearoom_", "suffix": ".png"}, "primary": true}], "photos": {"count": 0, "groups": []}}, "referralId": "e-0-50b7c7cbe4b08ce3c6bd56a8-15"}, {"reasons": {"count": 0, "items": [{"summary": "This spot is popular", "type": "general", "reasonName": "globalInteractionReason"}]}, "venue": {"id": "4e3d6febd4c058f9dc04b56a", "name": "Mariona", "location": {"address": "Skalitzer Str. 94b", "lat": 52.49956140872608, "lng": 13.432568694630026, "labeledLatLngs": [{"label": "display", "lat": 52.49956140872608, "lng": 13.432568694630026}], "distance": 468, "postalCode": "10997", "cc": "DE", "city": "Berlin", "state": "Berlin", "country": "Deutschland", "formattedAddress": ["Skalitzer Str. 94b", "10997 Berlin", "Deutschland"]}, "categories": [{"id": "4bf58dd8d48988d150941735", "name": "Spanish Restaurant", "pluralName": "Spanish Restaurants", "shortName": "Spanish", "icon": {"prefix": "https://ss3.4sqi.net/img/categories_v2/food/spanish_", "suffix": ".png"}, "primary": true}], "photos": {"count": 0, "groups": []}}, "referralId": "e-0-4e3d6febd4c058f9dc04b56a-16"}, {"reasons": {"count": 0, "items": [{"summary": "This spot is popular", "type": "general", "reasonName": "globalInteractionReason"}]}, "venue": {"id": "4c127e1477cea5939d26cd60", "name": "Caf\u00e9 Quitte", "location": {"address": "Wiener Str. 62", "lat": 52.498255, "lng": 13.430397, "labeledLatLngs": [{"label": "display", "lat": 52.498255, "lng": 13.430397}], "distance": 490, "postalCode": "10999", "cc": "DE", "neighborhood": "Wiener Kiez", "city": "Berlin", "state": "Berlin", "country": "Deutschland", "formattedAddress": ["Wiener Str. 62", "10999 Berlin", "Deutschland"]}, "categories": [{"id": "4bf58dd8d48988d16d941735", "name": "Caf\u00e9", "pluralName": "Caf\u00e9s", "shortName": "Caf\u00e9", "icon": {"prefix": "https://ss3.4sqi.net/img/categories_v2/food/cafe_", "suffix": ".png"}, "primary": true}], "photos": {"count": 0, "groups": []}}, "referralId": "e-0-4c127e1477cea5939d26cd60-17"}, {"reasons": {"count": 0, "items": [{"summary": "This spot is popular", "type": "general", "reasonName": "globalInteractionReason"}]}, "venue": {"id": "57a8cf0a498e5a583a21daae", "name": "Duo Sicilian Ice Cream", "location": {"address": "Skalitzer Str. 82", "lat": 52.500581059463194, "lng": 13.438824605836999, "labeledLatLngs": [{"label": "display", "lat": 52.500581059463194, "lng": 13.438824605836999}], "distance": 498, "postalCode": "10997", "cc": "DE", "neighborhood": "Kreuzberg", "city": "Berlin", "state": "Berlin", "country": "Deutschland", "formattedAddress": ["Skalitzer Str. 82", "10997 Berlin", "Deutschland"]}, "categories": [{"id": "4bf58dd8d48988d1c9941735", "name": "Ice Cream Shop", "pluralName": "Ice Cream Shops", "shortName": "Ice Cream", "icon": {"prefix": "https://ss3.4sqi.net/img/categories_v2/food/icecream_", "suffix": ".png"}, "primary": true}], "photos": {"count": 0, "groups": []}}, "referralId": "e-0-57a8cf0a498e5a583a21daae-18"}, {"reasons": {"count": 0, "items": [{"summary": "This spot is popular", "type": "general", "reasonName": "globalInteractionReason"}]}, "venue": {"id": "55bbce23498ec82f69a393c0", "name": "PIZZA-BACK-KIEZ", "location": {"address": "Reichenberger Str. 81", "lat": 52.49383424263303, "lng": 13.43608958087457, "labeledLatLngs": [{"label": "display", "lat": 52.49383424263303, "lng": 13.43608958087457}], "distance": 275, "postalCode": "10999", "cc": "DE", "city": "Berlin", "state": "Berlin", "country": "Deutschland", "formattedAddress": ["Reichenberger Str. 81", "10999 Berlin", "Deutschland"]}, "categories": [{"id": "4bf58dd8d48988d1ca941735", "name": "Pizza Place", "pluralName": "Pizza Places", "shortName": "Pizza", "icon": {"prefix": "https://ss3.4sqi.net/img/categories_v2/food/pizza_", "suffix": ".png"}, "primary": true}], "photos": {"count": 0, "groups": []}}, "referralId": "e-0-55bbce23498ec82f69a393c0-19"}, {"reasons": {"count": 0, "items": [{"summary": "This spot is popular", "type": "general", "reasonName": "globalInteractionReason"}]}, "venue": {"id": "4adcda7ff964a520f54721e3", "name": "G\u00f6rlitzer Park", "location": {"address": "G\u00f6rlitzer Str.", "crossStreet": "Wiener Str.", "lat": 52.497051137217326, "lng": 13.436019316646357, "labeledLatLngs": [{"label": "display", "lat": 52.497051137217326, "lng": 13.436019316646357}], "distance": 104, "postalCode": "10997", "cc": "DE", "city": "Berlin", "state": "Berlin", "country": "Deutschland", "formattedAddress": ["G\u00f6rlitzer Str. (Wiener Str.)", "10997 Berlin", "Deutschland"]}, "categories": [{"id": "4bf58dd8d48988d163941735", "name": "Park", "pluralName": "Parks", "shortName": "Park", "icon": {"prefix": "https://ss3.4sqi.net/img/categories_v2/parks_outdoors/park_", "suffix": ".png"}, "primary": true}], "photos": {"count": 0, "groups": []}}, "referralId": "e-0-4adcda7ff964a520f54721e3-20"}, {"reasons": {"count": 0, "items": [{"summary": "This spot is popular", "type": "general", "reasonName": "globalInteractionReason"}]}, "venue": {"id": "4af49b4af964a52048f421e3", "name": "Mano Cafe", "location": {"address": "Skalitzer Str. 46A", "lat": 52.49912861276276, "lng": 13.430566300836764, "labeledLatLngs": [{"label": "display", "lat": 52.49912861276276, "lng": 13.430566300836764}], "distance": 532, "postalCode": "10997", "cc": "DE", "city": "Berlin", "state": "Berlin", "country": "Deutschland", "formattedAddress": ["Skalitzer Str. 46A", "10997 Berlin", "Deutschland"]}, "categories": [{"id": "4bf58dd8d48988d16d941735", "name": "Caf\u00e9", "pluralName": "Caf\u00e9s", "shortName": "Caf\u00e9", "icon": {"prefix": "https://ss3.4sqi.net/img/categories_v2/food/cafe_", "suffix": ".png"}, "primary": true}], "photos": {"count": 0, "groups": []}}, "referralId": "e-0-4af49b4af964a52048f421e3-21"}, {"reasons": {"count": 0, "items": [{"summary": "This spot is popular", "type": "general", "reasonName": "globalInteractionReason"}]}, "venue": {"id": "4ed936cae5fa78b16cb3a807", "name": "Filmkunstbar Fitzcarraldo", "location": {"address": "Reichenberger Str. 133", "crossStreet": "Lausitzer Str.", "lat": 52.49601010480827, "lng": 13.4290043022693, "labeledLatLngs": [{"label": "display", "lat": 52.49601010480827, "lng": 13.4290043022693}], "distance": 532, "postalCode": "10999", "cc": "DE", "city": "Berlin", "state": "Berlin", "country": "Deutschland", "formattedAddress": ["Reichenberger Str. 133 (Lausitzer Str.)", "10999 Berlin", "Deutschland"]}, "categories": [{"id": "4bf58dd8d48988d116941735", "name": "Bar", "pluralName": "Bars", "shortName": "Bar", "icon": {"prefix": "https://ss3.4sqi.net/img/categories_v2/nightlife/pub_", "suffix": ".png"}, "primary": true}], "photos": {"count": 0, "groups": []}}, "referralId": "e-0-4ed936cae5fa78b16cb3a807-22"}, {"reasons": {"count": 0, "items": [{"summary": "This spot is popular", "type": "general", "reasonName": "globalInteractionReason"}]}, "venue": {"id": "4fa6b8b8e4b0bbcd4ae09afc", "name": "Kumru Kuruyemis", "location": {"address": "Wrangelstr. 46", "crossStreet": "Oppelner Str.", "lat": 52.499318403575785, "lng": 13.440096121694314, "labeledLatLngs": [{"label": "display", "lat": 52.499318403575785, "lng": 13.440096121694314}], "distance": 405, "postalCode": "10097", "cc": "DE", "city": "Berlin", "state": "Berlin", "country": "Deutschland", "formattedAddress": ["Wrangelstr. 46 (Oppelner Str.)", "10097 Berlin", "Deutschland"]}, "categories": [{"id": "4bf58dd8d48988d1f5941735", "name": "Gourmet Shop", "pluralName": "Gourmet Shops", "shortName": "Gourmet", "icon": {"prefix": "https://ss3.4sqi.net/img/categories_v2/shops/food_gourmet_", "suffix": ".png"}, "primary": true}], "photos": {"count": 0, "groups": []}}, "referralId": "e-0-4fa6b8b8e4b0bbcd4ae09afc-23"}, {"reasons": {"count": 0, "items": [{"summary": "This spot is popular", "type": "general", "reasonName": "globalInteractionReason"}]}, "venue": {"id": "4c18e8b5838020a136dae461", "name": "Motto Berlin", "location": {"address": "Skalitzer Str. 68", "lat": 52.50021738363966, "lng": 13.439725276326694, "labeledLatLngs": [{"label": "display", "lat": 52.50021738363966, "lng": 13.439725276326694}], "distance": 481, "postalCode": "10997", "cc": "DE", "city": "Berlin", "state": "Berlin", "country": "Deutschland", "formattedAddress": ["Skalitzer Str. 68", "10997 Berlin", "Deutschland"]}, "categories": [{"id": "4bf58dd8d48988d114951735", "name": "Bookstore", "pluralName": "Bookstores", "shortName": "Bookstore", "icon": {"prefix": "https://ss3.4sqi.net/img/categories_v2/shops/bookstore_", "suffix": ".png"}, "primary": true}], "photos": {"count": 0, "groups": []}}, "referralId": "e-0-4c18e8b5838020a136dae461-24"}, {"reasons": {"count": 0, "items": [{"summary": "This spot is popular", "type": "general", "reasonName": "globalInteractionReason"}]}, "venue": {"id": "4dc454d6d22dafda2f88a217", "name": "NOER Wine Shop, Wine Bar & Wine Seminars", "location": {"address": "Falkensteinstr. 10", "lat": 52.49875094873738, "lng": 13.442509196924322, "labeledLatLngs": [{"label": "display", "lat": 52.49875094873738, "lng": 13.442509196924322}], "distance": 473, "postalCode": "10997", "cc": "DE", "city": "Berlin", "state": "Berlin", "country": "Deutschland", "formattedAddress": ["Falkensteinstr. 10", "10997 Berlin Kreuzberg", "Deutschland"]}, "categories": [{"id": "4bf58dd8d48988d119951735", "name": "Wine Shop", "pluralName": "Wine Shops", "shortName": "Wine Shop", "icon": {"prefix": "https://ss3.4sqi.net/img/categories_v2/shops/food_wineshop_", "suffix": ".png"}, "primary": true}], "photos": {"count": 0, "groups": []}, "venuePage": {"id": "62215937"}}, "referralId": "e-0-4dc454d6d22dafda2f88a217-25"}, {"reasons": {"count": 0, "items": [{"summary": "This spot is popular", "type": "general", "reasonName": "globalInteractionReason"}]}, "venue": {"id": "4d2875ee3c7954810e55ce9b", "name": "Kinderbauernhof im G\u00f6rli", "location": {"address": "Wiener Str. 59b", "lat": 52.495612891879205, "lng": 13.438439693770414, "labeledLatLngs": [{"label": "display", "lat": 52.495612891879205, "lng": 13.438439693770414}], "distance": 129, "postalCode": "10999", "cc": "DE", "city": "Berlin", "state": "Berlin", "country": "Deutschland", "formattedAddress": ["Wiener Str. 59b", "10999 Berlin", "Deutschland"]}, "categories": [{"id": "4bf58dd8d48988d15b941735", "name": "Farm", "pluralName": "Farms", "shortName": "Farm", "icon": {"prefix": "https://ss3.4sqi.net/img/categories_v2/parks_outdoors/farm_", "suffix": ".png"}, "primary": true}], "photos": {"count": 0, "groups": []}}, "referralId": "e-0-4d2875ee3c7954810e55ce9b-26"}, {"reasons": {"count": 0, "items": [{"summary": "This spot is popular", "type": "general", "reasonName": "globalInteractionReason"}]}, "venue": {"id": "4d970fc8af3d236a401d19c7", "name": "Bouleplatz am Ufer", "location": {"address": "Paul-Lincke-Ufer 11-13", "lat": 52.49262659208524, "lng": 13.432283350551362, "labeledLatLngs": [{"label": "display", "lat": 52.49262659208524, "lng": 13.432283350551362}], "distance": 509, "postalCode": "10999", "cc": "DE", "neighborhood": "Kreuzberg", "city": "Berlin", "state": "Berlin", "country": "Deutschland", "formattedAddress": ["Paul-Lincke-Ufer 11-13", "10999 Berlin", "Deutschland"]}, "categories": [{"id": "4bf58dd8d48988d164941735", "name": "Plaza", "pluralName": "Plazas", "shortName": "Plaza", "icon": {"prefix": "https://ss3.4sqi.net/img/categories_v2/parks_outdoors/plaza_", "suffix": ".png"}, "primary": true}], "photos": {"count": 0, "groups": []}}, "referralId": "e-0-4d970fc8af3d236a401d19c7-27"}, {"reasons": {"count": 0, "items": [{"summary": "This spot is popular", "type": "general", "reasonName": "globalInteractionReason"}]}, "venue": {"id": "4b524a05f964a520277527e3", "name": "Rissani", "location": {"address": "Spreewaldplatz 4", "lat": 52.498658935046706, "lng": 13.43138806228964, "labeledLatLngs": [{"label": "display", "lat": 52.498658935046706, "lng": 13.43138806228964}], "distance": 456, "postalCode": "10999", "cc": "DE", "city": "Berlin", "state": "Berlin", "country": "Deutschland", "formattedAddress": ["Spreewaldplatz 4", "10999 Berlin", "Deutschland"]}, "categories": [{"id": "4bf58dd8d48988d115941735", "name": "Middle Eastern Restaurant", "pluralName": "Middle Eastern Restaurants", "shortName": "Middle Eastern", "icon": {"prefix": "https://ss3.4sqi.net/img/categories_v2/food/middleeastern_", "suffix": ".png"}, "primary": true}], "photos": {"count": 0, "groups": []}}, "referralId": "e-0-4b524a05f964a520277527e3-28"}, {"reasons": {"count": 0, "items": [{"summary": "This spot is popular", "type": "general", "reasonName": "globalInteractionReason"}]}, "venue": {"id": "539368bc498e7b5d5b8b4fd7", "name": "IL KINO", "location": {"address": "Nansenstr. 22", "crossStreet": "Maybachufer", "lat": 52.49163582724672, "lng": 13.432972976382707, "labeledLatLngs": [{"label": "display", "lat": 52.49163582724672, "lng": 13.432972976382707}], "distance": 578, "postalCode": "12047", "cc": "DE", "city": "Berlin", "state": "Berlin", "country": "Deutschland", "formattedAddress": ["Nansenstr. 22 (Maybachufer)", "12047 Berlin", "Deutschland"]}, "categories": [{"id": "4bf58dd8d48988d17e941735", "name": "Indie Movie Theater", "pluralName": "Indie Movie Theaters", "shortName": "Indie Movies", "icon": {"prefix": "https://ss3.4sqi.net/img/categories_v2/arts_entertainment/movietheater_", "suffix": ".png"}, "primary": true}], "photos": {"count": 0, "groups": []}}, "referralId": "e-0-539368bc498e7b5d5b8b4fd7-29"}, {"reasons": {"count": 0, "items": [{"summary": "This spot is popular", "type": "general", "reasonName": "globalInteractionReason"}]}, "venue": {"id": "51cbed91498ea42f02b1600a", "name": "Bravo Bravko Kuchenwerkstatt", "location": {"address": "Lausitzer Str. 47", "lat": 52.497678, "lng": 13.429397, "labeledLatLngs": [{"label": "display", "lat": 52.497678, "lng": 13.429397}], "distance": 529, "postalCode": "10999", "cc": "DE", "city": "Berlin", "state": "Berlin", "country": "Deutschland", "formattedAddress": ["Lausitzer Str. 47", "10999 Berlin", "Deutschland"]}, "categories": [{"id": "5744ccdfe4b0c0459246b4e2", "name": "Pastry Shop", "pluralName": "Pastry Shops", "shortName": "Pastry", "icon": {"prefix": "https://ss3.4sqi.net/img/categories_v2/food/dessert_", "suffix": ".png"}, "primary": true}], "photos": {"count": 0, "groups": []}}, "referralId": "e-0-51cbed91498ea42f02b1600a-30"}, {"reasons": {"count": 0, "items": [{"summary": "This spot is popular", "type": "general", "reasonName": "globalInteractionReason"}]}, "venue": {"id": "5278e37c11d2363ca1173e30", "name": "Peace Yoga Berlin", "location": {"address": "Glogauer Stra\u00dfe 19", "crossStreet": "Paul-Lincke Ufer", "lat": 52.491944935934846, "lng": 13.436567388910188, "labeledLatLngs": [{"label": "display", "lat": 52.491944935934846, "lng": 13.436567388910188}], "distance": 481, "postalCode": "10999", "cc": "DE", "city": "Berlin", "state": "Berlin", "country": "Deutschland", "formattedAddress": ["Glogauer Stra\u00dfe 19 (Paul-Lincke Ufer)", "10999 Berlin", "Deutschland"]}, "categories": [{"id": "4bf58dd8d48988d102941735", "name": "Yoga Studio", "pluralName": "Yoga Studios", "shortName": "Yoga Studio", "icon": {"prefix": "https://ss3.4sqi.net/img/categories_v2/shops/gym_yogastudio_", "suffix": ".png"}, "primary": true}], "photos": {"count": 0, "groups": []}, "venuePage": {"id": "70962781"}}, "referralId": "e-0-5278e37c11d2363ca1173e30-31"}, {"reasons": {"count": 0, "items": [{"summary": "This spot is popular", "type": "general", "reasonName": "globalInteractionReason"}]}, "venue": {"id": "5cb4817151950e002c28dd35", "name": "Little Long", "location": {"address": "Wiener Str. 60", "lat": 52.498138, "lng": 13.430794, "labeledLatLngs": [{"label": "display", "lat": 52.498138, "lng": 13.430794}], "distance": 460, "postalCode": "10999", "cc": "DE", "city": "Berlin", "state": "Berlin", "country": "Deutschland", "formattedAddress": ["Wiener Str. 60", "10999 Berlin", "Deutschland"]}, "categories": [{"id": "4bf58dd8d48988d111941735", "name": "Japanese Restaurant", "pluralName": "Japanese Restaurants", "shortName": "Japanese", "icon": {"prefix": "https://ss3.4sqi.net/img/categories_v2/food/japanese_", "suffix": ".png"}, "primary": true}], "photos": {"count": 0, "groups": []}}, "referralId": "e-0-5cb4817151950e002c28dd35-32"}, {"reasons": {"count": 0, "items": [{"summary": "This spot is popular", "type": "general", "reasonName": "globalInteractionReason"}]}, "venue": {"id": "5c27cff7b8fd9d002c1a2918", "name": "Space Meduza", "location": {"address": "Skalitzer Strasse 80", "lat": 52.500588, "lng": 13.439365, "labeledLatLngs": [{"label": "display", "lat": 52.500588, "lng": 13.439365}], "distance": 510, "cc": "DE", "city": "Berlin", "state": "Berlin", "country": "Deutschland", "formattedAddress": ["Skalitzer Strasse 80", "Berlin", "Deutschland"]}, "categories": [{"id": "4bf58dd8d48988d118941735", "name": "Dive Bar", "pluralName": "Dive Bars", "shortName": "Dive Bar", "icon": {"prefix": "https://ss3.4sqi.net/img/categories_v2/nightlife/divebar_", "suffix": ".png"}, "primary": true}], "photos": {"count": 0, "groups": []}}, "referralId": "e-0-5c27cff7b8fd9d002c1a2918-33"}, {"reasons": {"count": 0, "items": [{"summary": "This spot is popular", "type": "general", "reasonName": "globalInteractionReason"}]}, "venue": {"id": "5b795c84037be1002c179d4b", "name": "Mmaah", "location": {"address": "Wiener Str. 31", "lat": 52.496697004974486, "lng": 13.433808912697778, "labeledLatLngs": [{"label": "display", "lat": 52.496697004974486, "lng": 13.433808912697778}], "distance": 211, "postalCode": "10999", "cc": "DE", "city": "Berlin", "state": "Berlin", "country": "Deutschland", "formattedAddress": ["Wiener Str. 31", "10999 Berlin", "Deutschland"]}, "categories": [{"id": "4bf58dd8d48988d113941735", "name": "Korean Restaurant", "pluralName": "Korean Restaurants", "shortName": "Korean", "icon": {"prefix": "https://ss3.4sqi.net/img/categories_v2/food/korean_", "suffix": ".png"}, "primary": true}], "photos": {"count": 0, "groups": []}}, "referralId": "e-0-5b795c84037be1002c179d4b-34"}, {"reasons": {"count": 0, "items": [{"summary": "This spot is popular", "type": "general", "reasonName": "globalInteractionReason"}]}, "venue": {"id": "4b6ffd9df964a52087022de3", "name": "Aldemir Eis & Caf\u00e9", "location": {"address": "Falckensteinstr. 7", "lat": 52.49924884555856, "lng": 13.443101845117674, "labeledLatLngs": [{"label": "display", "lat": 52.49924884555856, "lng": 13.443101845117674}], "distance": 538, "postalCode": "10997", "cc": "DE", "city": "Berlin", "state": "Berlin", "country": "Deutschland", "formattedAddress": ["Falckensteinstr. 7", "10997 Berlin", "Deutschland"]}, "categories": [{"id": "4bf58dd8d48988d1c9941735", "name": "Ice Cream Shop", "pluralName": "Ice Cream Shops", "shortName": "Ice Cream", "icon": {"prefix": "https://ss3.4sqi.net/img/categories_v2/food/icecream_", "suffix": ".png"}, "primary": true}], "photos": {"count": 0, "groups": []}, "venuePage": {"id": "554072400"}}, "referralId": "e-0-4b6ffd9df964a52087022de3-35"}, {"reasons": {"count": 0, "items": [{"summary": "This spot is popular", "type": "general", "reasonName": "globalInteractionReason"}]}, "venue": {"id": "5739f777cd10156641113284", "name": "Soya Vegan Vietnamese Kitchen", "location": {"address": "Falckensteinstr. 36", "lat": 52.498603, "lng": 13.442443, "labeledLatLngs": [{"label": "display", "lat": 52.498603, "lng": 13.442443}], "distance": 459, "postalCode": "10997", "cc": "DE", "city": "Berlin", "state": "Berlin", "country": "Deutschland", "formattedAddress": ["Falckensteinstr. 36", "10997 Berlin", "Deutschland"]}, "categories": [{"id": "4bf58dd8d48988d14a941735", "name": "Vietnamese Restaurant", "pluralName": "Vietnamese Restaurants", "shortName": "Vietnamese", "icon": {"prefix": "https://ss3.4sqi.net/img/categories_v2/food/vietnamese_", "suffix": ".png"}, "primary": true}], "photos": {"count": 0, "groups": []}}, "referralId": "e-0-5739f777cd10156641113284-36"}, {"reasons": {"count": 0, "items": [{"summary": "This spot is popular", "type": "general", "reasonName": "globalInteractionReason"}]}, "venue": {"id": "4ff489cce4b01992a9857e47", "name": "eurogida", "location": {"address": "Wrangelstr. 85", "lat": 52.49887325307828, "lng": 13.441245884043305, "labeledLatLngs": [{"label": "display", "lat": 52.49887325307828, "lng": 13.441245884043305}], "distance": 416, "postalCode": "10997", "cc": "DE", "city": "Berlin", "state": "Berlin", "country": "Deutschland", "formattedAddress": ["Wrangelstr. 85", "10997 Berlin", "Deutschland"]}, "categories": [{"id": "4bf58dd8d48988d118951735", "name": "Grocery Store", "pluralName": "Grocery Stores", "shortName": "Grocery Store", "icon": {"prefix": "https://ss3.4sqi.net/img/categories_v2/shops/food_grocery_", "suffix": ".png"}, "primary": true}], "photos": {"count": 0, "groups": []}}, "referralId": "e-0-4ff489cce4b01992a9857e47-37"}, {"reasons": {"count": 0, "items": [{"summary": "This spot is popular", "type": "general", "reasonName": "globalInteractionReason"}]}, "venue": {"id": "4f14a875e4b00420579c9e13", "name": "John Muir", "location": {"address": "Skalitzer Str. 51", "crossStreet": "G\u00f6rlitzer Str.", "lat": 52.499689457200915, "lng": 13.433965729603512, "labeledLatLngs": [{"label": "display", "lat": 52.499689457200915, "lng": 13.433965729603512}], "distance": 428, "postalCode": "10997", "cc": "DE", "city": "Berlin", "state": "Berlin", "country": "Deutschland", "formattedAddress": ["Skalitzer Str. 51 (G\u00f6rlitzer Str.)", "10997 Berlin", "Deutschland"]}, "categories": [{"id": "4bf58dd8d48988d11e941735", "name": "Cocktail Bar", "pluralName": "Cocktail Bars", "shortName": "Cocktail", "icon": {"prefix": "https://ss3.4sqi.net/img/categories_v2/nightlife/cocktails_", "suffix": ".png"}, "primary": true}], "photos": {"count": 0, "groups": []}}, "referralId": "e-0-4f14a875e4b00420579c9e13-38"}, {"reasons": {"count": 0, "items": [{"summary": "This spot is popular", "type": "general", "reasonName": "globalInteractionReason"}]}, "venue": {"id": "4c010e599a950f47737508c6", "name": "Taquer\u00eda Ta'Cabr\u00f3n", "location": {"address": "Skalitzer Str. 60", "lat": 52.50009273262563, "lng": 13.437117416991475, "labeledLatLngs": [{"label": "display", "lat": 52.50009273262563, "lng": 13.437117416991475}], "distance": 426, "postalCode": "10997", "cc": "DE", "city": "Berlin", "state": "Berlin", "country": "Deutschland", "formattedAddress": ["Skalitzer Str. 60", "10997 Berlin", "Deutschland"]}, "categories": [{"id": "4bf58dd8d48988d1c1941735", "name": "Mexican Restaurant", "pluralName": "Mexican Restaurants", "shortName": "Mexican", "icon": {"prefix": "https://ss3.4sqi.net/img/categories_v2/food/mexican_", "suffix": ".png"}, "primary": true}], "photos": {"count": 0, "groups": []}}, "referralId": "e-0-4c010e599a950f47737508c6-39"}, {"reasons": {"count": 0, "items": [{"summary": "This spot is popular", "type": "general", "reasonName": "globalInteractionReason"}]}, "venue": {"id": "4c753299604a3704e5eb8149", "name": "Pavillon am Ufer", "location": {"address": "Paul-Lincke-Ufer 4", "lat": 52.49166917576547, "lng": 13.435406297125612, "labeledLatLngs": [{"label": "display", "lat": 52.49166917576547, "lng": 13.435406297125612}], "distance": 520, "postalCode": "10999", "cc": "DE", "city": "Berlin", "state": "Berlin", "country": "Deutschland", "formattedAddress": ["Paul-Lincke-Ufer 4", "10999 Berlin", "Deutschland"]}, "categories": [{"id": "4bf58dd8d48988d1c7941735", "name": "Snack Place", "pluralName": "Snack Places", "shortName": "Snacks", "icon": {"prefix": "https://ss3.4sqi.net/img/categories_v2/food/snacks_", "suffix": ".png"}, "primary": true}], "photos": {"count": 0, "groups": []}}, "referralId": "e-0-4c753299604a3704e5eb8149-40"}, {"reasons": {"count": 0, "items": [{"summary": "This spot is popular", "type": "general", "reasonName": "globalInteractionReason"}]}, "venue": {"id": "55f9f5f0498e3b97d6cb6b9c", "name": "Boulderklub", "location": {"address": "Ohlauer Str. 38", "lat": 52.49521928276028, "lng": 13.42869833770798, "labeledLatLngs": [{"label": "display", "lat": 52.49521928276028, "lng": 13.42869833770798}], "distance": 564, "postalCode": "10999", "cc": "DE", "city": "Berlin", "state": "Berlin", "country": "Deutschland", "formattedAddress": ["Ohlauer Str. 38", "10999 Berlin", "Deutschland"]}, "categories": [{"id": "503289d391d4c4b30a586d6a", "name": "Climbing Gym", "pluralName": "Climbing Gyms", "shortName": "Climbing Gym", "icon": {"prefix": "https://ss3.4sqi.net/img/categories_v2/building/gym_", "suffix": ".png"}, "primary": true}], "photos": {"count": 0, "groups": []}}, "referralId": "e-0-55f9f5f0498e3b97d6cb6b9c-41"}, {"reasons": {"count": 0, "items": [{"summary": "This spot is popular", "type": "general", "reasonName": "globalInteractionReason"}]}, "venue": {"id": "4c88d694ed0aa143b555acf3", "name": "Beumer & Lutum", "location": {"address": "Cuvrystr. 22", "lat": 52.49705516478415, "lng": 13.443289836832202, "labeledLatLngs": [{"label": "display", "lat": 52.49705516478415, "lng": 13.443289836832202}], "distance": 445, "postalCode": "10997", "cc": "DE", "city": "Berlin", "state": "Berlin", "country": "Deutschland", "formattedAddress": ["Cuvrystr. 22", "10997 Berlin", "Deutschland"]}, "categories": [{"id": "4bf58dd8d48988d16a941735", "name": "Bakery", "pluralName": "Bakeries", "shortName": "Bakery", "icon": {"prefix": "https://ss3.4sqi.net/img/categories_v2/food/bakery_", "suffix": ".png"}, "primary": true}], "photos": {"count": 0, "groups": []}}, "referralId": "e-0-4c88d694ed0aa143b555acf3-42"}, {"reasons": {"count": 0, "items": [{"summary": "This spot is popular", "type": "general", "reasonName": "globalInteractionReason"}]}, "venue": {"id": "5ae98ce3fd16bb002c7e99b2", "name": "Annelies", "location": {"address": "G\u00f6rlitzer Str. 68", "lat": 52.49844722656305, "lng": 13.434811065509907, "labeledLatLngs": [{"label": "display", "lat": 52.49844722656305, "lng": 13.434811065509907}], "distance": 279, "postalCode": "10997", "cc": "DE", "neighborhood": "Wrangelkiez", "city": "Berlin", "state": "Berlin", "country": "Deutschland", "formattedAddress": ["G\u00f6rlitzer Str. 68", "10997 Berlin", "Deutschland"]}, "categories": [{"id": "4bf58dd8d48988d1e0931735", "name": "Coffee Shop", "pluralName": "Coffee Shops", "shortName": "Coffee Shop", "icon": {"prefix": "https://ss3.4sqi.net/img/categories_v2/food/coffeeshop_", "suffix": ".png"}, "primary": true}], "photos": {"count": 0, "groups": []}}, "referralId": "e-0-5ae98ce3fd16bb002c7e99b2-43"}, {"reasons": {"count": 0, "items": [{"summary": "This spot is popular", "type": "general", "reasonName": "globalInteractionReason"}]}, "venue": {"id": "4d28cb74915fa093195c000a", "name": "Ratibortheater", "location": {"address": "Cuvrystr. 20a", "lat": 52.49764924457589, "lng": 13.442847309116868, "labeledLatLngs": [{"label": "display", "lat": 52.49764924457589, "lng": 13.442847309116868}], "distance": 434, "postalCode": "10997", "cc": "DE", "city": "Berlin", "state": "Berlin", "country": "Deutschland", "formattedAddress": ["Cuvrystr. 20a", "10997 Berlin", "Deutschland"]}, "categories": [{"id": "4bf58dd8d48988d135941735", "name": "Indie Theater", "pluralName": "Indie Theaters", "shortName": "Indie", "icon": {"prefix": "https://ss3.4sqi.net/img/categories_v2/arts_entertainment/performingarts_theater_", "suffix": ".png"}, "primary": true}], "photos": {"count": 0, "groups": []}}, "referralId": "e-0-4d28cb74915fa093195c000a-44"}, {"reasons": {"count": 0, "items": [{"summary": "This spot is popular", "type": "general", "reasonName": "globalInteractionReason"}]}, "venue": {"id": "4ade123bf964a520d87221e3", "name": "Burgermeister", "location": {"address": "Oberbaumstr. 8", "lat": 52.501108, "lng": 13.442131, "labeledLatLngs": [{"label": "display", "lat": 52.501108, "lng": 13.442131}], "distance": 647, "postalCode": "10997", "cc": "DE", "city": "Berlin", "state": "Berlin", "country": "Deutschland", "formattedAddress": ["Oberbaumstr. 8", "10997 Berlin", "Deutschland"]}, "categories": [{"id": "4bf58dd8d48988d16c941735", "name": "Burger Joint", "pluralName": "Burger Joints", "shortName": "Burgers", "icon": {"prefix": "https://ss3.4sqi.net/img/categories_v2/food/burger_", "suffix": ".png"}, "primary": true}], "photos": {"count": 0, "groups": []}}, "referralId": "e-0-4ade123bf964a520d87221e3-45"}, {"reasons": {"count": 0, "items": [{"summary": "This spot is popular", "type": "general", "reasonName": "globalInteractionReason"}]}, "venue": {"id": "5af71bc18a6f17002c0cd816", "name": "Umami", "location": {"address": "Schlesische Str. 5", "lat": 52.500449301156536, "lng": 13.443199000094983, "labeledLatLngs": [{"label": "display", "lat": 52.500449301156536, "lng": 13.443199000094983}], "distance": 634, "postalCode": "10997", "cc": "DE", "neighborhood": "Kreuzberg", "city": "Berlin", "state": "Berlin", "country": "Deutschland", "formattedAddress": ["Schlesische Str. 5", "10997 Berlin", "Deutschland"]}, "categories": [{"id": "4bf58dd8d48988d14a941735", "name": "Vietnamese Restaurant", "pluralName": "Vietnamese Restaurants", "shortName": "Vietnamese", "icon": {"prefix": "https://ss3.4sqi.net/img/categories_v2/food/vietnamese_", "suffix": ".png"}, "primary": true}], "photos": {"count": 0, "groups": []}}, "referralId": "e-0-5af71bc18a6f17002c0cd816-46"}, {"reasons": {"count": 0, "items": [{"summary": "This spot is popular", "type": "general", "reasonName": "globalInteractionReason"}]}, "venue": {"id": "4c7ea069fb74236a40b9f7b9", "name": "JETpak Alternative", "location": {"address": "G\u00f6rlitzer Str. 38", "lat": 52.496190206953464, "lng": 13.443673006565408, "labeledLatLngs": [{"label": "display", "lat": 52.496190206953464, "lng": 13.443673006565408}], "distance": 462, "postalCode": "10997", "cc": "DE", "city": "Berlin", "state": "Berlin", "country": "Deutschland", "formattedAddress": ["G\u00f6rlitzer Str. 38", "10997 Berlin", "Deutschland"]}, "categories": [{"id": "4bf58dd8d48988d1ee931735", "name": "Hostel", "pluralName": "Hostels", "shortName": "Hostel", "icon": {"prefix": "https://ss3.4sqi.net/img/categories_v2/travel/hostel_", "suffix": ".png"}, "primary": true}], "photos": {"count": 0, "groups": []}}, "referralId": "e-0-4c7ea069fb74236a40b9f7b9-47"}, {"reasons": {"count": 0, "items": [{"summary": "This spot is popular", "type": "general", "reasonName": "globalInteractionReason"}]}, "venue": {"id": "4ba616bcf964a520be3239e3", "name": "Salut Backwaren", "location": {"address": "Schlesische Str. 1", "lat": 52.50073398391967, "lng": 13.441798105423857, "labeledLatLngs": [{"label": "display", "lat": 52.50073398391967, "lng": 13.441798105423857}], "distance": 600, "postalCode": "10997", "cc": "DE", "city": "Berlin", "state": "Berlin", "country": "Deutschland", "formattedAddress": ["Schlesische Str. 1", "10997 Berlin", "Deutschland"]}, "categories": [{"id": "4bf58dd8d48988d16a941735", "name": "Bakery", "pluralName": "Bakeries", "shortName": "Bakery", "icon": {"prefix": "https://ss3.4sqi.net/img/categories_v2/food/bakery_", "suffix": ".png"}, "primary": true}], "photos": {"count": 0, "groups": []}}, "referralId": "e-0-4ba616bcf964a520be3239e3-48"}, {"reasons": {"count": 0, "items": [{"summary": "This spot is popular", "type": "general", "reasonName": "globalInteractionReason"}]}, "venue": {"id": "536b6048498ec63b1a19e9d6", "name": "Gud\u00e9", "location": {"address": "K\u00f6penicker Str. 1", "lat": 52.50133943610764, "lng": 13.441471403458356, "labeledLatLngs": [{"label": "display", "lat": 52.50133943610764, "lng": 13.441471403458356}], "distance": 646, "postalCode": "10997", "cc": "DE", "city": "Berlin", "state": "Berlin", "country": "Deutschland", "formattedAddress": ["K\u00f6penicker Str. 1", "10997 Berlin", "Deutschland"]}, "categories": [{"id": "4bf58dd8d48988d10b941735", "name": "Falafel Restaurant", "pluralName": "Falafel Restaurants", "shortName": "Falafel", "icon": {"prefix": "https://ss3.4sqi.net/img/categories_v2/food/falafel_", "suffix": ".png"}, "primary": true}], "photos": {"count": 0, "groups": []}}, "referralId": "e-0-536b6048498ec63b1a19e9d6-49"}, {"reasons": {"count": 0, "items": [{"summary": "This spot is popular", "type": "general", "reasonName": "globalInteractionReason"}]}, "venue": {"id": "4b559ea1f964a5205be927e3", "name": "Baraka", "location": {"address": "Lausitzer Platz 6", "lat": 52.499789520779345, "lng": 13.430080979320989, "labeledLatLngs": [{"label": "display", "lat": 52.499789520779345, "lng": 13.430080979320989}], "distance": 603, "postalCode": "10997", "cc": "DE", "city": "Berlin", "state": "Berlin", "country": "Deutschland", "formattedAddress": ["Lausitzer Platz 6", "10997 Berlin", "Deutschland"]}, "categories": [{"id": "4bf58dd8d48988d1c3941735", "name": "Moroccan Restaurant", "pluralName": "Moroccan Restaurants", "shortName": "Moroccan", "icon": {"prefix": "https://ss3.4sqi.net/img/categories_v2/food/moroccan_", "suffix": ".png"}, "primary": true}], "photos": {"count": 0, "groups": []}}, "referralId": "e-0-4b559ea1f964a5205be927e3-50"}, {"reasons": {"count": 0, "items": [{"summary": "This spot is popular", "type": "general", "reasonName": "globalInteractionReason"}]}, "venue": {"id": "4cd5643a67c7236ad5721277", "name": "Passenger Espresso", "location": {"address": "Oppelner Str. 45", "lat": 52.49991846280261, "lng": 13.441139459609984, "labeledLatLngs": [{"label": "display", "lat": 52.49991846280261, "lng": 13.441139459609984}], "distance": 500, "postalCode": "10997", "cc": "DE", "city": "Berlin", "state": "Berlin", "country": "Deutschland", "formattedAddress": ["Oppelner Str. 45", "10997 Berlin", "Deutschland"]}, "categories": [{"id": "4bf58dd8d48988d1e0931735", "name": "Coffee Shop", "pluralName": "Coffee Shops", "shortName": "Coffee Shop", "icon": {"prefix": "https://ss3.4sqi.net/img/categories_v2/food/coffeeshop_", "suffix": ".png"}, "primary": true}], "photos": {"count": 0, "groups": []}}, "referralId": "e-0-4cd5643a67c7236ad5721277-51"}, {"reasons": {"count": 0, "items": [{"summary": "This spot is popular", "type": "general", "reasonName": "globalInteractionReason"}]}, "venue": {"id": "5253f40f8bbdde49a38d39f2", "name": "19grams", "location": {"address": "Schlesische Str. 38", "crossStreet": "Falkensteinstr.", "lat": 52.499876955279184, "lng": 13.444415062923092, "labeledLatLngs": [{"label": "display", "lat": 52.499876955279184, "lng": 13.444415062923092}], "distance": 651, "postalCode": "10997", "cc": "DE", "city": "Berlin", "state": "Berlin", "country": "Deutschland", "formattedAddress": ["Schlesische Str. 38 (Falkensteinstr.)", "10997 Berlin", "Deutschland"]}, "categories": [{"id": "4bf58dd8d48988d1e0931735", "name": "Coffee Shop", "pluralName": "Coffee Shops", "shortName": "Coffee Shop", "icon": {"prefix": "https://ss3.4sqi.net/img/categories_v2/food/coffeeshop_", "suffix": ".png"}, "primary": true}], "photos": {"count": 0, "groups": []}, "venuePage": {"id": "77258777"}}, "referralId": "e-0-5253f40f8bbdde49a38d39f2-52"}, {"reasons": {"count": 0, "items": [{"summary": "This spot is popular", "type": "general", "reasonName": "globalInteractionReason"}]}, "venue": {"id": "575409a4498ed2ddec1ec5a4", "name": "Heimweh", "location": {"address": "Skalitzer Str. 100", "lat": 52.4994122830782, "lng": 13.428425788879395, "labeledLatLngs": [{"label": "display", "lat": 52.4994122830782, "lng": 13.428425788879395}], "distance": 669, "postalCode": "10997", "cc": "DE", "city": "Berlin", "state": "Berlin", "country": "Deutschland", "formattedAddress": ["Skalitzer Str. 100", "10997 Berlin", "Deutschland"]}, "categories": [{"id": "56aa371be4b08b9a8d573535", "name": "Kumpir Restaurant", "pluralName": "Kumpir Restaurants", "shortName": "Kumpir", "icon": {"prefix": "https://ss3.4sqi.net/img/categories_v2/food/turkish_", "suffix": ".png"}, "primary": true}], "photos": {"count": 0, "groups": []}}, "referralId": "e-0-575409a4498ed2ddec1ec5a4-53"}, {"reasons": {"count": 0, "items": [{"summary": "This spot is popular", "type": "general", "reasonName": "globalInteractionReason"}]}, "venue": {"id": "4ee0e38bf9ab28df8269bd38", "name": "H\u00fchnerhaus 36", "location": {"address": "Skalitzer Str. 95", "crossStreet": "Lausitzer Platz", "lat": 52.499852, "lng": 13.432076, "labeledLatLngs": [{"label": "display", "lat": 52.499852, "lng": 13.432076}], "distance": 514, "postalCode": "10997", "cc": "DE", "city": "Berlin", "state": "Berlin", "country": "Deutschland", "formattedAddress": ["Skalitzer Str. 95 (Lausitzer Platz)", "10997 Berlin", "Deutschland"]}, "categories": [{"id": "4d4ae6fc7a7b7dea34424761", "name": "Fried Chicken Joint", "pluralName": "Fried Chicken Joints", "shortName": "Fried Chicken", "icon": {"prefix": "https://ss3.4sqi.net/img/categories_v2/food/friedchicken_", "suffix": ".png"}, "primary": true}], "photos": {"count": 0, "groups": []}}, "referralId": "e-0-4ee0e38bf9ab28df8269bd38-54"}, {"reasons": {"count": 0, "items": [{"summary": "This spot is popular", "type": "general", "reasonName": "globalInteractionReason"}]}, "venue": {"id": "4fca7dfee4b098b3ef48341b", "name": "V\u00f6gelchen", "location": {"address": "Eisenbahnstr. 6", "lat": 52.502007, "lng": 13.432472, "labeledLatLngs": [{"label": "display", "lat": 52.502007, "lng": 13.432472}], "distance": 704, "postalCode": "10997", "cc": "DE", "city": "Berlin", "state": "Berlin", "country": "Deutschland", "formattedAddress": ["Eisenbahnstr. 6", "10997 Berlin", "Deutschland"]}, "categories": [{"id": "4bf58dd8d48988d116941735", "name": "Bar", "pluralName": "Bars", "shortName": "Bar", "icon": {"prefix": "https://ss3.4sqi.net/img/categories_v2/nightlife/pub_", "suffix": ".png"}, "primary": true}], "photos": {"count": 0, "groups": []}}, "referralId": "e-0-4fca7dfee4b098b3ef48341b-55"}, {"reasons": {"count": 0, "items": [{"summary": "This spot is popular", "type": "general", "reasonName": "globalInteractionReason"}]}, "venue": {"id": "56c859ce498e4246a80cdaf0", "name": "Populus Coffee", "location": {"address": "Maybachufer 20", "crossStreet": "B\u00fcrknerstr.", "lat": 52.493718, "lng": 13.427157, "labeledLatLngs": [{"label": "display", "lat": 52.493718, "lng": 13.427157}], "distance": 715, "postalCode": "12045", "cc": "DE", "neighborhood": "Reuterkiez", "city": "Berlin", "state": "Berlin", "country": "Deutschland", "formattedAddress": ["Maybachufer 20 (B\u00fcrknerstr.)", "12045 Berlin", "Deutschland"]}, "categories": [{"id": "4bf58dd8d48988d1e0931735", "name": "Coffee Shop", "pluralName": "Coffee Shops", "shortName": "Coffee Shop", "icon": {"prefix": "https://ss3.4sqi.net/img/categories_v2/food/coffeeshop_", "suffix": ".png"}, "primary": true}], "photos": {"count": 0, "groups": []}, "venuePage": {"id": "559162275"}}, "referralId": "e-0-56c859ce498e4246a80cdaf0-56"}, {"reasons": {"count": 0, "items": [{"summary": "This spot is popular", "type": "general", "reasonName": "globalInteractionReason"}]}, "venue": {"id": "5045e189e4b09303cb69d422", "name": "Geschmackssache", "location": {"address": "Taborstr. 20", "lat": 52.49731351115693, "lng": 13.44625094174622, "labeledLatLngs": [{"label": "display", "lat": 52.49731351115693, "lng": 13.44625094174622}], "distance": 647, "postalCode": "10245", "cc": "DE", "city": "Berlin", "state": "Berlin", "country": "Deutschland", "formattedAddress": ["Taborstr. 20", "10245 Berlin", "Deutschland"]}, "categories": [{"id": "4bf58dd8d48988d16d941735", "name": "Caf\u00e9", "pluralName": "Caf\u00e9s", "shortName": "Caf\u00e9", "icon": {"prefix": "https://ss3.4sqi.net/img/categories_v2/food/cafe_", "suffix": ".png"}, "primary": true}], "photos": {"count": 0, "groups": []}}, "referralId": "e-0-5045e189e4b09303cb69d422-57"}, {"reasons": {"count": 0, "items": [{"summary": "This spot is popular", "type": "general", "reasonName": "globalInteractionReason"}]}, "venue": {"id": "4ce2d9bb00166ea867084988", "name": "Falafel in Berlin", "location": {"address": "Skalitzer Str. 102", "lat": 52.49931143322923, "lng": 13.427939011211153, "labeledLatLngs": [{"label": "display", "lat": 52.49931143322923, "lng": 13.427939011211153}], "distance": 692, "postalCode": "10999", "cc": "DE", "city": "Berlin", "state": "Berlin", "country": "Deutschland", "formattedAddress": ["Skalitzer Str. 102", "10999 Berlin", "Deutschland"]}, "categories": [{"id": "4bf58dd8d48988d10b941735", "name": "Falafel Restaurant", "pluralName": "Falafel Restaurants", "shortName": "Falafel", "icon": {"prefix": "https://ss3.4sqi.net/img/categories_v2/food/falafel_", "suffix": ".png"}, "primary": true}], "photos": {"count": 0, "groups": []}}, "referralId": "e-0-4ce2d9bb00166ea867084988-58"}, {"reasons": {"count": 0, "items": [{"summary": "This spot is popular", "type": "general", "reasonName": "globalInteractionReason"}]}, "venue": {"id": "58b97ee4000bef4879a0baf5", "name": "R.M.C.M Ramones Museum", "location": {"address": "Oberbaumstr. 5", "crossStreet": "K\u00f6penicker Str.", "lat": 52.501094644453985, "lng": 13.443235273243051, "labeledLatLngs": [{"label": "display", "lat": 52.501094644453985, "lng": 13.443235273243051}], "distance": 690, "postalCode": "10997", "cc": "DE", "city": "Berlin", "state": "Berlin", "country": "Deutschland", "formattedAddress": ["Oberbaumstr. 5 (K\u00f6penicker Str.)", "10997 Berlin", "Deutschland"]}, "categories": [{"id": "4bf58dd8d48988d181941735", "name": "Museum", "pluralName": "Museums", "shortName": "Museum", "icon": {"prefix": "https://ss3.4sqi.net/img/categories_v2/arts_entertainment/museum_", "suffix": ".png"}, "primary": true}], "photos": {"count": 0, "groups": []}}, "referralId": "e-0-58b97ee4000bef4879a0baf5-59"}, {"reasons": {"count": 0, "items": [{"summary": "This spot is popular", "type": "general", "reasonName": "globalInteractionReason"}]}, "venue": {"id": "5ccc1f21ad910e002c1da8b8", "name": "La Maison", "location": {"address": "Forster Str. 22", "crossStreet": "Paul-Linke Ufer", "lat": 52.493341, "lng": 13.431117, "labeledLatLngs": [{"label": "display", "lat": 52.493341, "lng": 13.431117}], "distance": 506, "postalCode": "10999", "cc": "DE", "city": "Berlin", "state": "Berlin", "country": "Deutschland", "formattedAddress": ["Forster Str. 22 (Paul-Linke Ufer)", "10999 Berlin", "Deutschland"]}, "categories": [{"id": "4bf58dd8d48988d1e0931735", "name": "Coffee Shop", "pluralName": "Coffee Shops", "shortName": "Coffee Shop", "icon": {"prefix": "https://ss3.4sqi.net/img/categories_v2/food/coffeeshop_", "suffix": ".png"}, "primary": true}], "photos": {"count": 0, "groups": []}}, "referralId": "e-0-5ccc1f21ad910e002c1da8b8-60"}, {"reasons": {"count": 0, "items": [{"summary": "This spot is popular", "type": "general", "reasonName": "globalInteractionReason"}]}, "venue": {"id": "4bacd975f964a520c7113be3", "name": "Keirin Cycle Culture Caf\u00e9", "location": {"address": "Oberbaumstr. 5", "lat": 52.50103577479206, "lng": 13.442968614163743, "labeledLatLngs": [{"label": "display", "lat": 52.50103577479206, "lng": 13.442968614163743}], "distance": 673, "postalCode": "10997", "cc": "DE", "neighborhood": "Kreuzberg", "city": "Berlin", "state": "Berlin", "country": "Deutschland", "formattedAddress": ["Oberbaumstr. 5", "10997 Berlin", "Deutschland"]}, "categories": [{"id": "4bf58dd8d48988d115951735", "name": "Bike Shop", "pluralName": "Bike Shops", "shortName": "Bike Shop", "icon": {"prefix": "https://ss3.4sqi.net/img/categories_v2/shops/bikeshop_", "suffix": ".png"}, "primary": true}], "photos": {"count": 0, "groups": []}}, "referralId": "e-0-4bacd975f964a520c7113be3-61"}, {"reasons": {"count": 0, "items": [{"summary": "This spot is popular", "type": "general", "reasonName": "globalInteractionReason"}]}, "venue": {"id": "50ce1d2ee4b0d870d8b4e419", "name": "Villa di Wow", "location": {"address": "Ohlauer Str. 30", "lat": 52.495279, "lng": 13.429765, "labeledLatLngs": [{"label": "display", "lat": 52.495279, "lng": 13.429765}], "distance": 492, "postalCode": "10999", "cc": "DE", "city": "Berlin", "state": "Berlin", "country": "Deutschland", "formattedAddress": ["Ohlauer Str. 30", "10999 Berlin", "Deutschland"]}, "categories": [{"id": "4bf58dd8d48988d1ca941735", "name": "Pizza Place", "pluralName": "Pizza Places", "shortName": "Pizza", "icon": {"prefix": "https://ss3.4sqi.net/img/categories_v2/food/pizza_", "suffix": ".png"}, "primary": true}], "photos": {"count": 0, "groups": []}}, "referralId": "e-0-50ce1d2ee4b0d870d8b4e419-62"}, {"reasons": {"count": 0, "items": [{"summary": "This spot is popular", "type": "general", "reasonName": "globalInteractionReason"}]}, "venue": {"id": "4dd276db6365cd4836e36195", "name": "Katie's Blue Cat", "location": {"address": "Friedelstr. 31", "lat": 52.49297512815172, "lng": 13.428254127502441, "labeledLatLngs": [{"label": "display", "lat": 52.49297512815172, "lng": 13.428254127502441}], "distance": 688, "postalCode": "12047", "cc": "DE", "city": "Berlin", "state": "Berlin", "country": "Deutschland", "formattedAddress": ["Friedelstr. 31", "12047 Berlin", "Deutschland"]}, "categories": [{"id": "4bf58dd8d48988d1e0931735", "name": "Coffee Shop", "pluralName": "Coffee Shops", "shortName": "Coffee Shop", "icon": {"prefix": "https://ss3.4sqi.net/img/categories_v2/food/coffeeshop_", "suffix": ".png"}, "primary": true}], "photos": {"count": 0, "groups": []}}, "referralId": "e-0-4dd276db6365cd4836e36195-63"}, {"reasons": {"count": 0, "items": [{"summary": "This spot is popular", "type": "general", "reasonName": "globalInteractionReason"}]}, "venue": {"id": "4c1bc0778b3aa59317bb975f", "name": "Cooler Platz am Kanal", "location": {"lat": 52.4913296394866, "lng": 13.439886797635054, "labeledLatLngs": [{"label": "display", "lat": 52.4913296394866, "lng": 13.439886797635054}], "distance": 586, "cc": "DE", "city": "Berlin", "state": "Berlin", "country": "Deutschland", "formattedAddress": ["Berlin", "Deutschland"]}, "categories": [{"id": "4d954b16a243a5684b65b473", "name": "Rest Area", "pluralName": "Rest Areas", "shortName": "Rest Areas", "icon": {"prefix": "https://ss3.4sqi.net/img/categories_v2/travel/restarea_", "suffix": ".png"}, "primary": true}], "photos": {"count": 0, "groups": []}}, "referralId": "e-0-4c1bc0778b3aa59317bb975f-64"}, {"reasons": {"count": 0, "items": [{"summary": "This spot is popular", "type": "general", "reasonName": "globalInteractionReason"}]}, "venue": {"id": "4adcda7cf964a5203c4721e3", "name": "Madame Claude", "location": {"address": "L\u00fcbbener Str. 19", "lat": 52.49954490455269, "lng": 13.437599888409588, "labeledLatLngs": [{"label": "display", "lat": 52.49954490455269, "lng": 13.437599888409588}], "distance": 368, "postalCode": "10997", "cc": "DE", "city": "Berlin", "state": "Berlin", "country": "Deutschland", "formattedAddress": ["L\u00fcbbener Str. 19", "10997 Berlin", "Deutschland"]}, "categories": [{"id": "4bf58dd8d48988d116941735", "name": "Bar", "pluralName": "Bars", "shortName": "Bar", "icon": {"prefix": "https://ss3.4sqi.net/img/categories_v2/nightlife/pub_", "suffix": ".png"}, "primary": true}], "photos": {"count": 0, "groups": []}}, "referralId": "e-0-4adcda7cf964a5203c4721e3-65"}, {"reasons": {"count": 0, "items": [{"summary": "This spot is popular", "type": "general", "reasonName": "globalInteractionReason"}]}, "venue": {"id": "4ca85d4ef47ea1434a587421", "name": "Markthalle Neun", "location": {"address": "Eisenbahnstr. 42 / 43", "lat": 52.502144327910116, "lng": 13.431606978315234, "labeledLatLngs": [{"label": "display", "lat": 52.502144327910116, "lng": 13.431606978315234}], "distance": 744, "postalCode": "10997", "cc": "DE", "neighborhood": "Kreuzberg", "city": "Berlin", "state": "Berlin", "country": "Deutschland", "formattedAddress": ["Eisenbahnstr. 42 / 43", "10997 Berlin", "Deutschland"]}, "categories": [{"id": "4bf58dd8d48988d120951735", "name": "Food Court", "pluralName": "Food Courts", "shortName": "Food Court", "icon": {"prefix": "https://ss3.4sqi.net/img/categories_v2/shops/food_foodcourt_", "suffix": ".png"}, "primary": true}], "photos": {"count": 0, "groups": []}}, "referralId": "e-0-4ca85d4ef47ea1434a587421-66"}, {"reasons": {"count": 0, "items": [{"summary": "This spot is popular", "type": "general", "reasonName": "globalInteractionReason"}]}, "venue": {"id": "5a6b4d36270ee75b361a3f2e", "name": "Sahara Imbiss", "location": {"address": "Reichenberger Str. 71", "lat": 52.4946893287033, "lng": 13.433222842502616, "labeledLatLngs": [{"label": "display", "lat": 52.4946893287033, "lng": 13.433222842502616}], "distance": 301, "postalCode": "10999", "cc": "DE", "neighborhood": "Kreuzberg", "city": "Berlin", "state": "Berlin", "country": "Deutschland", "formattedAddress": ["Reichenberger Str. 71", "10999 Berlin", "Deutschland"]}, "categories": [{"id": "4bf58dd8d48988d115941735", "name": "Middle Eastern Restaurant", "pluralName": "Middle Eastern Restaurants", "shortName": "Middle Eastern", "icon": {"prefix": "https://ss3.4sqi.net/img/categories_v2/food/middleeastern_", "suffix": ".png"}, "primary": true}], "photos": {"count": 0, "groups": []}}, "referralId": "e-0-5a6b4d36270ee75b361a3f2e-67"}, {"reasons": {"count": 0, "items": [{"summary": "This spot is popular", "type": "general", "reasonName": "globalInteractionReason"}]}, "venue": {"id": "4adcda85f964a520054921e3", "name": "Jolesch", "location": {"address": "Muskauer Str. 1", "lat": 52.5007774, "lng": 13.434039100000064, "labeledLatLngs": [{"label": "display", "lat": 52.5007774, "lng": 13.434039100000064}], "distance": 537, "postalCode": "10997", "cc": "DE", "city": "Berlin", "state": "Berlin", "country": "Deutschland", "formattedAddress": ["Muskauer Str. 1", "10997 Berlin", "Deutschland"]}, "categories": [{"id": "52e81612bcbc57f1066b7a01", "name": "Austrian Restaurant", "pluralName": "Austrian Restaurants", "shortName": "Austrian", "icon": {"prefix": "https://ss3.4sqi.net/img/categories_v2/food/austrian_", "suffix": ".png"}, "primary": true}], "photos": {"count": 0, "groups": []}}, "referralId": "e-0-4adcda85f964a520054921e3-68"}, {"reasons": {"count": 0, "items": [{"summary": "This spot is popular", "type": "general", "reasonName": "globalInteractionReason"}]}, "venue": {"id": "4cf95af334c1a093ae95390e", "name": "Mercan", "location": {"address": "Wiener Str. 10", "lat": 52.49858932037706, "lng": 13.427953720092773, "labeledLatLngs": [{"label": "display", "lat": 52.49858932037706, "lng": 13.427953720092773}], "distance": 656, "postalCode": "10999", "cc": "DE", "city": "Berlin", "state": "Berlin", "country": "Deutschland", "formattedAddress": ["Wiener Str. 10", "10999 Berlin", "Deutschland"]}, "categories": [{"id": "4f04af1f2fb6e1c99f3db0bb", "name": "Turkish Restaurant", "pluralName": "Turkish Restaurants", "shortName": "Turkish", "icon": {"prefix": "https://ss3.4sqi.net/img/categories_v2/food/turkish_", "suffix": ".png"}, "primary": true}], "photos": {"count": 0, "groups": []}}, "referralId": "e-0-4cf95af334c1a093ae95390e-69"}, {"reasons": {"count": 0, "items": [{"summary": "This spot is popular", "type": "general", "reasonName": "globalInteractionReason"}]}, "venue": {"id": "50f00789e4b06592ccc1faae", "name": "Big Stuff Smoked BBQ", "location": {"address": "Eisenbahnstr. 42/43", "lat": 52.502122392297785, "lng": 13.431800746997471, "labeledLatLngs": [{"label": "display", "lat": 52.502122392297785, "lng": 13.431800746997471}], "distance": 736, "postalCode": "10997", "cc": "DE", "city": "Berlin", "state": "Berlin", "country": "Deutschland", "formattedAddress": ["Eisenbahnstr. 42/43", "10997 Berlin", "Deutschland"]}, "categories": [{"id": "4bf58dd8d48988d1df931735", "name": "BBQ Joint", "pluralName": "BBQ Joints", "shortName": "BBQ", "icon": {"prefix": "https://ss3.4sqi.net/img/categories_v2/food/bbqalt_", "suffix": ".png"}, "primary": true}], "photos": {"count": 0, "groups": []}}, "referralId": "e-0-50f00789e4b06592ccc1faae-70"}, {"reasons": {"count": 0, "items": [{"summary": "This spot is popular", "type": "general", "reasonName": "globalInteractionReason"}]}, "venue": {"id": "5b7306b5345cbe0039e2d0ed", "name": "Singh Indian Street Food", "location": {"address": "Oppelner Stra\u00dfe", "lat": 52.500021, "lng": 13.441306, "labeledLatLngs": [{"label": "display", "lat": 52.500021, "lng": 13.441306}], "distance": 515, "postalCode": "10997", "cc": "DE", "neighborhood": "Wrangelkiez", "city": "Berlin", "state": "Berlin", "country": "Deutschland", "formattedAddress": ["Oppelner Stra\u00dfe", "10997 Berlin", "Deutschland"]}, "categories": [{"id": "4bf58dd8d48988d10f941735", "name": "Indian Restaurant", "pluralName": "Indian Restaurants", "shortName": "Indian", "icon": {"prefix": "https://ss3.4sqi.net/img/categories_v2/food/indian_", "suffix": ".png"}, "primary": true}], "photos": {"count": 0, "groups": []}}, "referralId": "e-0-5b7306b5345cbe0039e2d0ed-71"}, {"reasons": {"count": 0, "items": [{"summary": "This spot is popular", "type": "general", "reasonName": "globalInteractionReason"}]}, "venue": {"id": "55e87b80498e3ae4829c6b05", "name": "Rosa Canina", "location": {"address": "Eisenbahnstr. 42/43", "lat": 52.50214320176283, "lng": 13.43181912685543, "labeledLatLngs": [{"label": "display", "lat": 52.50214320176283, "lng": 13.43181912685543}], "distance": 738, "postalCode": "10997", "cc": "DE", "city": "Berlin", "state": "Berlin", "country": "Deutschland", "formattedAddress": ["Eisenbahnstr. 42/43", "10997 Berlin", "Deutschland"]}, "categories": [{"id": "4bf58dd8d48988d1c9941735", "name": "Ice Cream Shop", "pluralName": "Ice Cream Shops", "shortName": "Ice Cream", "icon": {"prefix": "https://ss3.4sqi.net/img/categories_v2/food/icecream_", "suffix": ".png"}, "primary": true}], "photos": {"count": 0, "groups": []}}, "referralId": "e-0-55e87b80498e3ae4829c6b05-72"}, {"reasons": {"count": 0, "items": [{"summary": "This spot is popular", "type": "general", "reasonName": "globalInteractionReason"}]}, "venue": {"id": "4b50c108f964a520fc3027e3", "name": "Fr\u00e4ulein Frost", "location": {"address": "Friedelstr. 39", "lat": 52.49234150232347, "lng": 13.42798372959863, "labeledLatLngs": [{"label": "display", "lat": 52.49234150232347, "lng": 13.42798372959863}], "distance": 742, "postalCode": "12047", "cc": "DE", "city": "Berlin", "state": "Berlin", "country": "Deutschland", "formattedAddress": ["Friedelstr. 39", "12047 Berlin", "Deutschland"]}, "categories": [{"id": "4bf58dd8d48988d1c9941735", "name": "Ice Cream Shop", "pluralName": "Ice Cream Shops", "shortName": "Ice Cream", "icon": {"prefix": "https://ss3.4sqi.net/img/categories_v2/food/icecream_", "suffix": ".png"}, "primary": true}], "photos": {"count": 0, "groups": []}}, "referralId": "e-0-4b50c108f964a520fc3027e3-73"}, {"reasons": {"count": 0, "items": [{"summary": "This spot is popular", "type": "general", "reasonName": "globalInteractionReason"}]}, "venue": {"id": "51e81096498e6b71591d4db4", "name": "Salumeria Lamuri", "location": {"address": "K\u00f6penicker Str.183", "lat": 52.50309729215354, "lng": 13.438077108747732, "labeledLatLngs": [{"label": "display", "lat": 52.50309729215354, "lng": 13.438077108747732}], "distance": 765, "postalCode": "10997", "cc": "DE", "city": "Berlin", "state": "Berlin", "country": "Deutschland", "formattedAddress": ["K\u00f6penicker Str.183", "10997 Berlin", "Deutschland"]}, "categories": [{"id": "4bf58dd8d48988d110941735", "name": "Italian Restaurant", "pluralName": "Italian Restaurants", "shortName": "Italian", "icon": {"prefix": "https://ss3.4sqi.net/img/categories_v2/food/italian_", "suffix": ".png"}, "primary": true}], "photos": {"count": 0, "groups": []}}, "referralId": "e-0-51e81096498e6b71591d4db4-74"}, {"reasons": {"count": 0, "items": [{"summary": "This spot is popular", "type": "general", "reasonName": "globalInteractionReason"}]}, "venue": {"id": "561bebfd498e206396f53e59", "name": "Lager Lager", "location": {"address": "Pfl\u00fcgerstr. 68", "lat": 52.4914524228706, "lng": 13.428622740208365, "labeledLatLngs": [{"label": "display", "lat": 52.4914524228706, "lng": 13.428622740208365}], "distance": 773, "postalCode": "12047", "cc": "DE", "city": "Berlin", "state": "Berlin", "country": "Deutschland", "formattedAddress": ["Pfl\u00fcgerstr. 68", "12047 Berlin", "Deutschland"]}, "categories": [{"id": "5370f356bcbc57f1066c94c2", "name": "Beer Store", "pluralName": "Beer Stores", "shortName": "Beer Store", "icon": {"prefix": "https://ss3.4sqi.net/img/categories_v2/nightlife/beergarden_", "suffix": ".png"}, "primary": true}], "photos": {"count": 0, "groups": []}}, "referralId": "e-0-561bebfd498e206396f53e59-75"}, {"reasons": {"count": 0, "items": [{"summary": "This spot is popular", "type": "general", "reasonName": "globalInteractionReason"}]}, "venue": {"id": "56bf2966cd1043d2f2179233", "name": "Mani in pasta", "location": {"address": "Eisenbahnstr. 42-43", "lat": 52.502166846709024, "lng": 13.431716511155079, "labeledLatLngs": [{"label": "display", "lat": 52.502166846709024, "lng": 13.431716511155079}], "distance": 743, "postalCode": "10997", "cc": "DE", "city": "Berlin", "state": "Berlin", "country": "Deutschland", "formattedAddress": ["Eisenbahnstr. 42-43", "10997 Berlin", "Deutschland"]}, "categories": [{"id": "55a5a1ebe4b013909087cb7f", "name": "Trattoria/Osteria", "pluralName": "Trattorias/Osterias", "shortName": "Trattoria/Osteria", "icon": {"prefix": "https://ss3.4sqi.net/img/categories_v2/food/italian_", "suffix": ".png"}, "primary": true}], "photos": {"count": 0, "groups": []}}, "referralId": "e-0-56bf2966cd1043d2f2179233-76"}, {"reasons": {"count": 0, "items": [{"summary": "This spot is popular", "type": "general", "reasonName": "globalInteractionReason"}]}, "venue": {"id": "511e4abce4b030d732c1e3b4", "name": "Heidenpeters", "location": {"address": "Eisenbahnstr. 42/43", "lat": 52.502048793920636, "lng": 13.43130168201405, "labeledLatLngs": [{"label": "display", "lat": 52.502048793920636, "lng": 13.43130168201405}], "distance": 745, "postalCode": "10997", "cc": "DE", "city": "Berlin", "state": "Berlin", "country": "Deutschland", "formattedAddress": ["Eisenbahnstr. 42/43", "10997 Berlin", "Deutschland"]}, "categories": [{"id": "50327c8591d4c4b30a586d5d", "name": "Brewery", "pluralName": "Breweries", "shortName": "Brewery", "icon": {"prefix": "https://ss3.4sqi.net/img/categories_v2/food/brewery_", "suffix": ".png"}, "primary": true}], "photos": {"count": 0, "groups": []}}, "referralId": "e-0-511e4abce4b030d732c1e3b4-77"}, {"reasons": {"count": 0, "items": [{"summary": "This spot is popular", "type": "general", "reasonName": "globalInteractionReason"}]}, "venue": {"id": "4b5af432f964a5200ddc28e3", "name": "Barcellos Salon Sucr\u00e9", "location": {"address": "G\u00f6rlitzer Str. 32 a", "lat": 52.49524324633104, "lng": 13.444611008522275, "labeledLatLngs": [{"label": "display", "lat": 52.49524324633104, "lng": 13.444611008522275}], "distance": 538, "postalCode": "10997", "cc": "DE", "city": "Berlin", "state": "Berlin", "country": "Deutschland", "formattedAddress": ["G\u00f6rlitzer Str. 32 a", "10997 Berlin", "Deutschland"]}, "categories": [{"id": "4bf58dd8d48988d1d0941735", "name": "Dessert Shop", "pluralName": "Dessert Shops", "shortName": "Desserts", "icon": {"prefix": "https://ss3.4sqi.net/img/categories_v2/food/dessert_", "suffix": ".png"}, "primary": true}], "photos": {"count": 0, "groups": []}}, "referralId": "e-0-4b5af432f964a5200ddc28e3-78"}, {"reasons": {"count": 0, "items": [{"summary": "This spot is popular", "type": "general", "reasonName": "globalInteractionReason"}]}, "venue": {"id": "5065f49ce4b057ca124bd002", "name": "Schwarze Traube", "location": {"address": "Wrangelstr. 24", "lat": 52.50230765102416, "lng": 13.432857005058205, "labeledLatLngs": [{"label": "display", "lat": 52.50230765102416, "lng": 13.432857005058205}], "distance": 725, "postalCode": "10997", "cc": "DE", "city": "Berlin", "state": "Berlin", "country": "Deutschland", "formattedAddress": ["Wrangelstr. 24", "10997 Berlin", "Deutschland"]}, "categories": [{"id": "4bf58dd8d48988d11e941735", "name": "Cocktail Bar", "pluralName": "Cocktail Bars", "shortName": "Cocktail", "icon": {"prefix": "https://ss3.4sqi.net/img/categories_v2/nightlife/cocktails_", "suffix": ".png"}, "primary": true}], "photos": {"count": 0, "groups": []}}, "referralId": "e-0-5065f49ce4b057ca124bd002-79"}, {"reasons": {"count": 0, "items": [{"summary": "This spot is popular", "type": "general", "reasonName": "globalInteractionReason"}]}, "venue": {"id": "4c2113f313c00f47586785de", "name": "Lerchen und Eulen", "location": {"address": "P\u00fccklerstr. 33", "lat": 52.5022542722616, "lng": 13.430717849669797, "labeledLatLngs": [{"label": "display", "lat": 52.5022542722616, "lng": 13.430717849669797}], "distance": 785, "postalCode": "10997", "cc": "DE", "city": "Berlin", "state": "Berlin", "country": "Deutschland", "formattedAddress": ["P\u00fccklerstr. 33", "10997 Berlin", "Deutschland"]}, "categories": [{"id": "4bf58dd8d48988d116941735", "name": "Bar", "pluralName": "Bars", "shortName": "Bar", "icon": {"prefix": "https://ss3.4sqi.net/img/categories_v2/nightlife/pub_", "suffix": ".png"}, "primary": true}], "photos": {"count": 0, "groups": []}}, "referralId": "e-0-4c2113f313c00f47586785de-80"}, {"reasons": {"count": 0, "items": [{"summary": "This spot is popular", "type": "general", "reasonName": "globalInteractionReason"}]}, "venue": {"id": "59121f7bc21cb12eb99b158e", "name": "Life Berlin", "location": {"address": "Maybachufer 39", "crossStreet": "Nansenstr.", "lat": 52.491878642334974, "lng": 13.433209737075074, "labeledLatLngs": [{"label": "display", "lat": 52.491878642334974, "lng": 13.433209737075074}], "distance": 546, "postalCode": "12047", "cc": "DE", "city": "Berlin", "state": "Berlin", "country": "Deutschland", "formattedAddress": ["Maybachufer 39 (Nansenstr.)", "12047 Berlin", "Deutschland"]}, "categories": [{"id": "4bf58dd8d48988d111941735", "name": "Japanese Restaurant", "pluralName": "Japanese Restaurants", "shortName": "Japanese", "icon": {"prefix": "https://ss3.4sqi.net/img/categories_v2/food/japanese_", "suffix": ".png"}, "primary": true}], "photos": {"count": 0, "groups": []}}, "referralId": "e-0-59121f7bc21cb12eb99b158e-81"}, {"reasons": {"count": 0, "items": [{"summary": "This spot is popular", "type": "general", "reasonName": "globalInteractionReason"}]}, "venue": {"id": "5b5b07494aa3f8002cf5618a", "name": "MiMoMy", "location": {"address": "Falckensteinstra\u00dfe", "crossStreet": "Wrangelstra\u00dfe", "lat": 52.498286, "lng": 13.442329, "labeledLatLngs": [{"label": "display", "lat": 52.498286, "lng": 13.442329}], "distance": 434, "cc": "DE", "country": "Deutschland", "formattedAddress": ["Falckensteinstra\u00dfe (Wrangelstra\u00dfe)", "Deutschland"]}, "categories": [{"id": "4bf58dd8d48988d14a941735", "name": "Vietnamese Restaurant", "pluralName": "Vietnamese Restaurants", "shortName": "Vietnamese", "icon": {"prefix": "https://ss3.4sqi.net/img/categories_v2/food/vietnamese_", "suffix": ".png"}, "primary": true}], "photos": {"count": 0, "groups": []}}, "referralId": "e-0-5b5b07494aa3f8002cf5618a-82"}, {"reasons": {"count": 0, "items": [{"summary": "This spot is popular", "type": "general", "reasonName": "globalInteractionReason"}]}, "venue": {"id": "4c108d8a3ce120a13a4e081c", "name": "B\u00e4ckerei ZAZZA", "location": {"address": "Schlesische Str. 38", "lat": 52.499992388442344, "lng": 13.444103422114317, "labeledLatLngs": [{"label": "display", "lat": 52.499992388442344, "lng": 13.444103422114317}], "distance": 643, "postalCode": "10997", "cc": "DE", "city": "Berlin", "state": "Berlin", "country": "Deutschland", "formattedAddress": ["Schlesische Str. 38", "10997 Berlin", "Deutschland"]}, "categories": [{"id": "4bf58dd8d48988d16a941735", "name": "Bakery", "pluralName": "Bakeries", "shortName": "Bakery", "icon": {"prefix": "https://ss3.4sqi.net/img/categories_v2/food/bakery_", "suffix": ".png"}, "primary": true}], "photos": {"count": 0, "groups": []}}, "referralId": "e-0-4c108d8a3ce120a13a4e081c-83"}, {"reasons": {"count": 0, "items": [{"summary": "This spot is popular", "type": "general", "reasonName": "globalInteractionReason"}]}, "venue": {"id": "4b5311c3f964a520048e27e3", "name": "Transit", "location": {"address": "Schlesische Str. 35a", "lat": 52.49950638218861, "lng": 13.445066386330204, "labeledLatLngs": [{"label": "display", "lat": 52.49950638218861, "lng": 13.445066386330204}], "distance": 663, "postalCode": "10997", "cc": "DE", "city": "Berlin", "state": "Berlin", "country": "Deutschland", "formattedAddress": ["Schlesische Str. 35a", "10997 Berlin", "Deutschland"]}, "categories": [{"id": "4def73e84765ae376e57713a", "name": "Portuguese Restaurant", "pluralName": "Portuguese Restaurants", "shortName": "Portuguese", "icon": {"prefix": "https://ss3.4sqi.net/img/categories_v2/food/portuguese_", "suffix": ".png"}, "primary": true}], "photos": {"count": 0, "groups": []}}, "referralId": "e-0-4b5311c3f964a520048e27e3-84"}, {"reasons": {"count": 0, "items": [{"summary": "This spot is popular", "type": "general", "reasonName": "globalInteractionReason"}]}, "venue": {"id": "59fce17d464d6567ed3ddf1e", "name": "Kumpel & Keule Speisewirtschaft", "location": {"address": "Skalitzer Str. 97", "lat": 52.49943958028325, "lng": 13.429346349943199, "labeledLatLngs": [{"label": "display", "lat": 52.49943958028325, "lng": 13.429346349943199}], "distance": 619, "postalCode": "10997", "cc": "DE", "neighborhood": "Kreuzberg", "city": "Berlin", "state": "Berlin", "country": "Deutschland", "formattedAddress": ["Skalitzer Str. 97", "10997 Berlin", "Deutschland"]}, "categories": [{"id": "4bf58dd8d48988d10d941735", "name": "German Restaurant", "pluralName": "German Restaurants", "shortName": "German", "icon": {"prefix": "https://ss3.4sqi.net/img/categories_v2/food/german_", "suffix": ".png"}, "primary": true}], "photos": {"count": 0, "groups": []}}, "referralId": "e-0-59fce17d464d6567ed3ddf1e-85"}, {"reasons": {"count": 0, "items": [{"summary": "This spot is popular", "type": "general", "reasonName": "globalInteractionReason"}]}, "venue": {"id": "4c7fdd0ed4e237048b6a4f88", "name": "Treptower Klause", "location": {"address": "Karl-Kunger-Str. 69", "lat": 52.49271830341639, "lng": 13.444954615594341, "labeledLatLngs": [{"label": "display", "lat": 52.49271830341639, "lng": 13.444954615594341}], "distance": 676, "postalCode": "12435", "cc": "DE", "city": "Berlin", "state": "Berlin", "country": "Deutschland", "formattedAddress": ["Karl-Kunger-Str. 69", "12435 Berlin", "Deutschland"]}, "categories": [{"id": "4bf58dd8d48988d10d941735", "name": "German Restaurant", "pluralName": "German Restaurants", "shortName": "German", "icon": {"prefix": "https://ss3.4sqi.net/img/categories_v2/food/german_", "suffix": ".png"}, "primary": true}], "photos": {"count": 0, "groups": []}}, "referralId": "e-0-4c7fdd0ed4e237048b6a4f88-86"}, {"reasons": {"count": 0, "items": [{"summary": "This spot is popular", "type": "general", "reasonName": "globalInteractionReason"}]}, "venue": {"id": "55956447498e31f9361c72a2", "name": "California Pops", "location": {"address": "Falckensteinstr. 4", "lat": 52.49970104121176, "lng": 13.443561742687939, "labeledLatLngs": [{"label": "display", "lat": 52.49970104121176, "lng": 13.443561742687939}], "distance": 594, "postalCode": "10997", "cc": "DE", "city": "Berlin", "state": "Berlin", "country": "Deutschland", "formattedAddress": ["Falckensteinstr. 4", "10997 Berlin", "Deutschland"]}, "categories": [{"id": "4bf58dd8d48988d1c9941735", "name": "Ice Cream Shop", "pluralName": "Ice Cream Shops", "shortName": "Ice Cream", "icon": {"prefix": "https://ss3.4sqi.net/img/categories_v2/food/icecream_", "suffix": ".png"}, "primary": true}], "photos": {"count": 0, "groups": []}}, "referralId": "e-0-55956447498e31f9361c72a2-87"}, {"reasons": {"count": 0, "items": [{"summary": "This spot is popular", "type": "general", "reasonName": "globalInteractionReason"}]}, "venue": {"id": "520e197b049373d9c80985bf", "name": "Sironi - Il Pane di Milano", "location": {"address": "Eisenbahnstr. 42/43", "lat": 52.50225857529403, "lng": 13.431454417132157, "labeledLatLngs": [{"label": "display", "lat": 52.50225857529403, "lng": 13.431454417132157}], "distance": 761, "postalCode": "10997", "cc": "DE", "neighborhood": "Kreuzberg", "city": "Berlin", "state": "Berlin", "country": "Deutschland", "formattedAddress": ["Eisenbahnstr. 42/43", "10997 Berlin", "Deutschland"]}, "categories": [{"id": "4bf58dd8d48988d16a941735", "name": "Bakery", "pluralName": "Bakeries", "shortName": "Bakery", "icon": {"prefix": "https://ss3.4sqi.net/img/categories_v2/food/bakery_", "suffix": ".png"}, "primary": true}], "photos": {"count": 0, "groups": []}}, "referralId": "e-0-520e197b049373d9c80985bf-88"}, {"reasons": {"count": 0, "items": [{"summary": "This spot is popular", "type": "general", "reasonName": "globalInteractionReason"}]}, "venue": {"id": "4befd49dc601a593d303c3d1", "name": "Nowkoelln Flowmarkt", "location": {"address": "Maybachufer", "lat": 52.492640759250115, "lng": 13.43091675620902, "labeledLatLngs": [{"label": "display", "lat": 52.492640759250115, "lng": 13.43091675620902}], "distance": 569, "postalCode": "12047", "cc": "DE", "city": "Berlin", "state": "Berlin", "country": "Deutschland", "formattedAddress": ["Maybachufer", "12047 Berlin", "Deutschland"]}, "categories": [{"id": "4bf58dd8d48988d1f7941735", "name": "Flea Market", "pluralName": "Flea Markets", "shortName": "Flea Market", "icon": {"prefix": "https://ss3.4sqi.net/img/categories_v2/shops/fleamarket_", "suffix": ".png"}, "primary": true}], "photos": {"count": 0, "groups": []}}, "referralId": "e-0-4befd49dc601a593d303c3d1-89"}, {"reasons": {"count": 0, "items": [{"summary": "This spot is popular", "type": "general", "reasonName": "globalInteractionReason"}]}, "venue": {"id": "4cb891744c60a0937b203aca", "name": "Restaurant VOLT", "location": {"address": "Paul-Linke-Ufer 21", "crossStreet": "Ohlauer Str.", "lat": 52.49362251657838, "lng": 13.429842481209233, "labeledLatLngs": [{"label": "display", "lat": 52.49362251657838, "lng": 13.429842481209233}], "distance": 558, "postalCode": "10999", "cc": "DE", "city": "Berlin", "state": "Berlin", "country": "Deutschland", "formattedAddress": ["Paul-Linke-Ufer 21 (Ohlauer Str.)", "10999 Berlin", "Deutschland"]}, "categories": [{"id": "52e81612bcbc57f1066b79f9", "name": "Modern European Restaurant", "pluralName": "Modern European Restaurants", "shortName": "Modern European", "icon": {"prefix": "https://ss3.4sqi.net/img/categories_v2/food/default_", "suffix": ".png"}, "primary": true}], "photos": {"count": 0, "groups": []}}, "referralId": "e-0-4cb891744c60a0937b203aca-90"}, {"reasons": {"count": 0, "items": [{"summary": "This spot is popular", "type": "general", "reasonName": "globalInteractionReason"}]}, "venue": {"id": "570003eb498e6eaa2fa6e949", "name": "Lode & Stijn", "location": {"address": "Lausitzer Str. 25", "lat": 52.49518, "lng": 13.426464, "labeledLatLngs": [{"label": "display", "lat": 52.49518, "lng": 13.426464}], "distance": 714, "postalCode": "10999", "cc": "DE", "city": "Berlin", "state": "Berlin", "country": "Deutschland", "formattedAddress": ["Lausitzer Str. 25", "10999 Berlin", "Deutschland"]}, "categories": [{"id": "52e81612bcbc57f1066b79f9", "name": "Modern European Restaurant", "pluralName": "Modern European Restaurants", "shortName": "Modern European", "icon": {"prefix": "https://ss3.4sqi.net/img/categories_v2/food/default_", "suffix": ".png"}, "primary": true}], "photos": {"count": 0, "groups": []}}, "referralId": "e-0-570003eb498e6eaa2fa6e949-91"}, {"reasons": {"count": 0, "items": [{"summary": "This spot is popular", "type": "general", "reasonName": "globalInteractionReason"}]}, "venue": {"id": "53e8d36b498e56839a9967ff", "name": "UY Studio", "location": {"address": "Pfl\u00fcgerstrasse 11", "lat": 52.49135181042774, "lng": 13.428425788879395, "labeledLatLngs": [{"label": "display", "lat": 52.49135181042774, "lng": 13.428425788879395}], "distance": 790, "postalCode": "12047", "cc": "DE", "neighborhood": "Neuk\u00f6lln, Berlin", "city": "Berlin", "state": "Berlin", "country": "Deutschland", "formattedAddress": ["Pfl\u00fcgerstrasse 11", "12047 Berlin", "Deutschland"]}, "categories": [{"id": "4bf58dd8d48988d106951735", "name": "Men's Store", "pluralName": "Men's Stores", "shortName": "Men's Store", "icon": {"prefix": "https://ss3.4sqi.net/img/categories_v2/shops/apparel_men_", "suffix": ".png"}, "primary": true}], "photos": {"count": 0, "groups": []}, "venuePage": {"id": "485125925"}}, "referralId": "e-0-53e8d36b498e56839a9967ff-92"}, {"reasons": {"count": 0, "items": [{"summary": "This spot is popular", "type": "general", "reasonName": "globalInteractionReason"}]}, "venue": {"id": "520f46f511d2c0d413d14d49", "name": "Kaffee 9", "location": {"address": "Eisenbahnstr. 42", "lat": 52.50194876234582, "lng": 13.431997040702443, "labeledLatLngs": [{"label": "display", "lat": 52.50194876234582, "lng": 13.431997040702443}], "distance": 713, "postalCode": "10997", "cc": "DE", "city": "Berlin", "state": "Berlin", "country": "Deutschland", "formattedAddress": ["Eisenbahnstr. 42", "10997 Berlin", "Deutschland"]}, "categories": [{"id": "4bf58dd8d48988d1e0931735", "name": "Coffee Shop", "pluralName": "Coffee Shops", "shortName": "Coffee Shop", "icon": {"prefix": "https://ss3.4sqi.net/img/categories_v2/food/coffeeshop_", "suffix": ".png"}, "primary": true}], "photos": {"count": 0, "groups": []}}, "referralId": "e-0-520f46f511d2c0d413d14d49-93"}, {"reasons": {"count": 0, "items": [{"summary": "This spot is popular", "type": "general", "reasonName": "globalInteractionReason"}]}, "venue": {"id": "4c45d1fbf0bdd13a317acbcc", "name": "Adana Grillhaus", "location": {"address": "Manteuffelstr. 86", "lat": 52.499641, "lng": 13.426887, "labeledLatLngs": [{"label": "display", "lat": 52.499641, "lng": 13.426887}], "distance": 772, "postalCode": "10997", "cc": "DE", "city": "Berlin", "state": "Berlin", "country": "Deutschland", "formattedAddress": ["Manteuffelstr. 86", "10997 Berlin", "Deutschland"]}, "categories": [{"id": "4f04af1f2fb6e1c99f3db0bb", "name": "Turkish Restaurant", "pluralName": "Turkish Restaurants", "shortName": "Turkish", "icon": {"prefix": "https://ss3.4sqi.net/img/categories_v2/food/turkish_", "suffix": ".png"}, "primary": true}], "photos": {"count": 0, "groups": []}}, "referralId": "e-0-4c45d1fbf0bdd13a317acbcc-94"}, {"reasons": {"count": 0, "items": [{"summary": "This spot is popular", "type": "general", "reasonName": "globalInteractionReason"}]}, "venue": {"id": "5799de81498ea5e67e8da463", "name": "Cafe Frida", "location": {"address": "Schlesische Stra\u00dfe 28", "lat": 52.49846927387301, "lng": 13.446945186439269, "labeledLatLngs": [{"label": "display", "lat": 52.49846927387301, "lng": 13.446945186439269}], "distance": 726, "postalCode": "10997", "cc": "DE", "city": "Berlin", "state": "Berlin", "country": "Deutschland", "formattedAddress": ["Schlesische Stra\u00dfe 28", "10997 Berlin", "Deutschland"]}, "categories": [{"id": "4bf58dd8d48988d16d941735", "name": "Caf\u00e9", "pluralName": "Caf\u00e9s", "shortName": "Caf\u00e9", "icon": {"prefix": "https://ss3.4sqi.net/img/categories_v2/food/cafe_", "suffix": ".png"}, "primary": true}], "photos": {"count": 0, "groups": []}}, "referralId": "e-0-5799de81498ea5e67e8da463-95"}, {"reasons": {"count": 0, "items": [{"summary": "This spot is popular", "type": "general", "reasonName": "globalInteractionReason"}]}, "venue": {"id": "5170200ce4b0b79e67d5e9f2", "name": "Street Food Thursday", "location": {"address": "Eisenbahnstr. 42/43", "lat": 52.50213982664957, "lng": 13.43166922334885, "labeledLatLngs": [{"label": "display", "lat": 52.50213982664957, "lng": 13.43166922334885}], "distance": 742, "postalCode": "10997", "cc": "DE", "city": "Berlin", "state": "Berlin", "country": "Deutschland", "formattedAddress": ["Eisenbahnstr. 42/43", "10997 Berlin", "Deutschland"]}, "categories": [{"id": "53e0feef498e5aac066fd8a9", "name": "Street Food Gathering", "pluralName": "Street Food Gatherings", "shortName": "Street Food Gathering", "icon": {"prefix": "https://ss3.4sqi.net/img/categories_v2/food/streetfood_", "suffix": ".png"}, "primary": true}], "photos": {"count": 0, "groups": []}}, "referralId": "e-0-5170200ce4b0b79e67d5e9f2-96"}, {"reasons": {"count": 0, "items": [{"summary": "This spot is popular", "type": "general", "reasonName": "globalInteractionReason"}]}, "venue": {"id": "4c5df54b2815c928a679b667", "name": "Wowsville", "location": {"address": "Ohlauer Str. 33", "lat": 52.495029107772964, "lng": 13.429786430610706, "labeledLatLngs": [{"label": "display", "lat": 52.495029107772964, "lng": 13.429786430610706}], "distance": 498, "postalCode": "10999", "cc": "DE", "city": "Berlin", "state": "Berlin", "country": "Deutschland", "formattedAddress": ["Ohlauer Str. 33", "10999 Berlin", "Deutschland"]}, "categories": [{"id": "4bf58dd8d48988d11b941735", "name": "Pub", "pluralName": "Pubs", "shortName": "Pub", "icon": {"prefix": "https://ss3.4sqi.net/img/categories_v2/nightlife/pub_", "suffix": ".png"}, "primary": true}], "photos": {"count": 0, "groups": []}}, "referralId": "e-0-4c5df54b2815c928a679b667-97"}, {"reasons": {"count": 0, "items": [{"summary": "This spot is popular", "type": "general", "reasonName": "globalInteractionReason"}]}, "venue": {"id": "57d95276498e7453bfe31143", "name": "Alte Milch", "location": {"address": "Eisenbahnstr. 42/43", "lat": 52.50202476100858, "lng": 13.431494235992432, "labeledLatLngs": [{"label": "display", "lat": 52.50202476100858, "lng": 13.431494235992432}], "distance": 736, "postalCode": "10997", "cc": "DE", "city": "Berlin", "state": "Berlin", "country": "Deutschland", "formattedAddress": ["Eisenbahnstr. 42/43", "10997 Berlin", "Deutschland"]}, "categories": [{"id": "4bf58dd8d48988d11e951735", "name": "Cheese Shop", "pluralName": "Cheese Shops", "shortName": "Cheese Shop", "icon": {"prefix": "https://ss3.4sqi.net/img/categories_v2/shops/food_cheese_", "suffix": ".png"}, "primary": true}], "photos": {"count": 0, "groups": []}}, "referralId": "e-0-57d95276498e7453bfe31143-98"}, {"reasons": {"count": 0, "items": [{"summary": "This spot is popular", "type": "general", "reasonName": "globalInteractionReason"}]}, "venue": {"id": "4d247c48f39ca143c21c76b8", "name": "Klas B\u00e4ckerei", "location": {"address": "Naunynstr. 2", "lat": 52.50036027321407, "lng": 13.427356903569757, "labeledLatLngs": [{"label": "display", "lat": 52.50036027321407, "lng": 13.427356903569757}], "distance": 788, "postalCode": "10997", "cc": "DE", "city": "Berlin", "state": "Berlin", "country": "Deutschland", "formattedAddress": ["Naunynstr. 2", "10997 Berlin", "Deutschland"]}, "categories": [{"id": "4bf58dd8d48988d16a941735", "name": "Bakery", "pluralName": "Bakeries", "shortName": "Bakery", "icon": {"prefix": "https://ss3.4sqi.net/img/categories_v2/food/bakery_", "suffix": ".png"}, "primary": true}], "photos": {"count": 0, "groups": []}}, "referralId": "e-0-4d247c48f39ca143c21c76b8-99"}]