[{"reasons": {"count": 0, "items": [{"summary": "This spot is popular", "type": "general", "reasonName": "globalInteractionReason"}]}, "venue": {"id": "4d5d74c2ddac721e65d378fe", "name": "Nuova Mirabella", "location": {"address": "Alt Tempelhof 27", "lat": 52.465644056433305, "lng": 13.384034096833979, "labeledLatLngs": [{"label": "display", "lat": 52.465644056433305, "lng": 13.384034096833979}], "distance": 265, "postalCode": "12103", "cc": "DE", "city": "Berlin", "state": "Berlin", "country": "Deutschland", "formattedAddress": ["Alt Tempelhof 27", "12103 Berlin", "Deutschland"]}, "categories": [{"id": "4bf58dd8d48988d110941735", "name": "Italian Restaurant", "pluralName": "Italian Restaurants", "shortName": "Italian", "icon": {"prefix": "https://ss3.4sqi.net/img/categories_v2/food/italian_", "suffix": ".png"}, "primary": true}], "photos": {"count": 0, "groups": []}}, "referralId": "e-0-4d5d74c2ddac721e65d378fe-0"}, {"reasons": {"count": 0, "items": [{"summary": "This spot is popular", "type": "general", "reasonName": "globalInteractionReason"}]}, "venue": {"id": "4eb04f39722e4efd61db8531", "name": "City Chicken", "location": {"address": "Tempelhofer Damm 149", "lat": 52.464783353188814, "lng": 13.385706167873973, "labeledLatLngs": [{"label": "display", "lat": 52.464783353188814, "lng": 13.385706167873973}], "distance": 210, "postalCode": "12099", "cc": "DE", "city": "Berlin", "state": "Berlin", "country": "Deutschland", "formattedAddress": ["Tempelhofer Damm 149", "12099 Berlin", "Deutschland"]}, "categories": [{"id": "4d4ae6fc7a7b7dea34424761", "name": "Fried Chicken Joint", "pluralName": "Fried Chicken Joints", "shortName": "Fried Chicken", "icon": {"prefix": "https://ss3.4sqi.net/img/categories_v2/food/friedchicken_", "suffix": ".png"}, "primary": true}], "photos": {"count": 0, "groups": []}}, "referralId": "e-0-4eb04f39722e4efd61db8531-1"}, {"reasons": {"count": 0, "items": [{"summary": "This spot is popular", "type": "general", "reasonName": "globalInteractionReason"}]}, "venue": {"id": "50bcc6a9e4b08cfd70eb0e4a", "name": "RISA Chicken", "location": {"address": "Tempelhofer Damm 144", "lat": 52.466194911143816, "lng": 13.38532605664186, "labeledLatLngs": [{"label": "display", "lat": 52.466194911143816, "lng": 13.38532605664186}], "distance": 171, "postalCode": "12099", "cc": "DE", "city": "Berlin", "state": "Berlin", "country": "Deutschland", "formattedAddress": ["Tempelhofer Damm 144", "12099 Berlin", "Deutschland"]}, "categories": [{"id": "4d4ae6fc7a7b7dea34424761", "name": "Fried Chicken Joint", "pluralName": "Fried Chicken Joints", "shortName": "Fried Chicken", "icon": {"prefix": "https://ss3.4sqi.net/img/categories_v2/food/friedchicken_", "suffix": ".png"}, "primary": true}], "photos": {"count": 0, "groups": []}}, "referralId": "e-0-50bcc6a9e4b08cfd70eb0e4a-2"}, {"reasons": {"count": 0, "items": [{"summary": "This spot is popular", "type": "general", "reasonName": "globalInteractionReason"}]}, "venue": {"id": "4bed76c32a7bb7130510cf9d", "name": "Lidl", "location": {"address": "Tempelhofer Damm 130", "lat": 52.46797192564404, "lng": 13.384424904197658, "labeledLatLngs": [{"label": "display", "lat": 52.46797192564404, "lng": 13.384424904197658}], "distance": 309, "postalCode": "12099", "cc": "DE", "neighborhood": "Berlin-Tempelhof", "city": "Berlin", "state": "Berlin", "country": "Deutschland", "formattedAddress": ["Tempelhofer Damm 130", "12099 Tempelhof", "Deutschland"]}, "categories": [{"id": "52f2ab2ebcbc57f1066b8b46", "name": "Supermarket", "pluralName": "Supermarkets", "shortName": "Supermarket", "icon": {"prefix": "https://ss3.4sqi.net/img/categories_v2/shops/food_grocery_", "suffix": ".png"}, "primary": true}], "photos": {"count": 0, "groups": []}, "venuePage": {"id": "574518773"}}, "referralId": "e-0-4bed76c32a7bb7130510cf9d-3"}, {"reasons": {"count": 0, "items": [{"summary": "This spot is popular", "type": "general", "reasonName": "globalInteractionReason"}]}, "venue": {"id": "4f37eb7fe4b00d9f96a98e42", "name": "Alter Park", "location": {"address": "Parkstr.", "crossStreet": "Tempelhofer Damm", "lat": 52.46287074203469, "lng": 13.382309408058477, "labeledLatLngs": [{"label": "display", "lat": 52.46287074203469, "lng": 13.382309408058477}], "distance": 524, "postalCode": "12099", "cc": "DE", "city": "Berlin", "state": "Berlin", "country": "Deutschland", "formattedAddress": ["Parkstr. (Tempelhofer Damm)", "12099 Berlin", "Deutschland"]}, "categories": [{"id": "4bf58dd8d48988d163941735", "name": "Park", "pluralName": "Parks", "shortName": "Park", "icon": {"prefix": "https://ss3.4sqi.net/img/categories_v2/parks_outdoors/park_", "suffix": ".png"}, "primary": true}], "photos": {"count": 0, "groups": []}}, "referralId": "e-0-4f37eb7fe4b00d9f96a98e42-4"}, {"reasons": {"count": 0, "items": [{"summary": "This spot is popular", "type": "general", "reasonName": "globalInteractionReason"}]}, "venue": {"id": "5117947ce4b0eb6a9e8765f5", "name": "M\u00fcllerskind", "location": {"address": "Parkstra\u00dfe 11", "lat": 52.462680782026176, "lng": 13.381306691069783, "labeledLatLngs": [{"label": "display", "lat": 52.462680782026176, "lng": 13.381306691069783}], "distance": 588, "postalCode": "12103", "cc": "DE", "city": "Berlin", "state": "Berlin", "country": "Deutschland", "formattedAddress": ["Parkstra\u00dfe 11", "12103 Berlin", "Deutschland"]}, "categories": [{"id": "4bf58dd8d48988d16d941735", "name": "Caf\u00e9", "pluralName": "Caf\u00e9s", "shortName": "Caf\u00e9", "icon": {"prefix": "https://ss3.4sqi.net/img/categories_v2/food/cafe_", "suffix": ".png"}, "primary": true}], "photos": {"count": 0, "groups": []}}, "referralId": "e-0-5117947ce4b0eb6a9e8765f5-5"}, {"reasons": {"count": 0, "items": [{"summary": "This spot is popular", "type": "general", "reasonName": "globalInteractionReason"}]}, "venue": {"id": "4e2ad97914955dbf7ad38941", "name": "Franckepark", "location": {"address": "Albrechtstr.", "crossStreet": "Theodor-Francke-Str.", "lat": 52.4612132016372, "lng": 13.388428688049316, "labeledLatLngs": [{"label": "display", "lat": 52.4612132016372, "lng": 13.388428688049316}], "distance": 550, "postalCode": "12099", "cc": "DE", "city": "Berlin", "state": "Berlin", "country": "Deutschland", "formattedAddress": ["Albrechtstr. (Theodor-Francke-Str.)", "12099 Berlin", "Deutschland"]}, "categories": [{"id": "4bf58dd8d48988d163941735", "name": "Park", "pluralName": "Parks", "shortName": "Park", "icon": {"prefix": "https://ss3.4sqi.net/img/categories_v2/parks_outdoors/park_", "suffix": ".png"}, "primary": true}], "photos": {"count": 0, "groups": []}}, "referralId": "e-0-4e2ad97914955dbf7ad38941-6"}, {"reasons": {"count": 0, "items": [{"summary": "This spot is popular", "type": "general", "reasonName": "globalInteractionReason"}]}, "venue": {"id": "4c49b2c520ab1b8de2062117", "name": "Trattoria Toscana", "location": {"address": "Tempelhofer Damm 104", "crossStreet": "Hoeppnerstr.", "lat": 52.4715056699932, "lng": 13.385329206997389, "labeledLatLngs": [{"label": "display", "lat": 52.4715056699932, "lng": 13.385329206997389}], "distance": 620, "postalCode": "12099", "cc": "DE", "city": "Berlin", "state": "Berlin", "country": "Deutschland", "formattedAddress": ["Tempelhofer Damm 104 (Hoeppnerstr.)", "12099 Berlin", "Deutschland"]}, "categories": [{"id": "55a5a1ebe4b013909087cb7f", "name": "Trattoria/Osteria", "pluralName": "Trattorias/Osterias", "shortName": "Trattoria/Osteria", "icon": {"prefix": "https://ss3.4sqi.net/img/categories_v2/food/italian_", "suffix": ".png"}, "primary": true}], "photos": {"count": 0, "groups": []}}, "referralId": "e-0-4c49b2c520ab1b8de2062117-7"}, {"reasons": {"count": 0, "items": [{"summary": "This spot is popular", "type": "general", "reasonName": "globalInteractionReason"}]}, "venue": {"id": "4f9b9c79e4b01da4ff870663", "name": "Bosepark", "location": {"address": "Bosestr.", "crossStreet": "Stolbergstr.", "lat": 52.462958329071206, "lng": 13.379771795281743, "labeledLatLngs": [{"label": "display", "lat": 52.462958329071206, "lng": 13.379771795281743}], "distance": 653, "postalCode": "12103", "cc": "DE", "city": "Berlin", "state": "Berlin", "country": "Deutschland", "formattedAddress": ["Bosestr. (Stolbergstr.)", "12103 Berlin", "Deutschland"]}, "categories": [{"id": "4bf58dd8d48988d163941735", "name": "Park", "pluralName": "Parks", "shortName": "Park", "icon": {"prefix": "https://ss3.4sqi.net/img/categories_v2/parks_outdoors/park_", "suffix": ".png"}, "primary": true}], "photos": {"count": 0, "groups": []}}, "referralId": "e-0-4f9b9c79e4b01da4ff870663-8"}, {"reasons": {"count": 0, "items": [{"summary": "This spot is popular", "type": "general", "reasonName": "globalInteractionReason"}]}, "venue": {"id": "529c75dc498e5f28c08db637", "name": "Orient Food", "location": {"address": "Tempelhofer damm 124", "lat": 52.468418, "lng": 13.385631, "labeledLatLngs": [{"label": "display", "lat": 52.468418, "lng": 13.385631}], "distance": 294, "postalCode": "12099", "cc": "DE", "city": "Berlin", "state": "Berlin", "country": "Deutschland", "formattedAddress": ["Tempelhofer damm 124", "12099 Berlin", "Deutschland"]}, "categories": [{"id": "4bf58dd8d48988d115941735", "name": "Middle Eastern Restaurant", "pluralName": "Middle Eastern Restaurants", "shortName": "Middle Eastern", "icon": {"prefix": "https://ss3.4sqi.net/img/categories_v2/food/middleeastern_", "suffix": ".png"}, "primary": true}], "photos": {"count": 0, "groups": []}}, "referralId": "e-0-529c75dc498e5f28c08db637-9"}, {"reasons": {"count": 0, "items": [{"summary": "This spot is popular", "type": "general", "reasonName": "globalInteractionReason"}]}, "venue": {"id": "4d39af3dbeb7b1f757d7e171", "name": "Post | Postbank", "location": {"address": "Tempelhofer Damm 171-173", "lat": 52.46163486571014, "lng": 13.385154790905387, "labeledLatLngs": [{"label": "display", "lat": 52.46163486571014, "lng": 13.385154790905387}], "distance": 534, "postalCode": "12099", "cc": "DE", "city": "Berlin", "state": "Berlin", "country": "Deutschland", "formattedAddress": ["Tempelhofer Damm 171-173", "12099 Berlin", "Deutschland"]}, "categories": [{"id": "4bf58dd8d48988d172941735", "name": "Post Office", "pluralName": "Post Offices", "shortName": "Post Office", "icon": {"prefix": "https://ss3.4sqi.net/img/categories_v2/building/postoffice_", "suffix": ".png"}, "primary": true}], "photos": {"count": 0, "groups": []}}, "referralId": "e-0-4d39af3dbeb7b1f757d7e171-10"}, {"reasons": {"count": 0, "items": [{"summary": "This spot is popular", "type": "general", "reasonName": "globalInteractionReason"}]}, "venue": {"id": "500d6093e4b0c0877fa4a32f", "name": "vanille & marille", "location": {"address": "Friedrich-Wilhelm-Str. 22", "crossStreet": "Werderstr.", "lat": 52.458636, "lng": 13.381134, "labeledLatLngs": [{"label": "display", "lat": 52.458636, "lng": 13.381134}], "distance": 952, "postalCode": "12103", "cc": "DE", "neighborhood": "Alt-Tempelhof", "city": "Berlin", "state": "Berlin", "country": "Deutschland", "formattedAddress": ["Friedrich-Wilhelm-Str. 22 (Werderstr.)", "12103 Berlin", "Deutschland"]}, "categories": [{"id": "4bf58dd8d48988d1c9941735", "name": "Ice Cream Shop", "pluralName": "Ice Cream Shops", "shortName": "Ice Cream", "icon": {"prefix": "https://ss3.4sqi.net/img/categories_v2/food/icecream_", "suffix": ".png"}, "primary": true}], "photos": {"count": 0, "groups": []}}, "referralId": "e-0-500d6093e4b0c0877fa4a32f-11"}, {"reasons": {"count": 0, "items": [{"summary": "This spot is popular", "type": "general", "reasonName": "globalInteractionReason"}]}, "venue": {"id": "500541dae4b06362293a4f55", "name": "Tonsai Thai", "location": {"lat": 52.45956101571306, "lng": 13.381932536177759, "labeledLatLngs": [{"label": "display", "lat": 52.45956101571306, "lng": 13.381932536177759}], "distance": 836, "cc": "DE", "city": "Berlin", "state": "Berlin", "country": "Deutschland", "formattedAddress": ["Berlin", "Deutschland"]}, "categories": [{"id": "4bf58dd8d48988d149941735", "name": "Thai Restaurant", "pluralName": "Thai Restaurants", "shortName": "Thai", "icon": {"prefix": "https://ss3.4sqi.net/img/categories_v2/food/thai_", "suffix": ".png"}, "primary": true}], "photos": {"count": 0, "groups": []}}, "referralId": "e-0-500541dae4b06362293a4f55-12"}, {"reasons": {"count": 0, "items": [{"summary": "This spot is popular", "type": "general", "reasonName": "globalInteractionReason"}]}, "venue": {"id": "57ce8ee638fa90334168747f", "name": "Caf\u00e9 Klangwerk", "location": {"address": "Kaiserin-Augusta-Str. 12", "lat": 52.459551, "lng": 13.382136, "labeledLatLngs": [{"label": "display", "lat": 52.459551, "lng": 13.382136}], "distance": 830, "postalCode": "12103", "cc": "DE", "city": "Berlin", "state": "Berlin", "country": "Deutschland", "formattedAddress": ["Kaiserin-Augusta-Str. 12", "12103 Berlin", "Deutschland"]}, "categories": [{"id": "4bf58dd8d48988d16d941735", "name": "Caf\u00e9", "pluralName": "Caf\u00e9s", "shortName": "Caf\u00e9", "icon": {"prefix": "https://ss3.4sqi.net/img/categories_v2/food/cafe_", "suffix": ".png"}, "primary": true}], "photos": {"count": 0, "groups": []}}, "referralId": "e-0-57ce8ee638fa90334168747f-13"}, {"reasons": {"count": 0, "items": [{"summary": "This spot is popular", "type": "general", "reasonName": "globalInteractionReason"}]}, "venue": {"id": "4c5b17dc04f9be9af56df360", "name": "Amera", "location": {"lat": 52.46716998881639, "lng": 13.382751642683369, "labeledLatLngs": [{"label": "display", "lat": 52.46716998881639, "lng": 13.382751642683369}], "distance": 364, "cc": "DE", "city": "Berlin", "state": "Berlin", "country": "Deutschland", "formattedAddress": ["Berlin", "Deutschland"]}, "categories": [{"id": "4bf58dd8d48988d110941735", "name": "Italian Restaurant", "pluralName": "Italian Restaurants", "shortName": "Italian", "icon": {"prefix": "https://ss3.4sqi.net/img/categories_v2/food/italian_", "suffix": ".png"}, "primary": true}], "photos": {"count": 0, "groups": []}}, "referralId": "e-0-4c5b17dc04f9be9af56df360-14"}, {"reasons": {"count": 0, "items": [{"summary": "This spot is popular", "type": "general", "reasonName": "globalInteractionReason"}]}, "venue": {"id": "4b06e70cf964a52095f222e3", "name": "Bambusst\u00e4bchen", "location": {"address": "Tempelhofer Damm 140", "lat": 52.46664276531108, "lng": 13.385444816675534, "labeledLatLngs": [{"label": "display", "lat": 52.46664276531108, "lng": 13.385444816675534}], "distance": 172, "postalCode": "12099", "cc": "DE", "city": "Berlin", "state": "Berlin", "country": "Deutschland", "formattedAddress": ["Tempelhofer Damm 140", "12099 Berlin", "Deutschland"]}, "categories": [{"id": "4bf58dd8d48988d14a941735", "name": "Vietnamese Restaurant", "pluralName": "Vietnamese Restaurants", "shortName": "Vietnamese", "icon": {"prefix": "https://ss3.4sqi.net/img/categories_v2/food/vietnamese_", "suffix": ".png"}, "primary": true}], "photos": {"count": 0, "groups": []}}, "referralId": "e-0-4b06e70cf964a52095f222e3-15"}, {"reasons": {"count": 0, "items": [{"summary": "This spot is popular", "type": "general", "reasonName": "globalInteractionReason"}]}, "venue": {"id": "5468878f498e241bb6475227", "name": "Th\u00fcrmann B\u00e4ckerei & Konditorei", "location": {"address": "Tempelhofer Damm", "crossStreet": "Albrechtstrasse", "lat": 52.46076866305522, "lng": 13.385080280744857, "labeledLatLngs": [{"label": "display", "lat": 52.46076866305522, "lng": 13.385080280744857}], "distance": 627, "cc": "DE", "city": "Berlin", "state": "Berlin", "country": "Deutschland", "formattedAddress": ["Tempelhofer Damm (Albrechtstrasse)", "Berlin", "Deutschland"]}, "categories": [{"id": "4bf58dd8d48988d16a941735", "name": "Bakery", "pluralName": "Bakeries", "shortName": "Bakery", "icon": {"prefix": "https://ss3.4sqi.net/img/categories_v2/food/bakery_", "suffix": ".png"}, "primary": true}], "photos": {"count": 0, "groups": []}}, "referralId": "e-0-5468878f498e241bb6475227-16"}, {"reasons": {"count": 0, "items": [{"summary": "This spot is popular", "type": "general", "reasonName": "globalInteractionReason"}]}, "venue": {"id": "4c8209b2d6ebbfb73c8648a4", "name": "Bahlsen Fabrikverkauf", "location": {"address": "Oberlandstr. 52-63", "lat": 52.46417112894352, "lng": 13.40211494350217, "labeledLatLngs": [{"label": "display", "lat": 52.46417112894352, "lng": 13.40211494350217}], "distance": 991, "postalCode": "12099", "cc": "DE", "city": "Berlin", "state": "Berlin", "country": "Deutschland", "formattedAddress": ["Oberlandstr. 52-63", "12099 Berlin", "Deutschland"]}, "categories": [{"id": "4bf58dd8d48988d117951735", "name": "Candy Store", "pluralName": "Candy Stores", "shortName": "Candy Store", "icon": {"prefix": "https://ss3.4sqi.net/img/categories_v2/shops/candystore_", "suffix": ".png"}, "primary": true}], "photos": {"count": 0, "groups": []}}, "referralId": "e-0-4c8209b2d6ebbfb73c8648a4-17"}, {"reasons": {"count": 0, "items": [{"summary": "This spot is popular", "type": "general", "reasonName": "globalInteractionReason"}]}, "venue": {"id": "4eea2f16775b562a39d06de1", "name": "Caf\u00e9 Klatsch", "location": {"address": "Alt-Tempelhof 46", "lat": 52.46585700255897, "lng": 13.38076329559754, "labeledLatLngs": [{"label": "display", "lat": 52.46585700255897, "lng": 13.38076329559754}], "distance": 482, "postalCode": "12103", "cc": "DE", "city": "Berlin", "state": "Berlin", "country": "Deutschland", "formattedAddress": ["Alt-Tempelhof 46", "12103 Berlin", "Deutschland"]}, "categories": [{"id": "4bf58dd8d48988d16d941735", "name": "Caf\u00e9", "pluralName": "Caf\u00e9s", "shortName": "Caf\u00e9", "icon": {"prefix": "https://ss3.4sqi.net/img/categories_v2/food/cafe_", "suffix": ".png"}, "primary": true}], "photos": {"count": 0, "groups": []}}, "referralId": "e-0-4eea2f16775b562a39d06de1-18"}, {"reasons": {"count": 0, "items": [{"summary": "This spot is popular", "type": "general", "reasonName": "globalInteractionReason"}]}, "venue": {"id": "4e300b2245ddcf0f5c8867d5", "name": "ehem. Runway 09R", "location": {"address": "Tempelhofer Park", "lat": 52.470808563070726, "lng": 13.393235206604004, "labeledLatLngs": [{"label": "display", "lat": 52.470808563070726, "lng": 13.393235206604004}], "distance": 634, "postalCode": "12101", "cc": "DE", "city": "Berlin", "state": "Berlin", "country": "Deutschland", "formattedAddress": ["Tempelhofer Park", "12101 Berlin", "Deutschland"]}, "categories": [{"id": "4bf58dd8d48988d167941735", "name": "Skate Park", "pluralName": "Skate Parks", "shortName": "Skate Park", "icon": {"prefix": "https://ss3.4sqi.net/img/categories_v2/parks_outdoors/skate_park_", "suffix": ".png"}, "primary": true}], "photos": {"count": 0, "groups": []}}, "referralId": "e-0-4e300b2245ddcf0f5c8867d5-19"}, {"reasons": {"count": 0, "items": [{"summary": "This spot is popular", "type": "general", "reasonName": "globalInteractionReason"}]}, "venue": {"id": "562d08c3498ebc490f8a8a55", "name": "EGE Gem\u00fcsekebap", "location": {"lat": 52.459218, "lng": 13.384774, "labeledLatLngs": [{"label": "display", "lat": 52.459218, "lng": 13.384774}], "distance": 799, "cc": "DE", "city": "Berlin", "state": "Berlin", "country": "Deutschland", "formattedAddress": ["Berlin", "Deutschland"]}, "categories": [{"id": "5283c7b4e4b094cb91ec88d8", "name": "Doner Restaurant", "pluralName": "Doner Restaurants", "shortName": "Doner", "icon": {"prefix": "https://ss3.4sqi.net/img/categories_v2/food/turkish_", "suffix": ".png"}, "primary": true}], "photos": {"count": 0, "groups": []}}, "referralId": "e-0-562d08c3498ebc490f8a8a55-20"}, {"reasons": {"count": 0, "items": [{"summary": "This spot is popular", "type": "general", "reasonName": "globalInteractionReason"}]}, "venue": {"id": "4b841f6ef964a520382231e3", "name": "Balli D\u00f6ner", "location": {"address": "Tempelhofer Damm 146", "lat": 52.4659823152116, "lng": 13.385411098485934, "labeledLatLngs": [{"label": "display", "lat": 52.4659823152116, "lng": 13.385411098485934}], "distance": 167, "postalCode": "12099", "cc": "DE", "city": "Berlin", "state": "Berlin", "country": "Deutschland", "formattedAddress": ["Tempelhofer Damm 146", "12099 Berlin", "Deutschland"]}, "categories": [{"id": "5283c7b4e4b094cb91ec88d8", "name": "Doner Restaurant", "pluralName": "Doner Restaurants", "shortName": "Doner", "icon": {"prefix": "https://ss3.4sqi.net/img/categories_v2/food/turkish_", "suffix": ".png"}, "primary": true}], "photos": {"count": 0, "groups": []}}, "referralId": "e-0-4b841f6ef964a520382231e3-21"}, {"reasons": {"count": 0, "items": [{"summary": "This spot is popular", "type": "general", "reasonName": "globalInteractionReason"}]}, "venue": {"id": "4bc0953ab492d13a026fa460", "name": "McFIT", "location": {"address": "Sch\u00f6neberger Stra\u00dfe 11-15", "crossStreet": "Alboinstr.", "lat": 52.4696808, "lng": 13.3743542, "labeledLatLngs": [{"label": "display", "lat": 52.4696808, "lng": 13.3743542}], "distance": 996, "postalCode": "12103", "cc": "DE", "city": "Berlin", "state": "Berlin", "country": "Deutschland", "formattedAddress": ["Sch\u00f6neberger Stra\u00dfe 11-15 (Alboinstr.)", "12103 Berlin", "Deutschland"]}, "categories": [{"id": "4bf58dd8d48988d175941735", "name": "Gym / Fitness Center", "pluralName": "Gyms or Fitness Centers", "shortName": "Gym / Fitness", "icon": {"prefix": "https://ss3.4sqi.net/img/categories_v2/building/gym_", "suffix": ".png"}, "primary": true}], "photos": {"count": 0, "groups": []}}, "referralId": "e-0-4bc0953ab492d13a026fa460-22"}, {"reasons": {"count": 0, "items": [{"summary": "This spot is popular", "type": "general", "reasonName": "globalInteractionReason"}]}, "venue": {"id": "57d01666498e28bbbcb43c6a", "name": "dm-drogerie markt", "location": {"address": "Tempelhofer Damm 191", "lat": 52.459654927667806, "lng": 13.384770689924675, "labeledLatLngs": [{"label": "display", "lat": 52.459654927667806, "lng": 13.384770689924675}], "distance": 752, "postalCode": "12099", "cc": "DE", "city": "Berlin", "state": "Berlin", "country": "Deutschland", "formattedAddress": ["Tempelhofer Damm 191", "12099 Berlin", "Deutschland"]}, "categories": [{"id": "5745c2e4498e11e7bccabdbd", "name": "Drugstore", "pluralName": "Drugstores", "shortName": "Drugstore", "icon": {"prefix": "https://ss3.4sqi.net/img/categories_v2/shops/pharmacy_", "suffix": ".png"}, "primary": true}], "photos": {"count": 0, "groups": []}, "venuePage": {"id": "450818994"}}, "referralId": "e-0-57d01666498e28bbbcb43c6a-23"}, {"reasons": {"count": 0, "items": [{"summary": "This spot is popular", "type": "general", "reasonName": "globalInteractionReason"}]}, "venue": {"id": "52d43e33498e81416e766a67", "name": "EDEKA", "location": {"address": "Alt-Tempelhof 31", "lat": 52.46550069347914, "lng": 13.383998450074037, "labeledLatLngs": [{"label": "display", "lat": 52.46550069347914, "lng": 13.383998450074037}], "distance": 271, "postalCode": "12103", "cc": "DE", "city": "Berlin", "state": "Berlin", "country": "Deutschland", "formattedAddress": ["Alt-Tempelhof 31", "12103 Berlin", "Deutschland"]}, "categories": [{"id": "52f2ab2ebcbc57f1066b8b46", "name": "Supermarket", "pluralName": "Supermarkets", "shortName": "Supermarket", "icon": {"prefix": "https://ss3.4sqi.net/img/categories_v2/shops/food_grocery_", "suffix": ".png"}, "primary": true}], "photos": {"count": 0, "groups": []}}, "referralId": "e-0-52d43e33498e81416e766a67-24"}, {"reasons": {"count": 0, "items": [{"summary": "This spot is popular", "type": "general", "reasonName": "globalInteractionReason"}]}, "venue": {"id": "5b9d2cb56eda02002c549a28", "name": "REWE", "location": {"address": "Germaniastra\u00dfe 12-13", "lat": 52.46468599301692, "lng": 13.395111853235562, "labeledLatLngs": [{"label": "display", "lat": 52.46468599301692, "lng": 13.395111853235562}], "distance": 517, "postalCode": "12099", "cc": "DE", "neighborhood": "Tempelhof", "city": "Berlin", "state": "Berlin", "country": "Deutschland", "formattedAddress": ["Germaniastra\u00dfe 12-13", "12099 Berlin", "Deutschland"]}, "categories": [{"id": "52f2ab2ebcbc57f1066b8b46", "name": "Supermarket", "pluralName": "Supermarkets", "shortName": "Supermarket", "icon": {"prefix": "https://ss3.4sqi.net/img/categories_v2/shops/food_grocery_", "suffix": ".png"}, "primary": true}], "photos": {"count": 0, "groups": []}, "venuePage": {"id": "577770387"}}, "referralId": "e-0-5b9d2cb56eda02002c549a28-25"}, {"reasons": {"count": 0, "items": [{"summary": "This spot is popular", "type": "general", "reasonName": "globalInteractionReason"}]}, "venue": {"id": "4cd426c2607a6dcb2dc51354", "name": "Rossmann", "location": {"address": "Tempelhofer Damm 192", "lat": 52.45956108078195, "lng": 13.384524458560131, "labeledLatLngs": [{"label": "display", "lat": 52.45956108078195, "lng": 13.384524458560131}], "distance": 767, "postalCode": "12099", "cc": "DE", "city": "Berlin", "state": "Berlin", "country": "Deutschland", "formattedAddress": ["Tempelhofer Damm 192", "12099 Berlin", "Deutschland"]}, "categories": [{"id": "5745c2e4498e11e7bccabdbd", "name": "Drugstore", "pluralName": "Drugstores", "shortName": "Drugstore", "icon": {"prefix": "https://ss3.4sqi.net/img/categories_v2/shops/pharmacy_", "suffix": ".png"}, "primary": true}], "photos": {"count": 0, "groups": []}}, "referralId": "e-0-4cd426c2607a6dcb2dc51354-26"}, {"reasons": {"count": 0, "items": [{"summary": "This spot is popular", "type": "general", "reasonName": "globalInteractionReason"}]}, "venue": {"id": "4b6c6d66f964a52044392ce3", "name": "Kaufland", "location": {"address": "Sch\u00f6neberger Str. 7", "lat": 52.467606339462435, "lng": 13.377067896351205, "labeledLatLngs": [{"label": "display", "lat": 52.467606339462435, "lng": 13.377067896351205}], "distance": 749, "postalCode": "12103", "cc": "DE", "city": "Berlin", "state": "Berlin", "country": "Deutschland", "formattedAddress": ["Sch\u00f6neberger Str. 7", "12103 Berlin", "Deutschland"]}, "categories": [{"id": "52f2ab2ebcbc57f1066b8b42", "name": "Big Box Store", "pluralName": "Big Box Stores", "shortName": "Big Box Store", "icon": {"prefix": "https://ss3.4sqi.net/img/categories_v2/shops/default_", "suffix": ".png"}, "primary": true}], "photos": {"count": 0, "groups": []}, "venuePage": {"id": "450815380"}}, "referralId": "e-0-4b6c6d66f964a52044392ce3-27"}, {"reasons": {"count": 0, "items": [{"summary": "This spot is popular", "type": "general", "reasonName": "globalInteractionReason"}]}, "venue": {"id": "4b50b755f964a5200f2f27e3", "name": "Pausini", "location": {"address": "Kaiserin-Augusta-Str. 78", "lat": 52.459449320605344, "lng": 13.383953043052635, "labeledLatLngs": [{"label": "display", "lat": 52.459449320605344, "lng": 13.383953043052635}], "distance": 791, "postalCode": "12103", "cc": "DE", "city": "Berlin", "state": "Berlin", "country": "Deutschland", "formattedAddress": ["Kaiserin-Augusta-Str. 78", "12103 Berlin", "Deutschland"]}, "categories": [{"id": "4bf58dd8d48988d1e0931735", "name": "Coffee Shop", "pluralName": "Coffee Shops", "shortName": "Coffee Shop", "icon": {"prefix": "https://ss3.4sqi.net/img/categories_v2/food/coffeeshop_", "suffix": ".png"}, "primary": true}], "photos": {"count": 0, "groups": []}}, "referralId": "e-0-4b50b755f964a5200f2f27e3-28"}, {"reasons": {"count": 0, "items": [{"summary": "This spot is popular", "type": "general", "reasonName": "globalInteractionReason"}]}, "venue": {"id": "575c1209498e89530a924e70", "name": "EDEKA Tempelhofer Damm", "location": {"address": "Tempelhofer Damm 198", "lat": 52.45877597, "lng": 13.38376124, "labeledLatLngs": [{"label": "display", "lat": 52.45877597, "lng": 13.38376124}], "distance": 866, "postalCode": "12099", "cc": "DE", "city": "Berlin", "state": "Berlin", "country": "Deutschland", "formattedAddress": ["Tempelhofer Damm 198", "12099 Berlin", "Deutschland"]}, "categories": [{"id": "52f2ab2ebcbc57f1066b8b46", "name": "Supermarket", "pluralName": "Supermarkets", "shortName": "Supermarket", "icon": {"prefix": "https://ss3.4sqi.net/img/categories_v2/shops/food_grocery_", "suffix": ".png"}, "primary": true}], "photos": {"count": 0, "groups": []}, "venuePage": {"id": "551937740"}}, "referralId": "e-0-575c1209498e89530a924e70-29"}, {"reasons": {"count": 0, "items": [{"summary": "This spot is popular", "type": "general", "reasonName": "globalInteractionReason"}]}, "venue": {"id": "536de514498e93b032d760d2", "name": "Meyman Gourmet", "location": {"address": "Tempelhofer Damm 201", "crossStreet": "Friedrich-Wilhelm-Strasse", "lat": 52.45820253598701, "lng": 13.384377212555776, "labeledLatLngs": [{"label": "display", "lat": 52.45820253598701, "lng": 13.384377212555776}], "distance": 915, "postalCode": "12099", "cc": "DE", "city": "Berlin", "state": "Berlin", "country": "Deutschland", "formattedAddress": ["Tempelhofer Damm 201 (Friedrich-Wilhelm-Strasse)", "12099 Berlin", "Deutschland"]}, "categories": [{"id": "4bf58dd8d48988d143941735", "name": "Breakfast Spot", "pluralName": "Breakfast Spots", "shortName": "Breakfast", "icon": {"prefix": "https://ss3.4sqi.net/img/categories_v2/food/breakfast_", "suffix": ".png"}, "primary": true}], "photos": {"count": 0, "groups": []}}, "referralId": "e-0-536de514498e93b032d760d2-30"}, {"reasons": {"count": 0, "items": [{"summary": "This spot is popular", "type": "general", "reasonName": "globalInteractionReason"}]}, "venue": {"id": "4adcda70f964a520064521e3", "name": "Hotel Alt-Tempelhof", "location": {"address": "Luise-Henriette-Str. 4", "lat": 52.4640135430467, "lng": 13.384933899156918, "labeledLatLngs": [{"label": "display", "lat": 52.4640135430467, "lng": 13.384933899156918}], "distance": 309, "postalCode": "12103", "cc": "DE", "city": "Berlin", "state": "Berlin", "country": "Deutschland", "formattedAddress": ["Luise-Henriette-Str. 4", "12103 Berlin", "Deutschland"]}, "categories": [{"id": "4bf58dd8d48988d1fa931735", "name": "Hotel", "pluralName": "Hotels", "shortName": "Hotel", "icon": {"prefix": "https://ss3.4sqi.net/img/categories_v2/travel/hotel_", "suffix": ".png"}, "primary": true}], "photos": {"count": 0, "groups": []}}, "referralId": "e-0-4adcda70f964a520064521e3-31"}, {"reasons": {"count": 0, "items": [{"summary": "This spot is popular", "type": "general", "reasonName": "globalInteractionReason"}]}, "venue": {"id": "4b2e52e3f964a5204dde24e3", "name": "Woolworth", "location": {"address": "Tempelhofer Damm 146", "lat": 52.465591603433936, "lng": 13.38541229330629, "labeledLatLngs": [{"label": "display", "lat": 52.465591603433936, "lng": 13.38541229330629}], "distance": 177, "postalCode": "12099", "cc": "DE", "city": "Berlin", "state": "Berlin", "country": "Deutschland", "formattedAddress": ["Tempelhofer Damm 146", "12099 Berlin", "Deutschland"]}, "categories": [{"id": "4bf58dd8d48988d1f6941735", "name": "Department Store", "pluralName": "Department Stores", "shortName": "Department Store", "icon": {"prefix": "https://ss3.4sqi.net/img/categories_v2/shops/departmentstore_", "suffix": ".png"}, "primary": true}], "photos": {"count": 0, "groups": []}, "venuePage": {"id": "557864335"}}, "referralId": "e-0-4b2e52e3f964a5204dde24e3-32"}, {"reasons": {"count": 0, "items": [{"summary": "This spot is popular", "type": "general", "reasonName": "globalInteractionReason"}]}, "venue": {"id": "56536eb2498ebeda6f7a4f0e", "name": "T-Damm Center", "location": {"lat": 52.4586211256563, "lng": 13.383373230883965, "labeledLatLngs": [{"label": "display", "lat": 52.4586211256563, "lng": 13.383373230883965}], "distance": 891, "cc": "DE", "city": "Berlin", "state": "Berlin", "country": "Deutschland", "formattedAddress": ["Berlin", "Deutschland"]}, "categories": [{"id": "4bf58dd8d48988d1fd941735", "name": "Shopping Mall", "pluralName": "Shopping Malls", "shortName": "Mall", "icon": {"prefix": "https://ss3.4sqi.net/img/categories_v2/shops/mall_", "suffix": ".png"}, "primary": true}], "photos": {"count": 0, "groups": []}}, "referralId": "e-0-56536eb2498ebeda6f7a4f0e-33"}, {"reasons": {"count": 0, "items": [{"summary": "This spot is popular", "type": "general", "reasonName": "globalInteractionReason"}]}, "venue": {"id": "51bdbb40498edb2f294e4d5d", "name": "D\u00f6neria", "location": {"address": "Tempelhofer Damm 204", "lat": 52.458053573344344, "lng": 13.384196398564065, "labeledLatLngs": [{"label": "display", "lat": 52.458053573344344, "lng": 13.384196398564065}], "distance": 934, "postalCode": "12099", "cc": "DE", "city": "Berlin", "state": "Berlin", "country": "Deutschland", "formattedAddress": ["Tempelhofer Damm 204", "12099 Berlin", "Deutschland"]}, "categories": [{"id": "5283c7b4e4b094cb91ec88d8", "name": "Doner Restaurant", "pluralName": "Doner Restaurants", "shortName": "Doner", "icon": {"prefix": "https://ss3.4sqi.net/img/categories_v2/food/turkish_", "suffix": ".png"}, "primary": true}], "photos": {"count": 0, "groups": []}}, "referralId": "e-0-51bdbb40498edb2f294e4d5d-34"}, {"reasons": {"count": 0, "items": [{"summary": "This spot is popular", "type": "general", "reasonName": "globalInteractionReason"}]}, "venue": {"id": "4f57e337e4b0b14569781960", "name": "Hundeauslaufzone A 100", "location": {"address": "Tempelhofer Damm", "lat": 52.47034132875303, "lng": 13.390935479202811, "labeledLatLngs": [{"label": "display", "lat": 52.47034132875303, "lng": 13.390935479202811}], "distance": 511, "postalCode": "12099", "cc": "DE", "city": "Berlin", "state": "Berlin", "country": "Deutschland", "formattedAddress": ["Tempelhofer Damm", "12099 Berlin", "Deutschland"]}, "categories": [{"id": "4bf58dd8d48988d1e5941735", "name": "Dog Run", "pluralName": "Dog Runs", "shortName": "Dog Run", "icon": {"prefix": "https://ss3.4sqi.net/img/categories_v2/parks_outdoors/dogrun_", "suffix": ".png"}, "primary": true}], "photos": {"count": 0, "groups": []}}, "referralId": "e-0-4f57e337e4b0b14569781960-35"}, {"reasons": {"count": 0, "items": [{"summary": "This spot is popular", "type": "general", "reasonName": "globalInteractionReason"}]}, "venue": {"id": "4b238fb6f964a520c25624e3", "name": "Galeria Karstadt Kaufhof", "location": {"address": "Tempelhofer Damm 191", "crossStreet": "Kaiserin Augusta Str.", "lat": 52.45976417152396, "lng": 13.384770315342202, "labeledLatLngs": [{"label": "display", "lat": 52.45976417152396, "lng": 13.384770315342202}], "distance": 740, "postalCode": "12099", "cc": "DE", "city": "Berlin", "state": "Berlin", "country": "Deutschland", "formattedAddress": ["Tempelhofer Damm 191 (Kaiserin Augusta Str.)", "12099 Berlin", "Deutschland"]}, "categories": [{"id": "4bf58dd8d48988d1f6941735", "name": "Department Store", "pluralName": "Department Stores", "shortName": "Department Store", "icon": {"prefix": "https://ss3.4sqi.net/img/categories_v2/shops/departmentstore_", "suffix": ".png"}, "primary": true}], "photos": {"count": 0, "groups": []}}, "referralId": "e-0-4b238fb6f964a520c25624e3-36"}, {"reasons": {"count": 0, "items": [{"summary": "This spot is popular", "type": "general", "reasonName": "globalInteractionReason"}]}, "venue": {"id": "576077fd498e0ceed9d825d5", "name": "H S+U Tempelhof", "location": {"lat": 52.471027, "lng": 13.385797, "labeledLatLngs": [{"label": "display", "lat": 52.471027, "lng": 13.385797}], "distance": 561, "cc": "DE", "city": "Berlin", "state": "Berlin", "country": "Deutschland", "formattedAddress": ["Berlin", "Deutschland"]}, "categories": [{"id": "52f2ab2ebcbc57f1066b8b4f", "name": "Bus Stop", "pluralName": "Bus Stops", "shortName": "Bus Stop", "icon": {"prefix": "https://ss3.4sqi.net/img/categories_v2/travel/busstation_", "suffix": ".png"}, "primary": true}], "photos": {"count": 0, "groups": []}}, "referralId": "e-0-576077fd498e0ceed9d825d5-37"}, {"reasons": {"count": 0, "items": [{"summary": "This spot is popular", "type": "general", "reasonName": "globalInteractionReason"}]}, "venue": {"id": "4fb9084ae4b07bf810cff605", "name": "Blue Eiscafe", "location": {"address": "Tempelhofer Damm 104", "lat": 52.47119766080599, "lng": 13.385276596663465, "labeledLatLngs": [{"label": "display", "lat": 52.47119766080599, "lng": 13.385276596663465}], "distance": 588, "cc": "DE", "city": "Berlin", "state": "Berlin", "country": "Deutschland", "formattedAddress": ["Tempelhofer Damm 104", "Berlin", "Deutschland"]}, "categories": [{"id": "4bf58dd8d48988d1c9941735", "name": "Ice Cream Shop", "pluralName": "Ice Cream Shops", "shortName": "Ice Cream", "icon": {"prefix": "https://ss3.4sqi.net/img/categories_v2/food/icecream_", "suffix": ".png"}, "primary": true}], "photos": {"count": 0, "groups": []}}, "referralId": "e-0-4fb9084ae4b07bf810cff605-38"}, {"reasons": {"count": 0, "items": [{"summary": "This spot is popular", "type": "general", "reasonName": "globalInteractionReason"}]}, "venue": {"id": "50266b77e4b0a90de22ec6c8", "name": "Grillplatz West", "location": {"address": "near A100", "crossStreet": "Tempelhofer Damm", "lat": 52.47012885153753, "lng": 13.393793106079102, "labeledLatLngs": [{"label": "display", "lat": 52.47012885153753, "lng": 13.393793106079102}], "distance": 598, "postalCode": "12099", "cc": "DE", "city": "Berlin", "state": "Berlin", "country": "Deutschland", "formattedAddress": ["near A100 (Tempelhofer Damm)", "12099 Berlin", "Deutschland"]}, "categories": [{"id": "4d954b16a243a5684b65b473", "name": "Rest Area", "pluralName": "Rest Areas", "shortName": "Rest Areas", "icon": {"prefix": "https://ss3.4sqi.net/img/categories_v2/travel/restarea_", "suffix": ".png"}, "primary": true}], "photos": {"count": 0, "groups": []}}, "referralId": "e-0-50266b77e4b0a90de22ec6c8-39"}, {"reasons": {"count": 0, "items": [{"summary": "This spot is popular", "type": "general", "reasonName": "globalInteractionReason"}]}, "venue": {"id": "53b7e73a498efbd69a920b1f", "name": "Getr\u00e4nke Hoffmann", "location": {"address": "Manteuffelstr. 71", "crossStreet": "Berlinickeplatz", "lat": 52.466799575393665, "lng": 13.378657533152591, "labeledLatLngs": [{"label": "display", "lat": 52.466799575393665, "lng": 13.378657533152591}], "distance": 628, "postalCode": "12103", "cc": "DE", "city": "Berlin", "state": "Berlin", "country": "Deutschland", "formattedAddress": ["Manteuffelstr. 71 (Berlinickeplatz)", "12103 Berlin", "Deutschland"]}, "categories": [{"id": "4bf58dd8d48988d186941735", "name": "Liquor Store", "pluralName": "Liquor Stores", "shortName": "Liquor Store", "icon": {"prefix": "https://ss3.4sqi.net/img/categories_v2/shops/food_liquor_", "suffix": ".png"}, "primary": true}], "photos": {"count": 0, "groups": []}}, "referralId": "e-0-53b7e73a498efbd69a920b1f-40"}, {"reasons": {"count": 0, "items": [{"summary": "This spot is popular", "type": "general", "reasonName": "globalInteractionReason"}]}, "venue": {"id": "4da19d80b3e7236aec0d0d79", "name": "Alte Dorfecke", "location": {"address": "Alt-Tempelhof 61", "lat": 52.46604133809372, "lng": 13.378073419537708, "labeledLatLngs": [{"label": "display", "lat": 52.46604133809372, "lng": 13.378073419537708}], "distance": 663, "cc": "DE", "city": "Berlin", "state": "Berlin", "country": "Deutschland", "formattedAddress": ["Alt-Tempelhof 61", "Berlin", "Deutschland"]}, "categories": [{"id": "4bf58dd8d48988d10d941735", "name": "German Restaurant", "pluralName": "German Restaurants", "shortName": "German", "icon": {"prefix": "https://ss3.4sqi.net/img/categories_v2/food/german_", "suffix": ".png"}, "primary": true}], "photos": {"count": 0, "groups": []}}, "referralId": "e-0-4da19d80b3e7236aec0d0d79-41"}, {"reasons": {"count": 0, "items": [{"summary": "This spot is popular", "type": "general", "reasonName": "globalInteractionReason"}]}, "venue": {"id": "4e21f4a6aeb702639535c458", "name": "Packstation 124", "location": {"address": "Manteuffelstr. 71", "lat": 52.46638067881119, "lng": 13.378035947764912, "labeledLatLngs": [{"label": "display", "lat": 52.46638067881119, "lng": 13.378035947764912}], "distance": 666, "postalCode": "12103", "cc": "DE", "city": "Berlin", "state": "Berlin", "country": "Deutschland", "formattedAddress": ["Manteuffelstr. 71", "12103 Berlin", "Deutschland"]}, "categories": [{"id": "52f2ab2ebcbc57f1066b8b1f", "name": "Shipping Store", "pluralName": "Shipping Stores", "shortName": "Shipping Store", "icon": {"prefix": "https://ss3.4sqi.net/img/categories_v2/shops/default_", "suffix": ".png"}, "primary": true}], "photos": {"count": 0, "groups": []}}, "referralId": "e-0-4e21f4a6aeb702639535c458-42"}, {"reasons": {"count": 0, "items": [{"summary": "This spot is popular", "type": "general", "reasonName": "globalInteractionReason"}]}, "venue": {"id": "5724eb30498e6bd677c11eb7", "name": "Berlinickeplatz", "location": {"lat": 52.46609218934821, "lng": 13.377981393264994, "labeledLatLngs": [{"label": "display", "lat": 52.46609218934821, "lng": 13.377981393264994}], "distance": 669, "cc": "DE", "city": "Alt-Tempelhof", "state": "Berlin", "country": "Deutschland", "formattedAddress": ["Berlin, Alt-Tempelhof", "Deutschland"]}, "categories": [{"id": "4bf58dd8d48988d164941735", "name": "Plaza", "pluralName": "Plazas", "shortName": "Plaza", "icon": {"prefix": "https://ss3.4sqi.net/img/categories_v2/parks_outdoors/plaza_", "suffix": ".png"}, "primary": true}], "photos": {"count": 0, "groups": []}}, "referralId": "e-0-5724eb30498e6bd677c11eb7-43"}, {"reasons": {"count": 0, "items": [{"summary": "This spot is popular", "type": "general", "reasonName": "globalInteractionReason"}]}, "venue": {"id": "53578f4a498e439daf301ec4", "name": "Segway Tempelhofer Feld", "location": {"address": "Tempelhofer Damm", "lat": 52.472259450646575, "lng": 13.387484550476074, "labeledLatLngs": [{"label": "display", "lat": 52.472259450646575, "lng": 13.387484550476074}], "distance": 680, "cc": "DE", "city": "Berlin", "state": "Berlin", "country": "Deutschland", "formattedAddress": ["Tempelhofer Damm", "Berlin", "Deutschland"]}, "categories": [{"id": "56aa371be4b08b9a8d573520", "name": "Tour Provider", "pluralName": "Tour Providers", "shortName": "Tour Provider", "icon": {"prefix": "https://ss3.4sqi.net/img/categories_v2/arts_entertainment/default_", "suffix": ".png"}, "primary": true}], "photos": {"count": 0, "groups": []}}, "referralId": "e-0-53578f4a498e439daf301ec4-44"}, {"reasons": {"count": 0, "items": [{"summary": "This spot is popular", "type": "general", "reasonName": "globalInteractionReason"}]}, "venue": {"id": "500e9842e4b048366a3ee924", "name": "Kirsch & Karamell", "location": {"address": "Manteuffelstr. 1 - 2", "lat": 52.466168799767125, "lng": 13.37754453767474, "labeledLatLngs": [{"label": "display", "lat": 52.466168799767125, "lng": 13.37754453767474}], "distance": 699, "postalCode": "12103", "cc": "DE", "city": "Berlin", "state": "Berlin", "country": "Deutschland", "formattedAddress": ["Manteuffelstr. 1 - 2", "12103 Berlin", "Deutschland"]}, "categories": [{"id": "4bf58dd8d48988d16a941735", "name": "Bakery", "pluralName": "Bakeries", "shortName": "Bakery", "icon": {"prefix": "https://ss3.4sqi.net/img/categories_v2/food/bakery_", "suffix": ".png"}, "primary": true}], "photos": {"count": 0, "groups": []}}, "referralId": "e-0-500e9842e4b048366a3ee924-45"}, {"reasons": {"count": 0, "items": [{"summary": "This spot is popular", "type": "general", "reasonName": "globalInteractionReason"}]}, "venue": {"id": "50b10d52e4b01d0e2bc214de", "name": "Bose Eck", "location": {"address": "Manteuffelstr. 59", "lat": 52.4627359, "lng": 13.3773627, "labeledLatLngs": [{"label": "display", "lat": 52.4627359, "lng": 13.3773627}], "distance": 806, "postalCode": "12103", "cc": "DE", "city": "Berlin", "state": "Berlin", "country": "Deutschland", "formattedAddress": ["Manteuffelstr. 59", "12103 Berlin", "Deutschland"]}, "categories": [{"id": "4bf58dd8d48988d11b941735", "name": "Pub", "pluralName": "Pubs", "shortName": "Pub", "icon": {"prefix": "https://ss3.4sqi.net/img/categories_v2/nightlife/pub_", "suffix": ".png"}, "primary": true}], "photos": {"count": 0, "groups": []}, "venuePage": {"id": "565695399"}}, "referralId": "e-0-50b10d52e4b01d0e2bc214de-46"}, {"reasons": {"count": 0, "items": [{"summary": "This spot is popular", "type": "general", "reasonName": "globalInteractionReason"}]}, "venue": {"id": "5022a03fe4b02c44b5c15fcf", "name": "Netto Marken-Discount", "location": {"address": "Manteuffelstr. 8", "lat": 52.46444491, "lng": 13.37626645, "labeledLatLngs": [{"label": "display", "lat": 52.46444491, "lng": 13.37626645}], "distance": 808, "postalCode": "12103", "cc": "DE", "city": "Berlin", "state": "Berlin", "country": "Deutschland", "formattedAddress": ["Manteuffelstr. 8", "12103 Berlin", "Deutschland"]}, "categories": [{"id": "52f2ab2ebcbc57f1066b8b46", "name": "Supermarket", "pluralName": "Supermarkets", "shortName": "Supermarket", "icon": {"prefix": "https://ss3.4sqi.net/img/categories_v2/shops/food_grocery_", "suffix": ".png"}, "primary": true}], "photos": {"count": 0, "groups": []}, "venuePage": {"id": "537781607"}}, "referralId": "e-0-5022a03fe4b02c44b5c15fcf-47"}, {"reasons": {"count": 0, "items": [{"summary": "This spot is popular", "type": "general", "reasonName": "globalInteractionReason"}]}, "venue": {"id": "4b487facf964a520454e26e3", "name": "K\u00fcchen Aktuell", "location": {"address": "Sch\u00f6neberger Str. 8-9", "lat": 52.468197781406005, "lng": 13.375850939761738, "labeledLatLngs": [{"label": "display", "lat": 52.468197781406005, "lng": 13.375850939761738}], "distance": 845, "postalCode": "12103", "cc": "DE", "city": "Berlin", "state": "Berlin", "country": "Deutschland", "formattedAddress": ["Sch\u00f6neberger Str. 8-9", "12103 Berlin", "Deutschland"]}, "categories": [{"id": "4bf58dd8d48988d1f8941735", "name": "Furniture / Home Store", "pluralName": "Furniture / Home Stores", "shortName": "Furniture / Home", "icon": {"prefix": "https://ss3.4sqi.net/img/categories_v2/shops/furniture_", "suffix": ".png"}, "primary": true}], "photos": {"count": 0, "groups": []}, "venuePage": {"id": "466799608"}}, "referralId": "e-0-4b487facf964a520454e26e3-48"}, {"reasons": {"count": 0, "items": [{"summary": "This spot is popular", "type": "general", "reasonName": "globalInteractionReason"}]}, "venue": {"id": "56e44089cd102122ace3bfa7", "name": "ALDI NORD", "location": {"address": "Tempelhofer Damm 200", "lat": 52.45860360918339, "lng": 13.38344949387142, "labeledLatLngs": [{"label": "display", "lat": 52.45860360918339, "lng": 13.38344949387142}], "distance": 891, "cc": "DE", "country": "Deutschland", "formattedAddress": ["Tempelhofer Damm 200", "Deutschland"]}, "categories": [{"id": "52f2ab2ebcbc57f1066b8b46", "name": "Supermarket", "pluralName": "Supermarkets", "shortName": "Supermarket", "icon": {"prefix": "https://ss3.4sqi.net/img/categories_v2/shops/food_grocery_", "suffix": ".png"}, "primary": true}], "photos": {"count": 0, "groups": []}}, "referralId": "e-0-56e44089cd102122ace3bfa7-49"}, {"reasons": {"count": 0, "items": [{"summary": "This spot is popular", "type": "general", "reasonName": "globalInteractionReason"}]}, "venue": {"id": "51546b90e4b0284e3d9446a1", "name": "H Oberlandstra\u00dfe / Germaniastra\u00dfe", "location": {"address": "Oberlandstr.", "crossStreet": "Komturstr.", "lat": 52.46373290173249, "lng": 13.400668879770917, "labeledLatLngs": [{"label": "display", "lat": 52.46373290173249, "lng": 13.400668879770917}], "distance": 909, "postalCode": "12099", "cc": "DE", "city": "Berlin", "state": "Berlin", "country": "Deutschland", "formattedAddress": ["Oberlandstr. (Komturstr.)", "12099 Berlin", "Deutschland"]}, "categories": [{"id": "52f2ab2ebcbc57f1066b8b4f", "name": "Bus Stop", "pluralName": "Bus Stops", "shortName": "Bus Stop", "icon": {"prefix": "https://ss3.4sqi.net/img/categories_v2/travel/busstation_", "suffix": ".png"}, "primary": true}], "photos": {"count": 0, "groups": []}}, "referralId": "e-0-51546b90e4b0284e3d9446a1-50"}, {"reasons": {"count": 0, "items": [{"summary": "This spot is popular", "type": "general", "reasonName": "globalInteractionReason"}]}, "venue": {"id": "5295905a498e793ddffb5a02", "name": "H Albrechtstra\u00dfe / Manteuffelstra\u00dfe", "location": {"address": "Manteuffelstr.", "crossStreet": "Albrechtstr.", "lat": 52.46128730137515, "lng": 13.376835928957854, "labeledLatLngs": [{"label": "display", "lat": 52.46128730137515, "lng": 13.376835928957854}], "distance": 922, "postalCode": "12103", "cc": "DE", "city": "Berlin", "state": "Berlin", "country": "Deutschland", "formattedAddress": ["Manteuffelstr. (Albrechtstr.)", "12103 Berlin", "Deutschland"]}, "categories": [{"id": "52f2ab2ebcbc57f1066b8b4f", "name": "Bus Stop", "pluralName": "Bus Stops", "shortName": "Bus Stop", "icon": {"prefix": "https://ss3.4sqi.net/img/categories_v2/travel/busstation_", "suffix": ".png"}, "primary": true}], "photos": {"count": 0, "groups": []}}, "referralId": "e-0-5295905a498e793ddffb5a02-51"}, {"reasons": {"count": 0, "items": [{"summary": "This spot is popular", "type": "general", "reasonName": "globalInteractionReason"}]}, "venue": {"id": "50ba2f0345b0a01fd31078ff", "name": "NORMA", "location": {"address": "Friedrich-Wilhelm-Str. 78", "lat": 52.45813413769081, "lng": 13.383203744888306, "labeledLatLngs": [{"label": "display", "lat": 52.45813413769081, "lng": 13.383203744888306}], "distance": 946, "postalCode": "12103", "cc": "DE", "city": "Berlin", "state": "Berlin", "country": "Deutschland", "formattedAddress": ["Friedrich-Wilhelm-Str. 78", "12103 Berlin", "Deutschland"]}, "categories": [{"id": "52f2ab2ebcbc57f1066b8b46", "name": "Supermarket", "pluralName": "Supermarkets", "shortName": "Supermarket", "icon": {"prefix": "https://ss3.4sqi.net/img/categories_v2/shops/food_grocery_", "suffix": ".png"}, "primary": true}], "photos": {"count": 0, "groups": []}}, "referralId": "e-0-50ba2f0345b0a01fd31078ff-52"}, {"reasons": {"count": 0, "items": [{"summary": "This spot is popular", "type": "general", "reasonName": "globalInteractionReason"}]}, "venue": {"id": "598251d49be5227440964531", "name": "Topkapi", "location": {"address": "Sch\u00f6neberger Strasse 11", "lat": 52.46882500112899, "lng": 13.374098517420636, "labeledLatLngs": [{"label": "display", "lat": 52.46882500112899, "lng": 13.374098517420636}], "distance": 979, "postalCode": "12103", "cc": "DE", "city": "Berlin", "state": "Berlin", "country": "Deutschland", "formattedAddress": ["Sch\u00f6neberger Strasse 11", "12103 Berlin-Tempelhof", "Deutschland"]}, "categories": [{"id": "4bf58dd8d48988d119941735", "name": "Hookah Bar", "pluralName": "Hookah Bars", "shortName": "Hookah Bar", "icon": {"prefix": "https://ss3.4sqi.net/img/categories_v2/nightlife/hookahbar_", "suffix": ".png"}, "primary": true}], "photos": {"count": 0, "groups": []}}, "referralId": "e-0-598251d49be5227440964531-53"}]