[{"reasons": {"count": 0, "items": [{"summary": "This spot is popular", "type": "general", "reasonName": "globalInteractionReason"}]}, "venue": {"id": "58fddc46d807ee31e4243183", "name": "Nonne & Zwerg", "location": {"address": "Mittenwalderstr. 13", "crossStreet": "F\u00fcrbringerstr", "lat": 52.492640976676846, "lng": 13.396822214937552, "labeledLatLngs": [{"label": "display", "lat": 52.492640976676846, "lng": 13.396822214937552}], "distance": 201, "cc": "DE", "neighborhood": "Urban", "city": "Berlin", "state": "Berlin", "country": "Deutschland", "formattedAddress": ["Mittenwalderstr. 13 (F\u00fcrbringerstr)", "Berlin", "Deutschland"]}, "categories": [{"id": "4bf58dd8d48988d1c0941735", "name": "Mediterranean Restaurant", "pluralName": "Mediterranean Restaurants", "shortName": "Mediterranean", "icon": {"prefix": "https://ss3.4sqi.net/img/categories_v2/food/mediterranean_", "suffix": ".png"}, "primary": true}], "photos": {"count": 0, "groups": []}, "venuePage": {"id": "569970632"}}, "referralId": "e-0-58fddc46d807ee31e4243183-0"}, {"reasons": {"count": 0, "items": [{"summary": "This spot is popular", "type": "general", "reasonName": "globalInteractionReason"}]}, "venue": {"id": "50d5f00e498e6fa631edd95c", "name": "LIMONADIER", "location": {"address": "Nostitzstr. 12", "lat": 52.491849906075345, "lng": 13.390709196418099, "labeledLatLngs": [{"label": "display", "lat": 52.491849906075345, "lng": 13.390709196418099}], "distance": 226, "postalCode": "10961", "cc": "DE", "city": "Berlin", "state": "Berlin", "country": "Deutschland", "formattedAddress": ["Nostitzstr. 12", "10961 Berlin", "Deutschland"]}, "categories": [{"id": "4bf58dd8d48988d11e941735", "name": "Cocktail Bar", "pluralName": "Cocktail Bars", "shortName": "Cocktail", "icon": {"prefix": "https://ss3.4sqi.net/img/categories_v2/nightlife/cocktails_", "suffix": ".png"}, "primary": true}], "photos": {"count": 0, "groups": []}, "venuePage": {"id": "57660155"}}, "referralId": "e-0-50d5f00e498e6fa631edd95c-1"}, {"reasons": {"count": 0, "items": [{"summary": "This spot is popular", "type": "general", "reasonName": "globalInteractionReason"}]}, "venue": {"id": "4adcda91f964a5207b4b21e3", "name": "Space Hall", "location": {"address": "Zossener Str. 33", "lat": 52.49074568853362, "lng": 13.39476826059005, "labeledLatLngs": [{"label": "display", "lat": 52.49074568853362, "lng": 13.39476826059005}], "distance": 148, "postalCode": "10961", "cc": "DE", "city": "Berlin", "state": "Berlin", "country": "Deutschland", "formattedAddress": ["Zossener Str. 33", "10961 Berlin", "Deutschland"]}, "categories": [{"id": "4bf58dd8d48988d10d951735", "name": "Record Shop", "pluralName": "Record Shops", "shortName": "Record Shop", "icon": {"prefix": "https://ss3.4sqi.net/img/categories_v2/shops/record_shop_", "suffix": ".png"}, "primary": true}], "photos": {"count": 0, "groups": []}}, "referralId": "e-0-4adcda91f964a5207b4b21e3-2"}, {"reasons": {"count": 0, "items": [{"summary": "This spot is popular", "type": "general", "reasonName": "globalInteractionReason"}]}, "venue": {"id": "4eea5e33a17ce863c4d4c3d3", "name": "Chapter One", "location": {"address": "Mittenwalder Str. 30", "lat": 52.48976163897703, "lng": 13.395976072085904, "labeledLatLngs": [{"label": "display", "lat": 52.48976163897703, "lng": 13.395976072085904}], "distance": 282, "postalCode": "10961", "cc": "DE", "city": "Berlin", "state": "Berlin", "country": "Deutschland", "formattedAddress": ["Mittenwalder Str. 30", "10961 Berlin", "Deutschland"]}, "categories": [{"id": "4bf58dd8d48988d1e0931735", "name": "Coffee Shop", "pluralName": "Coffee Shops", "shortName": "Coffee Shop", "icon": {"prefix": "https://ss3.4sqi.net/img/categories_v2/food/coffeeshop_", "suffix": ".png"}, "primary": true}], "photos": {"count": 0, "groups": []}}, "referralId": "e-0-4eea5e33a17ce863c4d4c3d3-3"}, {"reasons": {"count": 0, "items": [{"summary": "This spot is popular", "type": "general", "reasonName": "globalInteractionReason"}]}, "venue": {"id": "4adf5c28f964a520dd7921e3", "name": "Cuccuma", "location": {"address": "Zossener Str. 34", "lat": 52.490682082409705, "lng": 13.39419235367524, "labeledLatLngs": [{"label": "display", "lat": 52.490682082409705, "lng": 13.39419235367524}], "distance": 147, "postalCode": "10961", "cc": "DE", "neighborhood": "Kreuzberg", "city": "Berlin", "state": "Berlin", "country": "Deutschland", "formattedAddress": ["Zossener Str. 34", "10961 Berlin", "Deutschland"]}, "categories": [{"id": "4bf58dd8d48988d1e0931735", "name": "Coffee Shop", "pluralName": "Coffee Shops", "shortName": "Coffee Shop", "icon": {"prefix": "https://ss3.4sqi.net/img/categories_v2/food/coffeeshop_", "suffix": ".png"}, "primary": true}], "photos": {"count": 0, "groups": []}}, "referralId": "e-0-4adf5c28f964a520dd7921e3-4"}, {"reasons": {"count": 0, "items": [{"summary": "This spot is popular", "type": "general", "reasonName": "globalInteractionReason"}]}, "venue": {"id": "4f4a8f55e4b0927adaf51ffd", "name": "Maselli Ristorante", "location": {"address": "Nostitzstra\u00dfe 49", "lat": 52.4917613598637, "lng": 13.390707253328141, "labeledLatLngs": [{"label": "display", "lat": 52.4917613598637, "lng": 13.390707253328141}], "distance": 227, "postalCode": "10961", "cc": "DE", "city": "Berlin", "state": "Berlin", "country": "Deutschland", "formattedAddress": ["Nostitzstra\u00dfe 49", "10961 Berlin", "Deutschland"]}, "categories": [{"id": "4bf58dd8d48988d110941735", "name": "Italian Restaurant", "pluralName": "Italian Restaurants", "shortName": "Italian", "icon": {"prefix": "https://ss3.4sqi.net/img/categories_v2/food/italian_", "suffix": ".png"}, "primary": true}], "photos": {"count": 0, "groups": []}}, "referralId": "e-0-4f4a8f55e4b0927adaf51ffd-5"}, {"reasons": {"count": 0, "items": [{"summary": "This spot is popular", "type": "general", "reasonName": "globalInteractionReason"}]}, "venue": {"id": "4b1cf22bf964a520a40a24e3", "name": "Molinari & Ko", "location": {"address": "Riemannstr. 13", "crossStreet": "Solmstr.", "lat": 52.490348, "lng": 13.392124, "labeledLatLngs": [{"label": "display", "lat": 52.490348, "lng": 13.392124}], "distance": 225, "postalCode": "10961", "cc": "DE", "city": "Berlin", "state": "Berlin", "country": "Deutschland", "formattedAddress": ["Riemannstr. 13 (Solmstr.)", "10961 Berlin", "Deutschland"]}, "categories": [{"id": "4bf58dd8d48988d110941735", "name": "Italian Restaurant", "pluralName": "Italian Restaurants", "shortName": "Italian", "icon": {"prefix": "https://ss3.4sqi.net/img/categories_v2/food/italian_", "suffix": ".png"}, "primary": true}], "photos": {"count": 0, "groups": []}}, "referralId": "e-0-4b1cf22bf964a520a40a24e3-6"}, {"reasons": {"count": 0, "items": [{"summary": "This spot is popular", "type": "general", "reasonName": "globalInteractionReason"}]}, "venue": {"id": "5280da7f11d2e76e8cb80980", "name": "Tutti Sudanesische K\u00fcche", "location": {"address": "Zossener Stra\u00dfe 17", "lat": 52.4909315584266, "lng": 13.394228026403038, "labeledLatLngs": [{"label": "display", "lat": 52.4909315584266, "lng": 13.394228026403038}], "distance": 120, "postalCode": "10961", "cc": "DE", "city": "Berlin", "state": "Berlin", "country": "Deutschland", "formattedAddress": ["Zossener Stra\u00dfe 17", "10961 Berlin", "Deutschland"]}, "categories": [{"id": "4bf58dd8d48988d1c8941735", "name": "African Restaurant", "pluralName": "African Restaurants", "shortName": "African", "icon": {"prefix": "https://ss3.4sqi.net/img/categories_v2/food/african_", "suffix": ".png"}, "primary": true}], "photos": {"count": 0, "groups": []}}, "referralId": "e-0-5280da7f11d2e76e8cb80980-7"}, {"reasons": {"count": 0, "items": [{"summary": "This spot is popular", "type": "general", "reasonName": "globalInteractionReason"}]}, "venue": {"id": "4c30d29f3896e21e4a1be690", "name": "Ocakbasi Holzkohlengrill Restaurant", "location": {"address": "F\u00fcrbringerstra\u00dfe 6", "crossStreet": "Zossener Stra\u00dfe", "lat": 52.49304296411288, "lng": 13.394862784168467, "labeledLatLngs": [{"label": "display", "lat": 52.49304296411288, "lng": 13.394862784168467}], "distance": 128, "postalCode": "10961", "cc": "DE", "neighborhood": "Urban", "city": "Berlin", "state": "Berlin", "country": "Deutschland", "formattedAddress": ["F\u00fcrbringerstra\u00dfe 6 (Zossener Stra\u00dfe)", "10961 Berlin", "Deutschland"]}, "categories": [{"id": "4bf58dd8d48988d1c0941735", "name": "Mediterranean Restaurant", "pluralName": "Mediterranean Restaurants", "shortName": "Mediterranean", "icon": {"prefix": "https://ss3.4sqi.net/img/categories_v2/food/mediterranean_", "suffix": ".png"}, "primary": true}], "photos": {"count": 0, "groups": []}}, "referralId": "e-0-4c30d29f3896e21e4a1be690-8"}, {"reasons": {"count": 0, "items": [{"summary": "This spot is popular", "type": "general", "reasonName": "globalInteractionReason"}]}, "venue": {"id": "4adcda91f964a520744b21e3", "name": "Marheineke Markthalle", "location": {"address": "Marheinekeplatz 15", "lat": 52.48940505663732, "lng": 13.394415378570557, "labeledLatLngs": [{"label": "display", "lat": 52.48940505663732, "lng": 13.394415378570557}], "distance": 290, "postalCode": "10961", "cc": "DE", "city": "Berlin", "state": "Berlin", "country": "Deutschland", "formattedAddress": ["Marheinekeplatz 15", "10961 Berlin", "Deutschland"]}, "categories": [{"id": "50be8ee891d4fa8dcc7199a7", "name": "Market", "pluralName": "Markets", "shortName": "Market", "icon": {"prefix": "https://ss3.4sqi.net/img/categories_v2/shops/market_", "suffix": ".png"}, "primary": true}], "photos": {"count": 0, "groups": []}}, "referralId": "e-0-4adcda91f964a520744b21e3-9"}, {"reasons": {"count": 0, "items": [{"summary": "This spot is popular", "type": "general", "reasonName": "globalInteractionReason"}]}, "venue": {"id": "56f146ae498e0070cc29e1d8", "name": "Umami", "location": {"address": "Bergmannstr. 97", "lat": 52.48958891456395, "lng": 13.3909700267607, "labeledLatLngs": [{"label": "display", "lat": 52.48958891456395, "lng": 13.3909700267607}], "distance": 340, "postalCode": "10961", "cc": "DE", "city": "Berlin", "state": "Berlin", "country": "Deutschland", "formattedAddress": ["Bergmannstr. 97", "10961 Berlin", "Deutschland"]}, "categories": [{"id": "4bf58dd8d48988d14a941735", "name": "Vietnamese Restaurant", "pluralName": "Vietnamese Restaurants", "shortName": "Vietnamese", "icon": {"prefix": "https://ss3.4sqi.net/img/categories_v2/food/vietnamese_", "suffix": ".png"}, "primary": true}], "photos": {"count": 0, "groups": []}}, "referralId": "e-0-56f146ae498e0070cc29e1d8-10"}, {"reasons": {"count": 0, "items": [{"summary": "This spot is popular", "type": "general", "reasonName": "globalInteractionReason"}]}, "venue": {"id": "4cb88ce67148f04de9d3d0ab", "name": "Hostaria Del Monte Croce", "location": {"address": "Mittenwalderstrasse 6", "crossStreet": "HH", "lat": 52.494132673012686, "lng": 13.39634082324524, "labeledLatLngs": [{"label": "display", "lat": 52.494132673012686, "lng": 13.39634082324524}], "distance": 283, "postalCode": "10961", "cc": "DE", "city": "Berlin", "state": "Berlin", "country": "Deutschland", "formattedAddress": ["Mittenwalderstrasse 6 (HH)", "10961 Berlin", "Deutschland"]}, "categories": [{"id": "4bf58dd8d48988d110941735", "name": "Italian Restaurant", "pluralName": "Italian Restaurants", "shortName": "Italian", "icon": {"prefix": "https://ss3.4sqi.net/img/categories_v2/food/italian_", "suffix": ".png"}, "primary": true}], "photos": {"count": 0, "groups": []}}, "referralId": "e-0-4cb88ce67148f04de9d3d0ab-11"}, {"reasons": {"count": 0, "items": [{"summary": "This spot is popular", "type": "general", "reasonName": "globalInteractionReason"}]}, "venue": {"id": "4ae71f7bf964a520a3a821e3", "name": "Otherland Buchhandlung", "location": {"address": "Bergmannstr. 25", "lat": 52.488994541767084, "lng": 13.394460533656124, "labeledLatLngs": [{"label": "display", "lat": 52.488994541767084, "lng": 13.394460533656124}], "distance": 336, "postalCode": "10961", "cc": "DE", "city": "Berlin", "state": "Berlin", "country": "Deutschland", "formattedAddress": ["Bergmannstr. 25", "10961 Berlin", "Deutschland"]}, "categories": [{"id": "4bf58dd8d48988d114951735", "name": "Bookstore", "pluralName": "Bookstores", "shortName": "Bookstore", "icon": {"prefix": "https://ss3.4sqi.net/img/categories_v2/shops/bookstore_", "suffix": ".png"}, "primary": true}], "photos": {"count": 0, "groups": []}}, "referralId": "e-0-4ae71f7bf964a520a3a821e3-12"}, {"reasons": {"count": 0, "items": [{"summary": "This spot is popular", "type": "general", "reasonName": "globalInteractionReason"}]}, "venue": {"id": "551ecd4e498e52f76b5f4310", "name": "Antonello's Cevicheria & Street Food", "location": {"address": "Nostitzstr. 22", "lat": 52.4904993, "lng": 13.3901334, "labeledLatLngs": [{"label": "display", "lat": 52.4904993, "lng": 13.3901334}], "distance": 313, "postalCode": "10961", "cc": "DE", "city": "Berlin", "state": "Berlin", "country": "Deutschland", "formattedAddress": ["Nostitzstr. 22", "10961 Berlin", "Deutschland"]}, "categories": [{"id": "4bf58dd8d48988d110941735", "name": "Italian Restaurant", "pluralName": "Italian Restaurants", "shortName": "Italian", "icon": {"prefix": "https://ss3.4sqi.net/img/categories_v2/food/italian_", "suffix": ".png"}, "primary": true}], "photos": {"count": 0, "groups": []}, "venuePage": {"id": "506211227"}}, "referralId": "e-0-551ecd4e498e52f76b5f4310-13"}, {"reasons": {"count": 0, "items": [{"summary": "This spot is popular", "type": "general", "reasonName": "globalInteractionReason"}]}, "venue": {"id": "5313a8b6498e0d6cc1f0099b", "name": "Les Epicuriens", "location": {"address": "Marheinekeplatz 15", "lat": 52.48934821075931, "lng": 13.39480966463374, "labeledLatLngs": [{"label": "display", "lat": 52.48934821075931, "lng": 13.39480966463374}], "distance": 300, "postalCode": "10961", "cc": "DE", "city": "Berlin", "state": "Berlin", "country": "Deutschland", "formattedAddress": ["Marheinekeplatz 15", "10961 Berlin", "Deutschland"]}, "categories": [{"id": "4bf58dd8d48988d1f5941735", "name": "Gourmet Shop", "pluralName": "Gourmet Shops", "shortName": "Gourmet", "icon": {"prefix": "https://ss3.4sqi.net/img/categories_v2/shops/food_gourmet_", "suffix": ".png"}, "primary": true}], "photos": {"count": 0, "groups": []}}, "referralId": "e-0-5313a8b6498e0d6cc1f0099b-14"}, {"reasons": {"count": 0, "items": [{"summary": "This spot is popular", "type": "general", "reasonName": "globalInteractionReason"}]}, "venue": {"id": "4b3e628bf964a5204c9c25e3", "name": "p\u00f6rx", "location": {"address": "F\u00fcrbringerstr. 29", "crossStreet": "Zossener Str.", "lat": 52.49323718988039, "lng": 13.395379926630797, "labeledLatLngs": [{"label": "display", "lat": 52.49323718988039, "lng": 13.395379926630797}], "distance": 164, "postalCode": "10961", "cc": "DE", "city": "Berlin", "state": "Berlin", "country": "Deutschland", "formattedAddress": ["F\u00fcrbringerstr. 29 (Zossener Str.)", "10961 Berlin", "Deutschland"]}, "categories": [{"id": "4bf58dd8d48988d116941735", "name": "Bar", "pluralName": "Bars", "shortName": "Bar", "icon": {"prefix": "https://ss3.4sqi.net/img/categories_v2/nightlife/pub_", "suffix": ".png"}, "primary": true}], "photos": {"count": 0, "groups": []}}, "referralId": "e-0-4b3e628bf964a5204c9c25e3-15"}, {"reasons": {"count": 0, "items": [{"summary": "This spot is popular", "type": "general", "reasonName": "globalInteractionReason"}]}, "venue": {"id": "4c2ca3add1a10f47f0baf964", "name": "Le Bretagne", "location": {"address": "Marheinekeplatz 15", "lat": 52.489285579225196, "lng": 13.394530642056624, "labeledLatLngs": [{"label": "display", "lat": 52.489285579225196, "lng": 13.394530642056624}], "distance": 304, "postalCode": "10961", "cc": "DE", "city": "Berlin", "state": "Berlin", "country": "Deutschland", "formattedAddress": ["Marheinekeplatz 15", "10961 Berlin", "Deutschland"]}, "categories": [{"id": "52e81612bcbc57f1066b79f2", "name": "Creperie", "pluralName": "Creperies", "shortName": "Creperie", "icon": {"prefix": "https://ss3.4sqi.net/img/categories_v2/food/creperie_", "suffix": ".png"}, "primary": true}], "photos": {"count": 0, "groups": []}}, "referralId": "e-0-4c2ca3add1a10f47f0baf964-16"}, {"reasons": {"count": 0, "items": [{"summary": "This spot is popular", "type": "general", "reasonName": "globalInteractionReason"}]}, "venue": {"id": "4f89abcfe4b018320604b5e5", "name": "Not Only Riesling", "location": {"address": "Schleiermacherstr. 25", "crossStreet": "Marheinekeplatz", "lat": 52.48920253703286, "lng": 13.39755892753601, "labeledLatLngs": [{"label": "display", "lat": 52.48920253703286, "lng": 13.39755892753601}], "distance": 392, "postalCode": "10961", "cc": "DE", "city": "Berlin", "state": "Berlin", "country": "Deutschland", "formattedAddress": ["Schleiermacherstr. 25 (Marheinekeplatz)", "10961 Berlin", "Deutschland"]}, "categories": [{"id": "4bf58dd8d48988d119951735", "name": "Wine Shop", "pluralName": "Wine Shops", "shortName": "Wine Shop", "icon": {"prefix": "https://ss3.4sqi.net/img/categories_v2/shops/food_wineshop_", "suffix": ".png"}, "primary": true}], "photos": {"count": 0, "groups": []}}, "referralId": "e-0-4f89abcfe4b018320604b5e5-17"}, {"reasons": {"count": 0, "items": [{"summary": "This spot is popular", "type": "general", "reasonName": "globalInteractionReason"}]}, "venue": {"id": "4be33e6db02ec9b69af84ec0", "name": "Zahers", "location": {"address": "Nostritzstr. 38", "crossStreet": "Bergmannstr.", "lat": 52.49004191295156, "lng": 13.390230084332249, "labeledLatLngs": [{"label": "display", "lat": 52.49004191295156, "lng": 13.390230084332249}], "distance": 338, "postalCode": "10961", "cc": "DE", "city": "Berlin", "state": "Berlin", "country": "Deutschland", "formattedAddress": ["Nostritzstr. 38 (Bergmannstr.)", "10961 Berlin", "Deutschland"]}, "categories": [{"id": "4bf58dd8d48988d116941735", "name": "Bar", "pluralName": "Bars", "shortName": "Bar", "icon": {"prefix": "https://ss3.4sqi.net/img/categories_v2/nightlife/pub_", "suffix": ".png"}, "primary": true}], "photos": {"count": 0, "groups": []}}, "referralId": "e-0-4be33e6db02ec9b69af84ec0-18"}, {"reasons": {"count": 0, "items": [{"summary": "This spot is popular", "type": "general", "reasonName": "globalInteractionReason"}]}, "venue": {"id": "4b13ac2df964a5205c9823e3", "name": "Felix Austria", "location": {"address": "Bergmannstr. 26", "crossStreet": "Friesenstr.", "lat": 52.48887589054454, "lng": 13.395026922225952, "labeledLatLngs": [{"label": "display", "lat": 52.48887589054454, "lng": 13.395026922225952}], "distance": 354, "postalCode": "10961", "cc": "DE", "city": "Berlin", "state": "Berlin", "country": "Deutschland", "formattedAddress": ["Bergmannstr. 26 (Friesenstr.)", "10961 Berlin", "Deutschland"]}, "categories": [{"id": "52e81612bcbc57f1066b7a01", "name": "Austrian Restaurant", "pluralName": "Austrian Restaurants", "shortName": "Austrian", "icon": {"prefix": "https://ss3.4sqi.net/img/categories_v2/food/austrian_", "suffix": ".png"}, "primary": true}], "photos": {"count": 0, "groups": []}}, "referralId": "e-0-4b13ac2df964a5205c9823e3-19"}, {"reasons": {"count": 0, "items": [{"summary": "This spot is popular", "type": "general", "reasonName": "globalInteractionReason"}]}, "venue": {"id": "4bcca0b8cc8cd13a8445c1cf", "name": "G wie Goulasch", "location": {"address": "Chamissoplatz 1", "lat": 52.48861059383971, "lng": 13.39067480295791, "labeledLatLngs": [{"label": "display", "lat": 52.48861059383971, "lng": 13.39067480295791}], "distance": 441, "postalCode": "10965", "cc": "DE", "city": "Berlin", "state": "Berlin", "country": "Deutschland", "formattedAddress": ["Chamissoplatz 1", "10965 Berlin", "Deutschland"]}, "categories": [{"id": "4bf58dd8d48988d109941735", "name": "Eastern European Restaurant", "pluralName": "Eastern European Restaurants", "shortName": "Eastern European", "icon": {"prefix": "https://ss3.4sqi.net/img/categories_v2/food/default_", "suffix": ".png"}, "primary": true}], "photos": {"count": 0, "groups": []}}, "referralId": "e-0-4bcca0b8cc8cd13a8445c1cf-20"}, {"reasons": {"count": 0, "items": [{"summary": "This spot is popular", "type": "general", "reasonName": "globalInteractionReason"}]}, "venue": {"id": "4b59e2baf964a5204a9e28e3", "name": "Madang", "location": {"address": "Gneisenaustr. 8", "lat": 52.49233804761638, "lng": 13.390273814294162, "labeledLatLngs": [{"label": "display", "lat": 52.49233804761638, "lng": 13.390273814294162}], "distance": 257, "postalCode": "10961", "cc": "DE", "city": "Berlin", "state": "Berlin", "country": "Deutschland", "formattedAddress": ["Gneisenaustr. 8", "10961 Berlin", "Deutschland"]}, "categories": [{"id": "4bf58dd8d48988d113941735", "name": "Korean Restaurant", "pluralName": "Korean Restaurants", "shortName": "Korean", "icon": {"prefix": "https://ss3.4sqi.net/img/categories_v2/food/korean_", "suffix": ".png"}, "primary": true}], "photos": {"count": 0, "groups": []}}, "referralId": "e-0-4b59e2baf964a5204a9e28e3-21"}, {"reasons": {"count": 0, "items": [{"summary": "This spot is popular", "type": "general", "reasonName": "globalInteractionReason"}]}, "venue": {"id": "5cc2d907286fda003976e32b", "name": "Alsancak Simit Saray\u0131", "location": {"lat": 52.495948, "lng": 13.395356, "labeledLatLngs": [{"label": "display", "lat": 52.495948, "lng": 13.395356}], "distance": 447, "cc": "DE", "city": "Berlin", "state": "Berlin", "country": "Deutschland", "formattedAddress": ["Berlin", "Deutschland"]}, "categories": [{"id": "4f04af1f2fb6e1c99f3db0bb", "name": "Turkish Restaurant", "pluralName": "Turkish Restaurants", "shortName": "Turkish", "icon": {"prefix": "https://ss3.4sqi.net/img/categories_v2/food/turkish_", "suffix": ".png"}, "primary": true}], "photos": {"count": 0, "groups": []}}, "referralId": "e-0-5cc2d907286fda003976e32b-22"}, {"reasons": {"count": 0, "items": [{"summary": "This spot is popular", "type": "general", "reasonName": "globalInteractionReason"}]}, "venue": {"id": "4b3a4c4df964a520056425e3", "name": "Fratelli La Bionda", "location": {"address": "Bergmannstr. 31", "crossStreet": "Heimstr.", "lat": 52.488727, "lng": 13.397342, "labeledLatLngs": [{"label": "display", "lat": 52.488727, "lng": 13.397342}], "distance": 428, "postalCode": "10961", "cc": "DE", "city": "Berlin", "state": "Berlin", "country": "Deutschland", "formattedAddress": ["Bergmannstr. 31 (Heimstr.)", "10961 Berlin", "Deutschland"]}, "categories": [{"id": "4bf58dd8d48988d110941735", "name": "Italian Restaurant", "pluralName": "Italian Restaurants", "shortName": "Italian", "icon": {"prefix": "https://ss3.4sqi.net/img/categories_v2/food/italian_", "suffix": ".png"}, "primary": true}], "photos": {"count": 0, "groups": []}}, "referralId": "e-0-4b3a4c4df964a520056425e3-23"}, {"reasons": {"count": 0, "items": [{"summary": "This spot is popular", "type": "general", "reasonName": "globalInteractionReason"}]}, "venue": {"id": "5718d8e6498e8b6c093b4287", "name": "Soviet Gallery & Cafe", "location": {"address": "Solmsstr. 35", "lat": 52.49070358276367, "lng": 13.392443656921387, "labeledLatLngs": [{"label": "display", "lat": 52.49070358276367, "lng": 13.392443656921387}], "distance": 180, "postalCode": "10961", "cc": "DE", "city": "Berlin", "state": "Berlin", "country": "Deutschland", "formattedAddress": ["Solmsstr. 35", "10961 Berlin", "Deutschland"]}, "categories": [{"id": "4bf58dd8d48988d16d941735", "name": "Caf\u00e9", "pluralName": "Caf\u00e9s", "shortName": "Caf\u00e9", "icon": {"prefix": "https://ss3.4sqi.net/img/categories_v2/food/cafe_", "suffix": ".png"}, "primary": true}], "photos": {"count": 0, "groups": []}, "venuePage": {"id": "199780496"}}, "referralId": "e-0-5718d8e6498e8b6c093b4287-24"}, {"reasons": {"count": 0, "items": [{"summary": "This spot is popular", "type": "general", "reasonName": "globalInteractionReason"}]}, "venue": {"id": "4c25da9b905a0f47b8336260", "name": "Agora", "location": {"address": "Marheinekeplatz 15", "lat": 52.4892697486779, "lng": 13.394526048562826, "labeledLatLngs": [{"label": "display", "lat": 52.4892697486779, "lng": 13.394526048562826}], "distance": 306, "cc": "DE", "city": "Berlin", "state": "Berlin", "country": "Deutschland", "formattedAddress": ["Marheinekeplatz 15", "Berlin", "Deutschland"]}, "categories": [{"id": "4bf58dd8d48988d10e941735", "name": "Greek Restaurant", "pluralName": "Greek Restaurants", "shortName": "Greek", "icon": {"prefix": "https://ss3.4sqi.net/img/categories_v2/food/greek_", "suffix": ".png"}, "primary": true}], "photos": {"count": 0, "groups": []}}, "referralId": "e-0-4c25da9b905a0f47b8336260-25"}, {"reasons": {"count": 0, "items": [{"summary": "This spot is popular", "type": "general", "reasonName": "globalInteractionReason"}]}, "venue": {"id": "4d63cac369d85941c9ad31ca", "name": "Marheinekeplatz", "location": {"address": "Marheinekeplatz", "lat": 52.48925314593806, "lng": 13.395921808344529, "labeledLatLngs": [{"label": "display", "lat": 52.48925314593806, "lng": 13.395921808344529}], "distance": 331, "postalCode": "10961", "cc": "DE", "city": "Berlin", "state": "Berlin", "country": "Deutschland", "formattedAddress": ["Marheinekeplatz", "10961 Berlin", "Deutschland"]}, "categories": [{"id": "4bf58dd8d48988d164941735", "name": "Plaza", "pluralName": "Plazas", "shortName": "Plaza", "icon": {"prefix": "https://ss3.4sqi.net/img/categories_v2/parks_outdoors/plaza_", "suffix": ".png"}, "primary": true}], "photos": {"count": 0, "groups": []}}, "referralId": "e-0-4d63cac369d85941c9ad31ca-26"}, {"reasons": {"count": 0, "items": [{"summary": "This spot is popular", "type": "general", "reasonName": "globalInteractionReason"}]}, "venue": {"id": "4adcda79f964a520ab4621e3", "name": "Barcomi's Kaffeer\u00f6sterei", "location": {"address": "Bergmannstr. 21", "lat": 52.489165679461344, "lng": 13.393431247539324, "labeledLatLngs": [{"label": "display", "lat": 52.489165679461344, "lng": 13.393431247539324}], "distance": 318, "postalCode": "10961", "cc": "DE", "city": "Berlin", "state": "Berlin", "country": "Deutschland", "formattedAddress": ["Bergmannstr. 21", "10961 Berlin", "Deutschland"]}, "categories": [{"id": "5e18993feee47d000759b256", "name": "Coffee Roaster", "pluralName": "Coffee Roasters", "shortName": "Coffee Roaster", "icon": {"prefix": "https://ss3.4sqi.net/img/categories_v2/shops/food_gourmet_", "suffix": ".png"}, "primary": true}], "photos": {"count": 0, "groups": []}}, "referralId": "e-0-4adcda79f964a520ab4621e3-27"}, {"reasons": {"count": 0, "items": [{"summary": "This spot is popular", "type": "general", "reasonName": "globalInteractionReason"}]}, "venue": {"id": "4f1afdb1e4b0b4fde8d31e14", "name": "BOOTSABONG traditionelle Thai Massage", "location": {"address": "Gneisenaustra\u00dfe 111, 10961 Berlin", "lat": 52.49276986119341, "lng": 13.389297639783507, "labeledLatLngs": [{"label": "display", "lat": 52.49276986119341, "lng": 13.389297639783507}], "distance": 332, "postalCode": "10961", "cc": "DE", "city": "Berlin", "state": "Berlin", "country": "Deutschland", "formattedAddress": ["Gneisenaustra\u00dfe 111, 10961 Berlin", "10961 Berlin", "Deutschland"]}, "categories": [{"id": "52f2ab2ebcbc57f1066b8b3c", "name": "Massage Studio", "pluralName": "Massage Studios", "shortName": "Massage Studio", "icon": {"prefix": "https://ss3.4sqi.net/img/categories_v2/shops/spa_", "suffix": ".png"}, "primary": true}], "photos": {"count": 0, "groups": []}}, "referralId": "e-0-4f1afdb1e4b0b4fde8d31e14-28"}, {"reasons": {"count": 0, "items": [{"summary": "This spot is popular", "type": "general", "reasonName": "globalInteractionReason"}]}, "venue": {"id": "4b4e1b5cf964a5206ae126e3", "name": "SUN YOGA Kreuzberg", "location": {"address": "Mehringdamm 33", "crossStreet": "M33-H\u00f6fe,1. Aufgang", "lat": 52.49335421208373, "lng": 13.389555607289163, "labeledLatLngs": [{"label": "display", "lat": 52.49335421208373, "lng": 13.389555607289163}], "distance": 338, "postalCode": "10961", "cc": "DE", "city": "Berlin", "state": "Berlin", "country": "Deutschland", "formattedAddress": ["Mehringdamm 33 (M33-H\u00f6fe,1. Aufgang)", "10961 Berlin", "Deutschland"]}, "categories": [{"id": "4bf58dd8d48988d102941735", "name": "Yoga Studio", "pluralName": "Yoga Studios", "shortName": "Yoga Studio", "icon": {"prefix": "https://ss3.4sqi.net/img/categories_v2/shops/gym_yogastudio_", "suffix": ".png"}, "primary": true}], "photos": {"count": 0, "groups": []}}, "referralId": "e-0-4b4e1b5cf964a5206ae126e3-29"}, {"reasons": {"count": 0, "items": [{"summary": "This spot is popular", "type": "general", "reasonName": "globalInteractionReason"}]}, "venue": {"id": "5bb492f118d43b002cb2cf09", "name": "What a Treat - mad about breakfast", "location": {"address": "Gneisenaustra\u00dfe 94", "lat": 52.49204, "lng": 13.393599, "labeledLatLngs": [{"label": "display", "lat": 52.49204, "lng": 13.393599}], "distance": 30, "postalCode": "10961", "cc": "DE", "city": "Berlin", "state": "Berlin", "country": "Deutschland", "formattedAddress": ["Gneisenaustra\u00dfe 94", "10961 Berlin", "Deutschland"]}, "categories": [{"id": "4bf58dd8d48988d143941735", "name": "Breakfast Spot", "pluralName": "Breakfast Spots", "shortName": "Breakfast", "icon": {"prefix": "https://ss3.4sqi.net/img/categories_v2/food/breakfast_", "suffix": ".png"}, "primary": true}], "photos": {"count": 0, "groups": []}}, "referralId": "e-0-5bb492f118d43b002cb2cf09-30"}, {"reasons": {"count": 0, "items": [{"summary": "This spot is popular", "type": "general", "reasonName": "globalInteractionReason"}]}, "venue": {"id": "4ba254a9f964a520fbed37e3", "name": "vanille & marille", "location": {"address": "Hagelberger Str. 1", "crossStreet": "Mehringdamm", "lat": 52.49139100592781, "lng": 13.386433124542236, "labeledLatLngs": [{"label": "display", "lat": 52.49139100592781, "lng": 13.386433124542236}], "distance": 520, "postalCode": "10965", "cc": "DE", "city": "Berlin", "state": "Berlin", "country": "Deutschland", "formattedAddress": ["Hagelberger Str. 1 (Mehringdamm)", "10965 Berlin", "Deutschland"]}, "categories": [{"id": "4bf58dd8d48988d1c9941735", "name": "Ice Cream Shop", "pluralName": "Ice Cream Shops", "shortName": "Ice Cream", "icon": {"prefix": "https://ss3.4sqi.net/img/categories_v2/food/icecream_", "suffix": ".png"}, "primary": true}], "photos": {"count": 0, "groups": []}}, "referralId": "e-0-4ba254a9f964a520fbed37e3-31"}, {"reasons": {"count": 0, "items": [{"summary": "This spot is popular", "type": "general", "reasonName": "globalInteractionReason"}]}, "venue": {"id": "57d0a663498ed9e9ed17e489", "name": "Peter Schlemihl", "location": {"address": "Willibald-Alexis-Str. 25", "crossStreet": "Chamissoplatz", "lat": 52.48781499994023, "lng": 13.3907334423874, "labeledLatLngs": [{"label": "display", "lat": 52.48781499994023, "lng": 13.3907334423874}], "distance": 517, "postalCode": "10965", "cc": "DE", "city": "Berlin", "state": "Berlin", "country": "Deutschland", "formattedAddress": ["Willibald-Alexis-Str. 25 (Chamissoplatz)", "10965 Berlin", "Deutschland"]}, "categories": [{"id": "4bf58dd8d48988d10d941735", "name": "German Restaurant", "pluralName": "German Restaurants", "shortName": "German", "icon": {"prefix": "https://ss3.4sqi.net/img/categories_v2/food/german_", "suffix": ".png"}, "primary": true}], "photos": {"count": 0, "groups": []}}, "referralId": "e-0-57d0a663498ed9e9ed17e489-32"}, {"reasons": {"count": 0, "items": [{"summary": "This spot is popular", "type": "general", "reasonName": "globalInteractionReason"}]}, "venue": {"id": "5755442e498e8ab8b0e60224", "name": "Frau Behrens Torten", "location": {"address": "Bergmannstr. 3", "lat": 52.490037, "lng": 13.387956, "labeledLatLngs": [{"label": "display", "lat": 52.490037, "lng": 13.387956}], "distance": 467, "postalCode": "10961", "cc": "DE", "city": "Berlin", "state": "Berlin", "country": "Deutschland", "formattedAddress": ["Bergmannstr. 3", "10961 Berlin", "Deutschland"]}, "categories": [{"id": "5744ccdfe4b0c0459246b4e2", "name": "Pastry Shop", "pluralName": "Pastry Shops", "shortName": "Pastry", "icon": {"prefix": "https://ss3.4sqi.net/img/categories_v2/food/dessert_", "suffix": ".png"}, "primary": true}], "photos": {"count": 0, "groups": []}}, "referralId": "e-0-5755442e498e8ab8b0e60224-33"}, {"reasons": {"count": 0, "items": [{"summary": "This spot is popular", "type": "general", "reasonName": "globalInteractionReason"}]}, "venue": {"id": "4adcda79f964a520cd4621e3", "name": "Clash", "location": {"address": "Gneisenaustr. 2a", "lat": 52.49197320217103, "lng": 13.388498919399971, "labeledLatLngs": [{"label": "display", "lat": 52.49197320217103, "lng": 13.388498919399971}], "distance": 375, "postalCode": "10961", "cc": "DE", "city": "Berlin", "state": "Berlin", "country": "Deutschland", "formattedAddress": ["Gneisenaustr. 2a", "10961 Berlin", "Deutschland"]}, "categories": [{"id": "4bf58dd8d48988d116941735", "name": "Bar", "pluralName": "Bars", "shortName": "Bar", "icon": {"prefix": "https://ss3.4sqi.net/img/categories_v2/nightlife/pub_", "suffix": ".png"}, "primary": true}], "photos": {"count": 0, "groups": []}}, "referralId": "e-0-4adcda79f964a520cd4621e3-34"}, {"reasons": {"count": 0, "items": [{"summary": "This spot is popular", "type": "general", "reasonName": "globalInteractionReason"}]}, "venue": {"id": "53236b67498e4e68ab4916fa", "name": "Zyankali Bar", "location": {"address": "Gneisenaustra\u00dfe 17", "crossStreet": "Solmsstr.", "lat": 52.491534, "lng": 13.3929389, "labeledLatLngs": [{"label": "display", "lat": 52.491534, "lng": 13.3929389}], "distance": 91, "postalCode": "10961", "cc": "DE", "city": "Berlin", "state": "Berlin", "country": "Deutschland", "formattedAddress": ["Gneisenaustra\u00dfe 17 (Solmsstr.)", "10961 Berlin", "Deutschland"]}, "categories": [{"id": "4bf58dd8d48988d11e941735", "name": "Cocktail Bar", "pluralName": "Cocktail Bars", "shortName": "Cocktail", "icon": {"prefix": "https://ss3.4sqi.net/img/categories_v2/nightlife/cocktails_", "suffix": ".png"}, "primary": true}], "photos": {"count": 0, "groups": []}, "venuePage": {"id": "327434804"}}, "referralId": "e-0-53236b67498e4e68ab4916fa-35"}, {"reasons": {"count": 0, "items": [{"summary": "This spot is popular", "type": "general", "reasonName": "globalInteractionReason"}]}, "venue": {"id": "4adcda85f964a520ed4821e3", "name": "Tibet-Haus", "location": {"address": "Zossener Str. 19", "lat": 52.49072211396973, "lng": 13.394179079111902, "labeledLatLngs": [{"label": "display", "lat": 52.49072211396973, "lng": 13.394179079111902}], "distance": 143, "postalCode": "10961", "cc": "DE", "city": "Berlin", "state": "Berlin", "country": "Deutschland", "formattedAddress": ["Zossener Str. 19", "10961 Berlin", "Deutschland"]}, "categories": [{"id": "52af39fb3cf9994f4e043be9", "name": "Tibetan Restaurant", "pluralName": "Tibetan Restaurants", "shortName": "Tibetan", "icon": {"prefix": "https://ss3.4sqi.net/img/categories_v2/food/tibetan_", "suffix": ".png"}, "primary": true}], "photos": {"count": 0, "groups": []}}, "referralId": "e-0-4adcda85f964a520ed4821e3-36"}, {"reasons": {"count": 0, "items": [{"summary": "This spot is popular", "type": "general", "reasonName": "globalInteractionReason"}]}, "venue": {"id": "5246b865498ea9682aad8a03", "name": "Schwesterherz", "location": {"address": "Schleiermacherstr. 25", "crossStreet": "Bergmannstr.", "lat": 52.489161181632696, "lng": 13.397426725450725, "labeledLatLngs": [{"label": "display", "lat": 52.489161181632696, "lng": 13.397426725450725}], "distance": 391, "postalCode": "10961", "cc": "DE", "city": "Berlin", "state": "Berlin", "country": "Deutschland", "formattedAddress": ["Schleiermacherstr. 25 (Bergmannstr.)", "10961 Berlin", "Deutschland"]}, "categories": [{"id": "4bf58dd8d48988d128951735", "name": "Gift Shop", "pluralName": "Gift Shops", "shortName": "Gift Shop", "icon": {"prefix": "https://ss3.4sqi.net/img/categories_v2/shops/giftshop_", "suffix": ".png"}, "primary": true}], "photos": {"count": 0, "groups": []}}, "referralId": "e-0-5246b865498ea9682aad8a03-37"}, {"reasons": {"count": 0, "items": [{"summary": "This spot is popular", "type": "general", "reasonName": "globalInteractionReason"}]}, "venue": {"id": "4b51d2e2f964a520de5627e3", "name": "Mokkabar", "location": {"address": "Gneisenaustr. 93", "lat": 52.491718570995225, "lng": 13.393796613809625, "labeledLatLngs": [{"label": "display", "lat": 52.491718570995225, "lng": 13.393796613809625}], "distance": 36, "postalCode": "10961", "cc": "DE", "city": "Berlin", "state": "Berlin", "country": "Deutschland", "formattedAddress": ["Gneisenaustr. 93", "10961 Berlin", "Deutschland"]}, "categories": [{"id": "4bf58dd8d48988d16d941735", "name": "Caf\u00e9", "pluralName": "Caf\u00e9s", "shortName": "Caf\u00e9", "icon": {"prefix": "https://ss3.4sqi.net/img/categories_v2/food/cafe_", "suffix": ".png"}, "primary": true}], "photos": {"count": 0, "groups": []}}, "referralId": "e-0-4b51d2e2f964a520de5627e3-38"}, {"reasons": {"count": 0, "items": [{"summary": "This spot is popular", "type": "general", "reasonName": "globalInteractionReason"}]}, "venue": {"id": "4c43058eda3dc928d746cbb9", "name": "Tierra Colombiana", "location": {"address": "Mittenwalder Str. 27", "lat": 52.49016265519161, "lng": 13.396104505417478, "labeledLatLngs": [{"label": "display", "lat": 52.49016265519161, "lng": 13.396104505417478}], "distance": 248, "postalCode": "10961", "cc": "DE", "city": "Berlin", "state": "Berlin", "country": "Deutschland", "formattedAddress": ["Mittenwalder Str. 27", "10961 Berlin", "Deutschland"]}, "categories": [{"id": "58daa1558bbb0b01f18ec1f4", "name": "Colombian Restaurant", "pluralName": "Colombian Restaurants", "shortName": "Colombian", "icon": {"prefix": "https://ss3.4sqi.net/img/categories_v2/food/argentinian_", "suffix": ".png"}, "primary": true}], "photos": {"count": 0, "groups": []}}, "referralId": "e-0-4c43058eda3dc928d746cbb9-39"}, {"reasons": {"count": 0, "items": [{"summary": "This spot is popular", "type": "general", "reasonName": "globalInteractionReason"}]}, "venue": {"id": "4adcda87f964a5203a4921e3", "name": "Austria", "location": {"address": "Bergmannstr. 30", "crossStreet": "Heimstr.", "lat": 52.48876483018588, "lng": 13.396829366683958, "labeledLatLngs": [{"label": "display", "lat": 52.48876483018588, "lng": 13.396829366683958}], "distance": 407, "postalCode": "10961", "cc": "DE", "city": "Berlin", "state": "Berlin", "country": "Deutschland", "formattedAddress": ["Bergmannstr. 30 (Heimstr.)", "10961 Berlin", "Deutschland"]}, "categories": [{"id": "52e81612bcbc57f1066b7a01", "name": "Austrian Restaurant", "pluralName": "Austrian Restaurants", "shortName": "Austrian", "icon": {"prefix": "https://ss3.4sqi.net/img/categories_v2/food/austrian_", "suffix": ".png"}, "primary": true}], "photos": {"count": 0, "groups": []}}, "referralId": "e-0-4adcda87f964a5203a4921e3-40"}, {"reasons": {"count": 0, "items": [{"summary": "This spot is popular", "type": "general", "reasonName": "globalInteractionReason"}]}, "venue": {"id": "4adcda85f964a520ee4821e3", "name": "Sarod's Thairestaurant", "location": {"address": "Friesenstr. 22", "lat": 52.487874, "lng": 13.394733, "labeledLatLngs": [{"label": "display", "lat": 52.487874, "lng": 13.394733}], "distance": 462, "postalCode": "10965", "cc": "DE", "neighborhood": "Bergmannkiez", "city": "Berlin", "state": "Berlin", "country": "Deutschland", "formattedAddress": ["Friesenstr. 22", "10965 Berlin", "Deutschland"]}, "categories": [{"id": "4bf58dd8d48988d149941735", "name": "Thai Restaurant", "pluralName": "Thai Restaurants", "shortName": "Thai", "icon": {"prefix": "https://ss3.4sqi.net/img/categories_v2/food/thai_", "suffix": ".png"}, "primary": true}], "photos": {"count": 0, "groups": []}}, "referralId": "e-0-4adcda85f964a520ee4821e3-41"}, {"reasons": {"count": 0, "items": [{"summary": "This spot is popular", "type": "general", "reasonName": "globalInteractionReason"}]}, "venue": {"id": "51d9cabe498ebc1f9624b4c4", "name": "Ernst", "location": {"address": "Solmsstr. 29", "lat": 52.48955909806268, "lng": 13.392007123858333, "labeledLatLngs": [{"label": "display", "lat": 52.48955909806268, "lng": 13.392007123858333}], "distance": 305, "postalCode": "10961", "cc": "DE", "city": "Berlin", "state": "Berlin", "country": "Deutschland", "formattedAddress": ["Solmsstr. 29", "10961 Berlin", "Deutschland"]}, "categories": [{"id": "4bf58dd8d48988d116941735", "name": "Bar", "pluralName": "Bars", "shortName": "Bar", "icon": {"prefix": "https://ss3.4sqi.net/img/categories_v2/nightlife/pub_", "suffix": ".png"}, "primary": true}], "photos": {"count": 0, "groups": []}}, "referralId": "e-0-51d9cabe498ebc1f9624b4c4-42"}, {"reasons": {"count": 0, "items": [{"summary": "This spot is popular", "type": "general", "reasonName": "globalInteractionReason"}]}, "venue": {"id": "4dda3e241838b8561d2aeaf3", "name": "bagel, coffee & culture", "location": {"address": "Mehringdamm 66", "lat": 52.490627, "lng": 13.386294, "labeledLatLngs": [{"label": "display", "lat": 52.490627, "lng": 13.386294}], "distance": 546, "postalCode": "10961", "cc": "DE", "city": "Berlin", "state": "Berlin", "country": "Deutschland", "formattedAddress": ["Mehringdamm 66", "10961 Berlin", "Deutschland"]}, "categories": [{"id": "4bf58dd8d48988d179941735", "name": "Bagel Shop", "pluralName": "Bagel Shops", "shortName": "Bagels", "icon": {"prefix": "https://ss3.4sqi.net/img/categories_v2/food/bagels_", "suffix": ".png"}, "primary": true}], "photos": {"count": 0, "groups": []}, "venuePage": {"id": "512482037"}}, "referralId": "e-0-4dda3e241838b8561d2aeaf3-43"}, {"reasons": {"count": 0, "items": [{"summary": "This spot is popular", "type": "general", "reasonName": "globalInteractionReason"}]}, "venue": {"id": "4b0d22d2f964a5200a4423e3", "name": "Brezel Bar", "location": {"address": "Friesenstr. 2", "lat": 52.488681, "lng": 13.394283, "labeledLatLngs": [{"label": "display", "lat": 52.488681, "lng": 13.394283}], "distance": 370, "postalCode": "10965", "cc": "DE", "city": "Berlin", "state": "Berlin", "country": "Deutschland", "formattedAddress": ["Friesenstr. 2", "10965 Berlin", "Deutschland"]}, "categories": [{"id": "4bf58dd8d48988d16a941735", "name": "Bakery", "pluralName": "Bakeries", "shortName": "Bakery", "icon": {"prefix": "https://ss3.4sqi.net/img/categories_v2/food/bakery_", "suffix": ".png"}, "primary": true}], "photos": {"count": 0, "groups": []}}, "referralId": "e-0-4b0d22d2f964a5200a4423e3-44"}, {"reasons": {"count": 0, "items": [{"summary": "This spot is popular", "type": "general", "reasonName": "globalInteractionReason"}]}, "venue": {"id": "4b6ef981f964a52022d42ce3", "name": "Taverna Dimokritos", "location": {"address": "Arndtstr. 12", "lat": 52.48857615110357, "lng": 13.392694127676334, "labeledLatLngs": [{"label": "display", "lat": 52.48857615110357, "lng": 13.392694127676334}], "distance": 392, "postalCode": "10965", "cc": "DE", "city": "Berlin", "state": "Berlin", "country": "Deutschland", "formattedAddress": ["Arndtstr. 12", "10965 Berlin", "Deutschland"]}, "categories": [{"id": "53d6c1b0e4b02351e88a83d2", "name": "Taverna", "pluralName": "Tavernas", "shortName": "Tavernas", "icon": {"prefix": "https://ss3.4sqi.net/img/categories_v2/food/greek_", "suffix": ".png"}, "primary": true}], "photos": {"count": 0, "groups": []}}, "referralId": "e-0-4b6ef981f964a52022d42ce3-45"}, {"reasons": {"count": 0, "items": [{"summary": "This spot is popular", "type": "general", "reasonName": "globalInteractionReason"}]}, "venue": {"id": "5057650de4b0d070fdec8fe0", "name": "Amici Amici", "location": {"address": "Mehringdamm 40", "lat": 52.49296045859121, "lng": 13.387428954082843, "labeledLatLngs": [{"label": "display", "lat": 52.49296045859121, "lng": 13.387428954082843}], "distance": 460, "postalCode": "10961", "cc": "DE", "city": "Berlin", "state": "Berlin", "country": "Deutschland", "formattedAddress": ["Mehringdamm 40", "10961 Berlin", "Deutschland"]}, "categories": [{"id": "55a5a1ebe4b013909087cb7f", "name": "Trattoria/Osteria", "pluralName": "Trattorias/Osterias", "shortName": "Trattoria/Osteria", "icon": {"prefix": "https://ss3.4sqi.net/img/categories_v2/food/italian_", "suffix": ".png"}, "primary": true}], "photos": {"count": 0, "groups": []}}, "referralId": "e-0-5057650de4b0d070fdec8fe0-46"}, {"reasons": {"count": 0, "items": [{"summary": "This spot is popular", "type": "general", "reasonName": "globalInteractionReason"}]}, "venue": {"id": "51d70ccd498e78222a209923", "name": "Pastarium", "location": {"address": "Willibald-Alexis-Str. 27", "crossStreet": "Chamissoplatz", "lat": 52.48779950625202, "lng": 13.391417939122395, "labeledLatLngs": [{"label": "display", "lat": 52.48779950625202, "lng": 13.391417939122395}], "distance": 500, "postalCode": "10965", "cc": "DE", "city": "Berlin", "state": "Berlin", "country": "Deutschland", "formattedAddress": ["Willibald-Alexis-Str. 27 (Chamissoplatz)", "10965 Berlin", "Deutschland"]}, "categories": [{"id": "4bf58dd8d48988d110941735", "name": "Italian Restaurant", "pluralName": "Italian Restaurants", "shortName": "Italian", "icon": {"prefix": "https://ss3.4sqi.net/img/categories_v2/food/italian_", "suffix": ".png"}, "primary": true}], "photos": {"count": 0, "groups": []}}, "referralId": "e-0-51d70ccd498e78222a209923-47"}, {"reasons": {"count": 0, "items": [{"summary": "This spot is popular", "type": "general", "reasonName": "globalInteractionReason"}]}, "venue": {"id": "59297d710ff4f9137e4b3fc0", "name": "Veggie Vega Trend", "location": {"address": "Bergmannstr 27", "lat": 52.48882852660237, "lng": 13.395257592201233, "labeledLatLngs": [{"label": "display", "lat": 52.48882852660237, "lng": 13.395257592201233}], "distance": 363, "postalCode": "10961", "cc": "DE", "city": "Berlin", "state": "Berlin", "country": "Deutschland", "formattedAddress": ["Bergmannstr 27", "10961 Berlin", "Deutschland"]}, "categories": [{"id": "4bf58dd8d48988d1d3941735", "name": "Vegetarian / Vegan Restaurant", "pluralName": "Vegetarian / Vegan Restaurants", "shortName": "Vegetarian / Vegan", "icon": {"prefix": "https://ss3.4sqi.net/img/categories_v2/food/vegetarian_", "suffix": ".png"}, "primary": true}], "photos": {"count": 0, "groups": []}}, "referralId": "e-0-59297d710ff4f9137e4b3fc0-48"}, {"reasons": {"count": 0, "items": [{"summary": "This spot is popular", "type": "general", "reasonName": "globalInteractionReason"}]}, "venue": {"id": "5a5ce2a86cf01a6b3cd31186", "name": "Babikyu", "location": {"address": "Bergmannstr. 1", "lat": 52.489864, "lng": 13.387473, "labeledLatLngs": [{"label": "display", "lat": 52.489864, "lng": 13.387473}], "distance": 504, "postalCode": "10961", "cc": "DE", "neighborhood": "Kreuzberg", "city": "Berlin", "state": "Berlin", "country": "Deutschland", "formattedAddress": ["Bergmannstr. 1", "10961 Berlin", "Deutschland"]}, "categories": [{"id": "4bf58dd8d48988d113941735", "name": "Korean Restaurant", "pluralName": "Korean Restaurants", "shortName": "Korean", "icon": {"prefix": "https://ss3.4sqi.net/img/categories_v2/food/korean_", "suffix": ".png"}, "primary": true}], "photos": {"count": 0, "groups": []}}, "referralId": "e-0-5a5ce2a86cf01a6b3cd31186-49"}, {"reasons": {"count": 0, "items": [{"summary": "This spot is popular", "type": "general", "reasonName": "globalInteractionReason"}]}, "venue": {"id": "4af5697df964a52014f921e3", "name": "Mustafa\u2019s Gem\u00fcse Kebap", "location": {"address": "Mehringdamm 32-34", "lat": 52.493738742460025, "lng": 13.38803172111511, "labeledLatLngs": [{"label": "display", "lat": 52.493738742460025, "lng": 13.38803172111511}], "distance": 450, "postalCode": "10961", "cc": "DE", "city": "Berlin", "state": "Berlin", "country": "Deutschland", "formattedAddress": ["Mehringdamm 32-34", "10961 Berlin", "Deutschland"]}, "categories": [{"id": "5283c7b4e4b094cb91ec88d8", "name": "Doner Restaurant", "pluralName": "Doner Restaurants", "shortName": "Doner", "icon": {"prefix": "https://ss3.4sqi.net/img/categories_v2/food/turkish_", "suffix": ".png"}, "primary": true}], "photos": {"count": 0, "groups": []}}, "referralId": "e-0-4af5697df964a52014f921e3-50"}, {"reasons": {"count": 0, "items": [{"summary": "This spot is popular", "type": "general", "reasonName": "globalInteractionReason"}]}, "venue": {"id": "4bb0f1bcf964a520a26c3ce3", "name": "Restaurant Z", "location": {"address": "Friesenstrasse 12", "lat": 52.48653521609248, "lng": 13.394331579657619, "labeledLatLngs": [{"label": "display", "lat": 52.48653521609248, "lng": 13.394331579657619}], "distance": 609, "postalCode": "10965", "cc": "DE", "city": "Berlin", "state": "Berlin", "country": "Deutschland", "formattedAddress": ["Friesenstrasse 12", "10965 Berlin", "Deutschland"]}, "categories": [{"id": "4bf58dd8d48988d10e941735", "name": "Greek Restaurant", "pluralName": "Greek Restaurants", "shortName": "Greek", "icon": {"prefix": "https://ss3.4sqi.net/img/categories_v2/food/greek_", "suffix": ".png"}, "primary": true}], "photos": {"count": 0, "groups": []}}, "referralId": "e-0-4bb0f1bcf964a520a26c3ce3-51"}, {"reasons": {"count": 0, "items": [{"summary": "This spot is popular", "type": "general", "reasonName": "globalInteractionReason"}]}, "venue": {"id": "5c5ca0e4419a9e002c9aa82e", "name": "Sahara Imbiss", "location": {"address": "Bergmannstr. 64", "lat": 52.489515, "lng": 13.391771, "labeledLatLngs": [{"label": "display", "lat": 52.489515, "lng": 13.391771}], "distance": 317, "postalCode": "10961", "cc": "DE", "city": "Berlin", "state": "Berlin", "country": "Deutschland", "formattedAddress": ["Bergmannstr. 64", "10961 Berlin", "Deutschland"]}, "categories": [{"id": "4bf58dd8d48988d10b941735", "name": "Falafel Restaurant", "pluralName": "Falafel Restaurants", "shortName": "Falafel", "icon": {"prefix": "https://ss3.4sqi.net/img/categories_v2/food/falafel_", "suffix": ".png"}, "primary": true}], "photos": {"count": 0, "groups": []}}, "referralId": "e-0-5c5ca0e4419a9e002c9aa82e-52"}, {"reasons": {"count": 0, "items": [{"summary": "This spot is popular", "type": "general", "reasonName": "globalInteractionReason"}]}, "venue": {"id": "4adcda89f964a5209c4921e3", "name": "BKA Theater", "location": {"address": "Mehringdamm 34", "lat": 52.493701272424964, "lng": 13.387849093703547, "labeledLatLngs": [{"label": "display", "lat": 52.493701272424964, "lng": 13.387849093703547}], "distance": 460, "postalCode": "10961", "cc": "DE", "city": "Berlin", "state": "Berlin", "country": "Deutschland", "formattedAddress": ["Mehringdamm 34", "10961 Berlin", "Deutschland"]}, "categories": [{"id": "4bf58dd8d48988d18e941735", "name": "Comedy Club", "pluralName": "Comedy Clubs", "shortName": "Comedy Club", "icon": {"prefix": "https://ss3.4sqi.net/img/categories_v2/arts_entertainment/comedyclub_", "suffix": ".png"}, "primary": true}], "photos": {"count": 0, "groups": []}}, "referralId": "e-0-4adcda89f964a5209c4921e3-53"}, {"reasons": {"count": 0, "items": [{"summary": "This spot is popular", "type": "general", "reasonName": "globalInteractionReason"}]}, "venue": {"id": "5748283a498e09959315b480", "name": "Mutti Kreuzberg", "location": {"address": "Gneisenaustr. 67", "lat": 52.49038418895013, "lng": 13.402020164722328, "labeledLatLngs": [{"label": "display", "lat": 52.49038418895013, "lng": 13.402020164722328}], "distance": 570, "postalCode": "10961", "cc": "DE", "neighborhood": "Urban", "city": "Berlin", "state": "Berlin", "country": "Deutschland", "formattedAddress": ["Gneisenaustr. 67", "10961 Berlin", "Deutschland"]}, "categories": [{"id": "52e81612bcbc57f1066b7a00", "name": "Comfort Food Restaurant", "pluralName": "Comfort Food Restaurants", "shortName": "Comfort Food", "icon": {"prefix": "https://ss3.4sqi.net/img/categories_v2/food/default_", "suffix": ".png"}, "primary": true}], "photos": {"count": 0, "groups": []}}, "referralId": "e-0-5748283a498e09959315b480-54"}, {"reasons": {"count": 0, "items": [{"summary": "This spot is popular", "type": "general", "reasonName": "globalInteractionReason"}]}, "venue": {"id": "4c868c1347cc224b678caa9f", "name": "Yorck Kino", "location": {"address": "Yorckstr. 86", "lat": 52.49303647091238, "lng": 13.385252952575684, "labeledLatLngs": [{"label": "display", "lat": 52.49303647091238, "lng": 13.385252952575684}], "distance": 606, "postalCode": "10965", "cc": "DE", "city": "Berlin", "state": "Berlin", "country": "Deutschland", "formattedAddress": ["Yorckstr. 86", "10965 Berlin", "Deutschland"]}, "categories": [{"id": "4bf58dd8d48988d17e941735", "name": "Indie Movie Theater", "pluralName": "Indie Movie Theaters", "shortName": "Indie Movies", "icon": {"prefix": "https://ss3.4sqi.net/img/categories_v2/arts_entertainment/movietheater_", "suffix": ".png"}, "primary": true}], "photos": {"count": 0, "groups": []}}, "referralId": "e-0-4c868c1347cc224b678caa9f-55"}, {"reasons": {"count": 0, "items": [{"summary": "This spot is popular", "type": "general", "reasonName": "globalInteractionReason"}]}, "venue": {"id": "4c51af8ad2a7c9b644049f11", "name": "Bio Eis Tanne B", "location": {"address": "Marheinekeplatz 15", "lat": 52.489178066114356, "lng": 13.393965544738194, "labeledLatLngs": [{"label": "display", "lat": 52.489178066114356, "lng": 13.393965544738194}], "distance": 314, "postalCode": "10961", "cc": "DE", "city": "Berlin", "state": "Berlin", "country": "Deutschland", "formattedAddress": ["Marheinekeplatz 15", "10961 Berlin", "Deutschland"]}, "categories": [{"id": "4bf58dd8d48988d1c9941735", "name": "Ice Cream Shop", "pluralName": "Ice Cream Shops", "shortName": "Ice Cream", "icon": {"prefix": "https://ss3.4sqi.net/img/categories_v2/food/icecream_", "suffix": ".png"}, "primary": true}], "photos": {"count": 0, "groups": []}}, "referralId": "e-0-4c51af8ad2a7c9b644049f11-56"}, {"reasons": {"count": 0, "items": [{"summary": "This spot is popular", "type": "general", "reasonName": "globalInteractionReason"}]}, "venue": {"id": "51a0921e498e4b1069594cae", "name": "Cafe Strauss", "location": {"address": "Bergmannstr. 42", "lat": 52.48885463809621, "lng": 13.400800812420202, "labeledLatLngs": [{"label": "display", "lat": 52.48885463809621, "lng": 13.400800812420202}], "distance": 577, "postalCode": "10961", "cc": "DE", "city": "Berlin", "state": "Berlin", "country": "Deutschland", "formattedAddress": ["Bergmannstr. 42", "10961 Berlin", "Deutschland"]}, "categories": [{"id": "4bf58dd8d48988d16d941735", "name": "Caf\u00e9", "pluralName": "Caf\u00e9s", "shortName": "Caf\u00e9", "icon": {"prefix": "https://ss3.4sqi.net/img/categories_v2/food/cafe_", "suffix": ".png"}, "primary": true}], "photos": {"count": 0, "groups": []}}, "referralId": "e-0-51a0921e498e4b1069594cae-57"}, {"reasons": {"count": 0, "items": [{"summary": "This spot is popular", "type": "general", "reasonName": "globalInteractionReason"}]}, "venue": {"id": "4e0072dfa8091704343594fe", "name": "iDoc Reparatur Service", "location": {"address": "Mehringdamm 33", "lat": 52.49352866205002, "lng": 13.389825429991557, "labeledLatLngs": [{"label": "display", "lat": 52.49352866205002, "lng": 13.389825429991557}], "distance": 332, "postalCode": "10961", "cc": "DE", "city": "Berlin", "state": "Berlin", "country": "Deutschland", "formattedAddress": ["Mehringdamm 33", "10961 Berlin", "Deutschland"]}, "categories": [{"id": "52f2ab2ebcbc57f1066b8b2f", "name": "Other Repair Shop", "pluralName": "Other Repair Shops", "shortName": "Other Repair", "icon": {"prefix": "https://ss3.4sqi.net/img/categories_v2/shops/default_", "suffix": ".png"}, "primary": true}], "photos": {"count": 0, "groups": []}}, "referralId": "e-0-4e0072dfa8091704343594fe-58"}, {"reasons": {"count": 0, "items": [{"summary": "This spot is popular", "type": "general", "reasonName": "globalInteractionReason"}]}, "venue": {"id": "4b8c5077f964a52013ca32e3", "name": "Destille", "location": {"address": "Mehringdamm 67", "crossStreet": "Bergmannstrasse", "lat": 52.49037015081799, "lng": 13.38667235806661, "labeledLatLngs": [{"label": "display", "lat": 52.49037015081799, "lng": 13.38667235806661}], "distance": 531, "postalCode": "10961", "cc": "DE", "city": "Berlin", "state": "Berlin", "country": "Deutschland", "formattedAddress": ["Mehringdamm 67 (Bergmannstrasse)", "10961 Berlin", "Deutschland"]}, "categories": [{"id": "4bf58dd8d48988d116941735", "name": "Bar", "pluralName": "Bars", "shortName": "Bar", "icon": {"prefix": "https://ss3.4sqi.net/img/categories_v2/nightlife/pub_", "suffix": ".png"}, "primary": true}], "photos": {"count": 0, "groups": []}}, "referralId": "e-0-4b8c5077f964a52013ca32e3-59"}, {"reasons": {"count": 0, "items": [{"summary": "This spot is popular", "type": "general", "reasonName": "globalInteractionReason"}]}, "venue": {"id": "57939071498e2ae70b17aa57", "name": "Cha for Tee", "location": {"address": "Friesenstra\u00dfe 18", "lat": 52.48689937104837, "lng": 13.39444523860804, "labeledLatLngs": [{"label": "display", "lat": 52.48689937104837, "lng": 13.39444523860804}], "distance": 569, "postalCode": "10965", "cc": "DE", "city": "Berlin", "state": "Berlin", "country": "Deutschland", "formattedAddress": ["Friesenstra\u00dfe 18", "10965 Berlin", "Deutschland"]}, "categories": [{"id": "4bf58dd8d48988d108941735", "name": "Dumpling Restaurant", "pluralName": "Dumpling Restaurants", "shortName": "Dumplings", "icon": {"prefix": "https://ss3.4sqi.net/img/categories_v2/food/dumplings_", "suffix": ".png"}, "primary": true}], "photos": {"count": 0, "groups": []}}, "referralId": "e-0-57939071498e2ae70b17aa57-60"}, {"reasons": {"count": 0, "items": [{"summary": "This spot is popular", "type": "general", "reasonName": "globalInteractionReason"}]}, "venue": {"id": "56daf3fb498ed1be4a551067", "name": "Belle Alliance", "location": {"address": "Mehringdamm 56", "lat": 52.49136213285772, "lng": 13.386731916693012, "labeledLatLngs": [{"label": "display", "lat": 52.49136213285772, "lng": 13.386731916693012}], "distance": 500, "postalCode": "10961", "cc": "DE", "city": "Berlin", "state": "Berlin", "country": "Deutschland", "formattedAddress": ["Mehringdamm 56", "10961 Berlin", "Deutschland"]}, "categories": [{"id": "4bf58dd8d48988d16d941735", "name": "Caf\u00e9", "pluralName": "Caf\u00e9s", "shortName": "Caf\u00e9", "icon": {"prefix": "https://ss3.4sqi.net/img/categories_v2/food/cafe_", "suffix": ".png"}, "primary": true}], "photos": {"count": 0, "groups": []}, "venuePage": {"id": "587753229"}}, "referralId": "e-0-56daf3fb498ed1be4a551067-61"}, {"reasons": {"count": 0, "items": [{"summary": "This spot is popular", "type": "general", "reasonName": "globalInteractionReason"}]}, "venue": {"id": "55014bbe498ecb9c69787391", "name": "Hallesches Haus General Store", "location": {"address": "Tempelhofer Ufer 1", "lat": 52.49719041170512, "lng": 13.390275603087503, "labeledLatLngs": [{"label": "display", "lat": 52.49719041170512, "lng": 13.390275603087503}], "distance": 630, "postalCode": "10961", "cc": "DE", "city": "Berlin", "state": "Berlin", "country": "Deutschland", "formattedAddress": ["Tempelhofer Ufer 1", "10961 Berlin", "Deutschland"]}, "categories": [{"id": "52e81612bcbc57f1066b79f1", "name": "Bistro", "pluralName": "Bistros", "shortName": "Bistro", "icon": {"prefix": "https://ss3.4sqi.net/img/categories_v2/food/default_", "suffix": ".png"}, "primary": true}], "photos": {"count": 0, "groups": []}}, "referralId": "e-0-55014bbe498ecb9c69787391-62"}, {"reasons": {"count": 0, "items": [{"summary": "This spot is popular", "type": "general", "reasonName": "globalInteractionReason"}]}, "venue": {"id": "4c716f69fa49a1cd0fe1a8e3", "name": "Little Tibet", "location": {"address": "Gneisenaustr. 6a", "lat": 52.4923422027339, "lng": 13.38964663352763, "labeledLatLngs": [{"label": "display", "lat": 52.4923422027339, "lng": 13.38964663352763}], "distance": 300, "postalCode": "10961", "cc": "DE", "city": "Berlin", "state": "Berlin", "country": "Deutschland", "formattedAddress": ["Gneisenaustr. 6a", "10961 Berlin", "Deutschland"]}, "categories": [{"id": "52af39fb3cf9994f4e043be9", "name": "Tibetan Restaurant", "pluralName": "Tibetan Restaurants", "shortName": "Tibetan", "icon": {"prefix": "https://ss3.4sqi.net/img/categories_v2/food/tibetan_", "suffix": ".png"}, "primary": true}], "photos": {"count": 0, "groups": []}}, "referralId": "e-0-4c716f69fa49a1cd0fe1a8e3-63"}, {"reasons": {"count": 0, "items": [{"summary": "This spot is popular", "type": "general", "reasonName": "globalInteractionReason"}]}, "venue": {"id": "4adcda78f964a5206e4621e3", "name": "Pagode Thailand", "location": {"address": "Bergmannstr. 88", "lat": 52.48924410265854, "lng": 13.39336986392336, "labeledLatLngs": [{"label": "display", "lat": 52.48924410265854, "lng": 13.39336986392336}], "distance": 310, "postalCode": "10961", "cc": "DE", "city": "Berlin", "state": "Berlin", "country": "Deutschland", "formattedAddress": ["Bergmannstr. 88", "10961 Berlin", "Deutschland"]}, "categories": [{"id": "4bf58dd8d48988d149941735", "name": "Thai Restaurant", "pluralName": "Thai Restaurants", "shortName": "Thai", "icon": {"prefix": "https://ss3.4sqi.net/img/categories_v2/food/thai_", "suffix": ".png"}, "primary": true}], "photos": {"count": 0, "groups": []}}, "referralId": "e-0-4adcda78f964a5206e4621e3-64"}, {"reasons": {"count": 0, "items": [{"summary": "This spot is popular", "type": "general", "reasonName": "globalInteractionReason"}]}, "venue": {"id": "575c00e2498ee9c1babdd9b2", "name": "Black Sheep Athletics Berlin", "location": {"address": "Am Tempelhofer Berg 6", "lat": 52.48858602902494, "lng": 13.38745936270924, "labeledLatLngs": [{"label": "display", "lat": 52.48858602902494, "lng": 13.38745936270924}], "distance": 586, "postalCode": "10965", "cc": "DE", "city": "Berlin", "state": "Berlin", "country": "Deutschland", "formattedAddress": ["Am Tempelhofer Berg 6", "10965 Berlin", "Deutschland"]}, "categories": [{"id": "4bf58dd8d48988d176941735", "name": "Gym", "pluralName": "Gyms", "shortName": "Gym", "icon": {"prefix": "https://ss3.4sqi.net/img/categories_v2/building/gym_", "suffix": ".png"}, "primary": true}], "photos": {"count": 0, "groups": []}, "venuePage": {"id": "201607474"}}, "referralId": "e-0-575c00e2498ee9c1babdd9b2-65"}, {"reasons": {"count": 0, "items": [{"summary": "This spot is popular", "type": "general", "reasonName": "globalInteractionReason"}]}, "venue": {"id": "4adf6065f964a520097a21e3", "name": "Curry 36", "location": {"address": "Mehringdamm 36", "lat": 52.49354670463552, "lng": 13.387768864631653, "labeledLatLngs": [{"label": "display", "lat": 52.49354670463552, "lng": 13.387768864631653}], "distance": 458, "postalCode": "10961", "cc": "DE", "city": "Berlin", "state": "Berlin", "country": "Deutschland", "formattedAddress": ["Mehringdamm 36", "10961 Berlin", "Deutschland"]}, "categories": [{"id": "56aa371ce4b08b9a8d57358b", "name": "Currywurst Joint", "pluralName": "Currywurst Joints", "shortName": "Currywurst", "icon": {"prefix": "https://ss3.4sqi.net/img/categories_v2/food/bbqalt_", "suffix": ".png"}, "primary": true}], "photos": {"count": 0, "groups": []}}, "referralId": "e-0-4adf6065f964a520097a21e3-66"}, {"reasons": {"count": 0, "items": [{"summary": "This spot is popular", "type": "general", "reasonName": "globalInteractionReason"}]}, "venue": {"id": "4d88a52b4757721eb3759169", "name": "Lola Spanische Feinkost", "location": {"address": "Marheinekeplatz 15", "lat": 52.48923134842169, "lng": 13.394923958838664, "labeledLatLngs": [{"label": "display", "lat": 52.48923134842169, "lng": 13.394923958838664}], "distance": 314, "postalCode": "10961", "cc": "DE", "city": "Berlin", "state": "Berlin", "country": "Deutschland", "formattedAddress": ["Marheinekeplatz 15", "10961 Berlin", "Deutschland"]}, "categories": [{"id": "4bf58dd8d48988d1db931735", "name": "Tapas Restaurant", "pluralName": "Tapas Restaurants", "shortName": "Tapas", "icon": {"prefix": "https://ss3.4sqi.net/img/categories_v2/food/tapas_", "suffix": ".png"}, "primary": true}], "photos": {"count": 0, "groups": []}}, "referralId": "e-0-4d88a52b4757721eb3759169-67"}, {"reasons": {"count": 0, "items": [{"summary": "This spot is popular", "type": "general", "reasonName": "globalInteractionReason"}]}, "venue": {"id": "593c19fd588e362daeb47bf9", "name": "Bier Laden", "location": {"address": "Kreuzbergstrasse 78", "lat": 52.48978224690925, "lng": 13.385716196538766, "labeledLatLngs": [{"label": "display", "lat": 52.48978224690925, "lng": 13.385716196538766}], "distance": 616, "postalCode": "10965", "cc": "DE", "neighborhood": "Viktoriakiez", "country": "Deutschland", "formattedAddress": ["Kreuzbergstrasse 78", "10965", "Deutschland"]}, "categories": [{"id": "5370f356bcbc57f1066c94c2", "name": "Beer Store", "pluralName": "Beer Stores", "shortName": "Beer Store", "icon": {"prefix": "https://ss3.4sqi.net/img/categories_v2/nightlife/beergarden_", "suffix": ".png"}, "primary": true}], "photos": {"count": 0, "groups": []}}, "referralId": "e-0-593c19fd588e362daeb47bf9-68"}, {"reasons": {"count": 0, "items": [{"summary": "This spot is popular", "type": "general", "reasonName": "globalInteractionReason"}]}, "venue": {"id": "576ead63cd100106d19688e2", "name": "take a brake", "location": {"address": "Bergmannstr. 59", "crossStreet": "Baerwaldstr.", "lat": 52.48888197193224, "lng": 13.402922707844121, "labeledLatLngs": [{"label": "display", "lat": 52.48888197193224, "lng": 13.402922707844121}], "distance": 695, "postalCode": "10961", "cc": "DE", "city": "Berlin", "state": "Berlin", "country": "Deutschland", "formattedAddress": ["Bergmannstr. 59 (Baerwaldstr.)", "10961 Berlin", "Deutschland"]}, "categories": [{"id": "4bf58dd8d48988d115951735", "name": "Bike Shop", "pluralName": "Bike Shops", "shortName": "Bike Shop", "icon": {"prefix": "https://ss3.4sqi.net/img/categories_v2/shops/bikeshop_", "suffix": ".png"}, "primary": true}], "photos": {"count": 0, "groups": []}, "venuePage": {"id": "361023410"}}, "referralId": "e-0-576ead63cd100106d19688e2-69"}, {"reasons": {"count": 0, "items": [{"summary": "This spot is popular", "type": "general", "reasonName": "globalInteractionReason"}]}, "venue": {"id": "58a8e24ae7f1cf2802cec647", "name": "No 51", "location": {"address": "Mehringdamm 51", "lat": 52.491627, "lng": 13.387537, "labeledLatLngs": [{"label": "display", "lat": 52.491627, "lng": 13.387537}], "distance": 442, "postalCode": "10961", "cc": "DE", "city": "Berlin", "state": "Berlin", "country": "Deutschland", "formattedAddress": ["Mehringdamm 51", "10961 Berlin", "Deutschland"]}, "categories": [{"id": "4bf58dd8d48988d116941735", "name": "Bar", "pluralName": "Bars", "shortName": "Bar", "icon": {"prefix": "https://ss3.4sqi.net/img/categories_v2/nightlife/pub_", "suffix": ".png"}, "primary": true}], "photos": {"count": 0, "groups": []}}, "referralId": "e-0-58a8e24ae7f1cf2802cec647-70"}, {"reasons": {"count": 0, "items": [{"summary": "This spot is popular", "type": "general", "reasonName": "globalInteractionReason"}]}, "venue": {"id": "4db5588d1e7248d135b1b769", "name": "Swera", "location": {"address": "Bergmannstr. 103", "lat": 52.48988058993677, "lng": 13.389086368461768, "labeledLatLngs": [{"label": "display", "lat": 52.48988058993677, "lng": 13.389086368461768}], "distance": 410, "postalCode": "10961", "cc": "DE", "city": "Berlin", "state": "Berlin", "country": "Deutschland", "formattedAddress": ["Bergmannstr. 103", "10961 Berlin", "Deutschland"]}, "categories": [{"id": "4bf58dd8d48988d10f941735", "name": "Indian Restaurant", "pluralName": "Indian Restaurants", "shortName": "Indian", "icon": {"prefix": "https://ss3.4sqi.net/img/categories_v2/food/indian_", "suffix": ".png"}, "primary": true}], "photos": {"count": 0, "groups": []}}, "referralId": "e-0-4db5588d1e7248d135b1b769-71"}, {"reasons": {"count": 0, "items": [{"summary": "This spot is popular", "type": "general", "reasonName": "globalInteractionReason"}]}, "venue": {"id": "4b40e0aaf964a520a2bc25e3", "name": "Cube Sushi", "location": {"address": "Zossener Str. 18", "lat": 52.49082687371909, "lng": 13.39424240698957, "labeledLatLngs": [{"label": "display", "lat": 52.49082687371909, "lng": 13.39424240698957}], "distance": 132, "postalCode": "10961", "cc": "DE", "city": "Berlin", "state": "Berlin", "country": "Deutschland", "formattedAddress": ["Zossener Str. 18", "10961 Berlin", "Deutschland"]}, "categories": [{"id": "4bf58dd8d48988d1d2941735", "name": "Sushi Restaurant", "pluralName": "Sushi Restaurants", "shortName": "Sushi", "icon": {"prefix": "https://ss3.4sqi.net/img/categories_v2/food/sushi_", "suffix": ".png"}, "primary": true}], "photos": {"count": 0, "groups": []}}, "referralId": "e-0-4b40e0aaf964a520a2bc25e3-72"}, {"reasons": {"count": 0, "items": [{"summary": "This spot is popular", "type": "general", "reasonName": "globalInteractionReason"}]}, "venue": {"id": "4badf5aff964a520ce753be3", "name": "herrlich M\u00e4nnergeschenke", "location": {"address": "Bergmannstr. 2", "lat": 52.48997, "lng": 13.38770585, "labeledLatLngs": [{"label": "display", "lat": 52.48997, "lng": 13.38770585}], "distance": 485, "postalCode": "10961", "cc": "DE", "city": "Berlin", "state": "Berlin", "country": "Deutschland", "formattedAddress": ["Bergmannstr. 2", "10961 Berlin", "Deutschland"]}, "categories": [{"id": "4bf58dd8d48988d128951735", "name": "Gift Shop", "pluralName": "Gift Shops", "shortName": "Gift Shop", "icon": {"prefix": "https://ss3.4sqi.net/img/categories_v2/shops/giftshop_", "suffix": ".png"}, "primary": true}], "photos": {"count": 0, "groups": []}}, "referralId": "e-0-4badf5aff964a520ce753be3-73"}, {"reasons": {"count": 0, "items": [{"summary": "This spot is popular", "type": "general", "reasonName": "globalInteractionReason"}]}, "venue": {"id": "5845c08ba598b36bfb244adf", "name": "Just Move Womens Gym", "location": {"address": "Bergmannstr. 5-7", "lat": 52.48969059, "lng": 13.3887032, "labeledLatLngs": [{"label": "display", "lat": 52.48969059, "lng": 13.3887032}], "distance": 444, "postalCode": "10961", "cc": "DE", "city": "Berlin", "state": "Berlin", "country": "Deutschland", "formattedAddress": ["Bergmannstr. 5-7", "10961 Berlin", "Deutschland"]}, "categories": [{"id": "4bf58dd8d48988d176941735", "name": "Gym", "pluralName": "Gyms", "shortName": "Gym", "icon": {"prefix": "https://ss3.4sqi.net/img/categories_v2/building/gym_", "suffix": ".png"}, "primary": true}], "photos": {"count": 0, "groups": []}, "venuePage": {"id": "558112306"}}, "referralId": "e-0-5845c08ba598b36bfb244adf-74"}, {"reasons": {"count": 0, "items": [{"summary": "This spot is popular", "type": "general", "reasonName": "globalInteractionReason"}]}, "venue": {"id": "4be1715c8dd062b5884a3e3c", "name": "Hotel Johann", "location": {"address": "Johanniterstr. 8", "lat": 52.495807603907636, "lng": 13.40007172201482, "labeledLatLngs": [{"label": "display", "lat": 52.495807603907636, "lng": 13.40007172201482}], "distance": 588, "postalCode": "10961", "cc": "DE", "city": "Berlin", "state": "Berlin", "country": "Deutschland", "formattedAddress": ["Johanniterstr. 8", "10961 Berlin", "Deutschland"]}, "categories": [{"id": "4bf58dd8d48988d1fa931735", "name": "Hotel", "pluralName": "Hotels", "shortName": "Hotel", "icon": {"prefix": "https://ss3.4sqi.net/img/categories_v2/travel/hotel_", "suffix": ".png"}, "primary": true}], "photos": {"count": 0, "groups": []}}, "referralId": "e-0-4be1715c8dd062b5884a3e3c-75"}, {"reasons": {"count": 0, "items": [{"summary": "This spot is popular", "type": "general", "reasonName": "globalInteractionReason"}]}, "venue": {"id": "4adcda7af964a5201c4721e3", "name": "Walzerlinksgestrickt", "location": {"address": "Am Tempelhofer Berg 7D", "lat": 52.4879, "lng": 13.38794, "labeledLatLngs": [{"label": "display", "lat": 52.4879, "lng": 13.38794}], "distance": 616, "postalCode": "10965", "cc": "DE", "city": "Berlin", "state": "Berlin", "country": "Deutschland", "formattedAddress": ["Am Tempelhofer Berg 7D", "10965 Berlin", "Deutschland"]}, "categories": [{"id": "4bf58dd8d48988d11f941735", "name": "Nightclub", "pluralName": "Nightclubs", "shortName": "Nightclub", "icon": {"prefix": "https://ss3.4sqi.net/img/categories_v2/nightlife/nightclub_", "suffix": ".png"}, "primary": true}], "photos": {"count": 0, "groups": []}}, "referralId": "e-0-4adcda7af964a5201c4721e3-76"}, {"reasons": {"count": 0, "items": [{"summary": "This spot is popular", "type": "general", "reasonName": "globalInteractionReason"}]}, "venue": {"id": "4b45dba2f964a520431126e3", "name": "Galander -Kreuzberg-", "location": {"address": "Gro\u00dfbeerenstr. 54", "lat": 52.49188747923842, "lng": 13.383150100708008, "labeledLatLngs": [{"label": "display", "lat": 52.49188747923842, "lng": 13.383150100708008}], "distance": 738, "postalCode": "10965", "cc": "DE", "city": "Berlin", "state": "Berlin", "country": "Deutschland", "formattedAddress": ["Gro\u00dfbeerenstr. 54", "10965 Berlin", "Deutschland"]}, "categories": [{"id": "4bf58dd8d48988d11e941735", "name": "Cocktail Bar", "pluralName": "Cocktail Bars", "shortName": "Cocktail", "icon": {"prefix": "https://ss3.4sqi.net/img/categories_v2/nightlife/cocktails_", "suffix": ".png"}, "primary": true}], "photos": {"count": 0, "groups": []}}, "referralId": "e-0-4b45dba2f964a520431126e3-77"}, {"reasons": {"count": 0, "items": [{"summary": "This spot is popular", "type": "general", "reasonName": "globalInteractionReason"}]}, "venue": {"id": "4eaae37399116a424a061e20", "name": "Other Nature", "location": {"address": "Mehringdamm 79", "lat": 52.48945436039269, "lng": 13.386316531699729, "labeledLatLngs": [{"label": "display", "lat": 52.48945436039269, "lng": 13.386316531699729}], "distance": 595, "postalCode": "10965", "cc": "DE", "city": "Berlin", "state": "Berlin", "country": "Deutschland", "formattedAddress": ["Mehringdamm 79", "10965 Berlin", "Deutschland"]}, "categories": [{"id": "5267e446e4b0ec79466e48c4", "name": "Adult Boutique", "pluralName": "Adult Boutiques", "shortName": "Adult Boutique", "icon": {"prefix": "https://ss3.4sqi.net/img/categories_v2/nightlife/stripclub_", "suffix": ".png"}, "primary": true}], "photos": {"count": 0, "groups": []}}, "referralId": "e-0-4eaae37399116a424a061e20-78"}, {"reasons": {"count": 0, "items": [{"summary": "This spot is popular", "type": "general", "reasonName": "globalInteractionReason"}]}, "venue": {"id": "4f2a54fae4b05b4a409236d3", "name": "BackHaus Liberda", "location": {"address": "F\u00fcrbringerstr. 30", "lat": 52.49323247694712, "lng": 13.394942212886129, "labeledLatLngs": [{"label": "display", "lat": 52.49323247694712, "lng": 13.394942212886129}], "distance": 149, "postalCode": "10961", "cc": "DE", "city": "Berlin", "state": "Berlin", "country": "Deutschland", "formattedAddress": ["F\u00fcrbringerstr. 30", "10961 Berlin", "Deutschland"]}, "categories": [{"id": "4bf58dd8d48988d16a941735", "name": "Bakery", "pluralName": "Bakeries", "shortName": "Bakery", "icon": {"prefix": "https://ss3.4sqi.net/img/categories_v2/food/bakery_", "suffix": ".png"}, "primary": true}], "photos": {"count": 0, "groups": []}}, "referralId": "e-0-4f2a54fae4b05b4a409236d3-79"}, {"reasons": {"count": 0, "items": [{"summary": "This spot is popular", "type": "general", "reasonName": "globalInteractionReason"}]}, "venue": {"id": "4f525814e4b023845e458b58", "name": "Uppers", "location": {"address": "Yorckstr. 3", "lat": 52.493141325624244, "lng": 13.38685145499177, "labeledLatLngs": [{"label": "display", "lat": 52.493141325624244, "lng": 13.38685145499177}], "distance": 503, "postalCode": "10965", "cc": "DE", "neighborhood": "Kreuzberg", "city": "Berlin", "state": "Berlin", "country": "Deutschland", "formattedAddress": ["Yorckstr. 3", "10965 Berlin", "Deutschland"]}, "categories": [{"id": "4bf58dd8d48988d1e0931735", "name": "Coffee Shop", "pluralName": "Coffee Shops", "shortName": "Coffee Shop", "icon": {"prefix": "https://ss3.4sqi.net/img/categories_v2/food/coffeeshop_", "suffix": ".png"}, "primary": true}], "photos": {"count": 0, "groups": []}}, "referralId": "e-0-4f525814e4b023845e458b58-80"}, {"reasons": {"count": 0, "items": [{"summary": "This spot is popular", "type": "general", "reasonName": "globalInteractionReason"}]}, "venue": {"id": "4e062a22ae60a90eabc106d1", "name": "Ital Eis Vanzella", "location": {"address": "Gneisenaustr. 2", "lat": 52.49285413640826, "lng": 13.388124349532928, "labeledLatLngs": [{"label": "display", "lat": 52.49285413640826, "lng": 13.388124349532928}], "distance": 411, "postalCode": "10961", "cc": "DE", "city": "Berlin", "state": "Berlin", "country": "Deutschland", "formattedAddress": ["Gneisenaustr. 2", "10961 Berlin", "Deutschland"]}, "categories": [{"id": "4bf58dd8d48988d1c9941735", "name": "Ice Cream Shop", "pluralName": "Ice Cream Shops", "shortName": "Ice Cream", "icon": {"prefix": "https://ss3.4sqi.net/img/categories_v2/food/icecream_", "suffix": ".png"}, "primary": true}], "photos": {"count": 0, "groups": []}}, "referralId": "e-0-4e062a22ae60a90eabc106d1-81"}, {"reasons": {"count": 0, "items": [{"summary": "This spot is popular", "type": "general", "reasonName": "globalInteractionReason"}]}, "venue": {"id": "4adcda86f964a520254921e3", "name": "Knofi Feinkost", "location": {"address": "Bergmannstr. 98", "lat": 52.48960008351723, "lng": 13.390725263479194, "labeledLatLngs": [{"label": "display", "lat": 52.48960008351723, "lng": 13.390725263479194}], "distance": 349, "postalCode": "10961", "cc": "DE", "city": "Berlin", "state": "Berlin", "country": "Deutschland", "formattedAddress": ["Bergmannstr. 98", "10961 Berlin", "Deutschland"]}, "categories": [{"id": "4bf58dd8d48988d1c0941735", "name": "Mediterranean Restaurant", "pluralName": "Mediterranean Restaurants", "shortName": "Mediterranean", "icon": {"prefix": "https://ss3.4sqi.net/img/categories_v2/food/mediterranean_", "suffix": ".png"}, "primary": true}], "photos": {"count": 0, "groups": []}}, "referralId": "e-0-4adcda86f964a520254921e3-82"}, {"reasons": {"count": 0, "items": [{"summary": "This spot is popular", "type": "general", "reasonName": "globalInteractionReason"}]}, "venue": {"id": "4adcda83f964a520bc4821e3", "name": "Altes Zollhaus", "location": {"address": "Carl-Herz-Ufer 30", "lat": 52.49659220630421, "lng": 13.40122178935574, "labeledLatLngs": [{"label": "display", "lat": 52.49659220630421, "lng": 13.40122178935574}], "distance": 705, "postalCode": "10961", "cc": "DE", "city": "Berlin", "state": "Berlin", "country": "Deutschland", "formattedAddress": ["Carl-Herz-Ufer 30", "10961 Berlin", "Deutschland"]}, "categories": [{"id": "4bf58dd8d48988d123941735", "name": "Wine Bar", "pluralName": "Wine Bars", "shortName": "Wine Bar", "icon": {"prefix": "https://ss3.4sqi.net/img/categories_v2/food/winery_", "suffix": ".png"}, "primary": true}], "photos": {"count": 0, "groups": []}}, "referralId": "e-0-4adcda83f964a520bc4821e3-83"}, {"reasons": {"count": 0, "items": [{"summary": "This spot is popular", "type": "general", "reasonName": "globalInteractionReason"}]}, "venue": {"id": "57dc2e13498ee69b642d3ed0", "name": "Der Vegetarische Metzger", "location": {"address": "Bergmannstr. 1", "lat": 52.48998776518904, "lng": 13.387545740348031, "labeledLatLngs": [{"label": "display", "lat": 52.48998776518904, "lng": 13.387545740348031}], "distance": 494, "postalCode": "10961", "cc": "DE", "neighborhood": "Bergmannkiez", "city": "Berlin", "state": "Berlin", "country": "Deutschland", "formattedAddress": ["Bergmannstr. 1", "10961 Berlin", "Deutschland"]}, "categories": [{"id": "4bf58dd8d48988d1d3941735", "name": "Vegetarian / Vegan Restaurant", "pluralName": "Vegetarian / Vegan Restaurants", "shortName": "Vegetarian / Vegan", "icon": {"prefix": "https://ss3.4sqi.net/img/categories_v2/food/vegetarian_", "suffix": ".png"}, "primary": true}], "photos": {"count": 0, "groups": []}}, "referralId": "e-0-57dc2e13498ee69b642d3ed0-84"}, {"reasons": {"count": 0, "items": [{"summary": "This spot is popular", "type": "general", "reasonName": "globalInteractionReason"}]}, "venue": {"id": "4da9d6494df01c19b17b7785", "name": "Castel Montecroce", "location": {"address": "Friesenstr.14", "lat": 52.48587230942307, "lng": 13.394190551080005, "labeledLatLngs": [{"label": "display", "lat": 52.48587230942307, "lng": 13.394190551080005}], "distance": 682, "postalCode": "10965", "cc": "DE", "city": "Berlin", "state": "Berlin", "country": "Deutschland", "formattedAddress": ["Friesenstr.14", "10965 Berlin", "Deutschland"]}, "categories": [{"id": "4bf58dd8d48988d110941735", "name": "Italian Restaurant", "pluralName": "Italian Restaurants", "shortName": "Italian", "icon": {"prefix": "https://ss3.4sqi.net/img/categories_v2/food/italian_", "suffix": ".png"}, "primary": true}], "photos": {"count": 0, "groups": []}}, "referralId": "e-0-4da9d6494df01c19b17b7785-85"}, {"reasons": {"count": 0, "items": [{"summary": "This spot is popular", "type": "general", "reasonName": "globalInteractionReason"}]}, "venue": {"id": "5604326e498e3a95f6711614", "name": "Dolden M\u00e4del", "location": {"address": "Mehringdamm 80", "lat": 52.489686125841004, "lng": 13.385982514086626, "labeledLatLngs": [{"label": "display", "lat": 52.489686125841004, "lng": 13.385982514086626}], "distance": 604, "postalCode": "10965", "cc": "DE", "city": "Berlin", "state": "Berlin", "country": "Deutschland", "formattedAddress": ["Mehringdamm 80", "10965 Berlin", "Deutschland"]}, "categories": [{"id": "56aa371ce4b08b9a8d57356c", "name": "Beer Bar", "pluralName": "Beer Bars", "shortName": "Beer Bar", "icon": {"prefix": "https://ss3.4sqi.net/img/categories_v2/nightlife/pub_", "suffix": ".png"}, "primary": true}], "photos": {"count": 0, "groups": []}}, "referralId": "e-0-5604326e498e3a95f6711614-86"}, {"reasons": {"count": 0, "items": [{"summary": "This spot is popular", "type": "general", "reasonName": "globalInteractionReason"}]}, "venue": {"id": "4adcda8df964a520534a21e3", "name": "English Theatre Berlin", "location": {"address": "Fidicinstr. 40", "lat": 52.48746608506097, "lng": 13.388444153817387, "labeledLatLngs": [{"label": "display", "lat": 52.48746608506097, "lng": 13.388444153817387}], "distance": 631, "postalCode": "10965", "cc": "DE", "city": "Berlin", "state": "Berlin", "country": "Deutschland", "formattedAddress": ["Fidicinstr. 40", "10965 Berlin", "Deutschland"]}, "categories": [{"id": "4bf58dd8d48988d137941735", "name": "Theater", "pluralName": "Theaters", "shortName": "Theater", "icon": {"prefix": "https://ss3.4sqi.net/img/categories_v2/arts_entertainment/performingarts_theater_", "suffix": ".png"}, "primary": true}], "photos": {"count": 0, "groups": []}}, "referralId": "e-0-4adcda8df964a520534a21e3-87"}, {"reasons": {"count": 0, "items": [{"summary": "This spot is popular", "type": "general", "reasonName": "globalInteractionReason"}]}, "venue": {"id": "4e4fd7d418a8af30fd8a8978", "name": "Checkpoint & Cinema", "location": {"address": "Mehringdamm 41", "lat": 52.49222957312582, "lng": 13.38777139281792, "labeledLatLngs": [{"label": "display", "lat": 52.49222957312582, "lng": 13.38777139281792}], "distance": 425, "postalCode": "10961", "cc": "DE", "city": "Berlin", "state": "Berlin", "country": "Deutschland", "formattedAddress": ["Mehringdamm 41", "10961 Berlin", "Deutschland"]}, "categories": [{"id": "4bf58dd8d48988d103951735", "name": "Clothing Store", "pluralName": "Clothing Stores", "shortName": "Apparel", "icon": {"prefix": "https://ss3.4sqi.net/img/categories_v2/shops/apparel_", "suffix": ".png"}, "primary": true}], "photos": {"count": 0, "groups": []}}, "referralId": "e-0-4e4fd7d418a8af30fd8a8978-88"}, {"reasons": {"count": 0, "items": [{"summary": "This spot is popular", "type": "general", "reasonName": "globalInteractionReason"}]}, "venue": {"id": "4ea4775a9adff6343a8414a0", "name": "Der Boiler", "location": {"address": "Mehringdamm 34", "lat": 52.49364507838625, "lng": 13.387473068265193, "labeledLatLngs": [{"label": "display", "lat": 52.49364507838625, "lng": 13.387473068265193}], "distance": 481, "postalCode": "10963", "cc": "DE", "city": "Berlin", "state": "Berlin", "country": "Deutschland", "formattedAddress": ["Mehringdamm 34", "10963 Berlin", "Deutschland"]}, "categories": [{"id": "52e81612bcbc57f1066b7a27", "name": "Bath House", "pluralName": "Bath Houses", "shortName": "Bath House", "icon": {"prefix": "https://ss3.4sqi.net/img/categories_v2/parks_outdoors/neighborhood_", "suffix": ".png"}, "primary": true}], "photos": {"count": 0, "groups": []}}, "referralId": "e-0-4ea4775a9adff6343a8414a0-89"}, {"reasons": {"count": 0, "items": [{"summary": "This spot is popular", "type": "general", "reasonName": "globalInteractionReason"}]}, "venue": {"id": "4b3b978af964a520907625e3", "name": "Good Morning Vietnam", "location": {"address": "Bergmannstr. 102", "lat": 52.49018038134206, "lng": 13.389255928899228, "labeledLatLngs": [{"label": "display", "lat": 52.49018038134206, "lng": 13.389255928899228}], "distance": 382, "postalCode": "10961", "cc": "DE", "city": "Berlin", "state": "Berlin", "country": "Deutschland", "formattedAddress": ["Bergmannstr. 102", "10961 Berlin", "Deutschland"]}, "categories": [{"id": "4bf58dd8d48988d14a941735", "name": "Vietnamese Restaurant", "pluralName": "Vietnamese Restaurants", "shortName": "Vietnamese", "icon": {"prefix": "https://ss3.4sqi.net/img/categories_v2/food/vietnamese_", "suffix": ".png"}, "primary": true}], "photos": {"count": 0, "groups": []}}, "referralId": "e-0-4b3b978af964a520907625e3-90"}, {"reasons": {"count": 0, "items": [{"summary": "This spot is popular", "type": "general", "reasonName": "globalInteractionReason"}]}, "venue": {"id": "4adcda8df964a520704a21e3", "name": "Arcanoa", "location": {"address": "Am Tempelhofer Berg 8", "lat": 52.48784876406445, "lng": 13.38661245564954, "labeledLatLngs": [{"label": "display", "lat": 52.48784876406445, "lng": 13.38661245564954}], "distance": 683, "postalCode": "10965", "cc": "DE", "city": "Berlin", "state": "Berlin", "country": "Deutschland", "formattedAddress": ["Am Tempelhofer Berg 8", "10965 Berlin", "Deutschland"]}, "categories": [{"id": "4bf58dd8d48988d1e5931735", "name": "Music Venue", "pluralName": "Music Venues", "shortName": "Music Venue", "icon": {"prefix": "https://ss3.4sqi.net/img/categories_v2/arts_entertainment/musicvenue_", "suffix": ".png"}, "primary": true}], "photos": {"count": 0, "groups": []}}, "referralId": "e-0-4adcda8df964a520704a21e3-91"}, {"reasons": {"count": 0, "items": [{"summary": "This spot is popular", "type": "general", "reasonName": "globalInteractionReason"}]}, "venue": {"id": "4bf28a7620960f4752576e2f", "name": "Alnatura", "location": {"address": "Schleiermacherstr. 25", "lat": 52.48943036448085, "lng": 13.39751565087003, "labeledLatLngs": [{"label": "display", "lat": 52.48943036448085, "lng": 13.39751565087003}], "distance": 371, "postalCode": "10961", "cc": "DE", "city": "Berlin", "state": "Berlin", "country": "Deutschland", "formattedAddress": ["Schleiermacherstr. 25", "10961 Berlin", "Deutschland"]}, "categories": [{"id": "52f2ab2ebcbc57f1066b8b45", "name": "Organic Grocery", "pluralName": "Organic Groceries", "shortName": "Organic Grocery", "icon": {"prefix": "https://ss3.4sqi.net/img/categories_v2/shops/food_grocery_", "suffix": ".png"}, "primary": true}], "photos": {"count": 0, "groups": []}}, "referralId": "e-0-4bf28a7620960f4752576e2f-92"}, {"reasons": {"count": 0, "items": [{"summary": "This spot is popular", "type": "general", "reasonName": "globalInteractionReason"}]}, "venue": {"id": "4adcda7af964a520064721e3", "name": "Yorckschl\u00f6sschen", "location": {"address": "Yorckstr. 15", "lat": 52.493614967122426, "lng": 13.38253056057901, "labeledLatLngs": [{"label": "display", "lat": 52.493614967122426, "lng": 13.38253056057901}], "distance": 800, "postalCode": "10965", "cc": "DE", "city": "Berlin", "state": "Berlin", "country": "Deutschland", "formattedAddress": ["Yorckstr. 15", "10965 Berlin", "Deutschland"]}, "categories": [{"id": "4bf58dd8d48988d1e7931735", "name": "Jazz Club", "pluralName": "Jazz Clubs", "shortName": "Jazz Club", "icon": {"prefix": "https://ss3.4sqi.net/img/categories_v2/arts_entertainment/musicvenue_jazzclub_", "suffix": ".png"}, "primary": true}], "photos": {"count": 0, "groups": []}}, "referralId": "e-0-4adcda7af964a520064721e3-93"}, {"reasons": {"count": 0, "items": [{"summary": "This spot is popular", "type": "general", "reasonName": "globalInteractionReason"}]}, "venue": {"id": "4b604f4af964a520e3de29e3", "name": "Vereinszimmer", "location": {"address": "Kreuzbergstr. 15", "crossStreet": "Gro\u00dfbeerenstr.", "lat": 52.48997530778077, "lng": 13.382356509117415, "labeledLatLngs": [{"label": "display", "lat": 52.48997530778077, "lng": 13.382356509117415}], "distance": 823, "postalCode": "10965", "cc": "DE", "city": "Berlin", "state": "Berlin", "country": "Deutschland", "formattedAddress": ["Kreuzbergstr. 15 (Gro\u00dfbeerenstr.)", "10965 Berlin", "Deutschland"]}, "categories": [{"id": "4bf58dd8d48988d110941735", "name": "Italian Restaurant", "pluralName": "Italian Restaurants", "shortName": "Italian", "icon": {"prefix": "https://ss3.4sqi.net/img/categories_v2/food/italian_", "suffix": ".png"}, "primary": true}], "photos": {"count": 0, "groups": []}}, "referralId": "e-0-4b604f4af964a520e3de29e3-94"}, {"reasons": {"count": 0, "items": [{"summary": "This spot is popular", "type": "general", "reasonName": "globalInteractionReason"}]}, "venue": {"id": "556991f4498e5bcca4df4369", "name": "Kaffee Diele", "location": {"address": "Gro\u00dfbeerenstr. 36", "lat": 52.49179929030974, "lng": 13.382624387741089, "labeledLatLngs": [{"label": "display", "lat": 52.49179929030974, "lng": 13.382624387741089}], "distance": 774, "postalCode": "10965", "cc": "DE", "city": "Berlin", "state": "Berlin", "country": "Deutschland", "formattedAddress": ["Gro\u00dfbeerenstr. 36", "10965 Berlin", "Deutschland"]}, "categories": [{"id": "4bf58dd8d48988d16d941735", "name": "Caf\u00e9", "pluralName": "Caf\u00e9s", "shortName": "Caf\u00e9", "icon": {"prefix": "https://ss3.4sqi.net/img/categories_v2/food/cafe_", "suffix": ".png"}, "primary": true}], "photos": {"count": 0, "groups": []}}, "referralId": "e-0-556991f4498e5bcca4df4369-95"}, {"reasons": {"count": 0, "items": [{"summary": "This spot is popular", "type": "general", "reasonName": "globalInteractionReason"}]}, "venue": {"id": "4adcda90f964a520594b21e3", "name": "Ararat", "location": {"address": "Bergmannstr. 99a", "lat": 52.489635316491196, "lng": 13.390355304644217, "labeledLatLngs": [{"label": "display", "lat": 52.489635316491196, "lng": 13.390355304644217}], "distance": 363, "postalCode": "10961", "cc": "DE", "city": "Berlin", "state": "Berlin", "country": "Deutschland", "formattedAddress": ["Bergmannstr. 99a", "10961 Berlin", "Deutschland"]}, "categories": [{"id": "4bf58dd8d48988d128951735", "name": "Gift Shop", "pluralName": "Gift Shops", "shortName": "Gift Shop", "icon": {"prefix": "https://ss3.4sqi.net/img/categories_v2/shops/giftshop_", "suffix": ".png"}, "primary": true}], "photos": {"count": 0, "groups": []}}, "referralId": "e-0-4adcda90f964a520594b21e3-96"}, {"reasons": {"count": 0, "items": [{"summary": "This spot is popular", "type": "general", "reasonName": "globalInteractionReason"}]}, "venue": {"id": "4badf008f964a52000743be3", "name": "SoLuna Brot und \u00d6l", "location": {"address": "Gneisenaustr. 58", "lat": 52.48967227214418, "lng": 13.40434042428165, "labeledLatLngs": [{"label": "display", "lat": 52.48967227214418, "lng": 13.40434042428165}], "distance": 744, "postalCode": "10961", "cc": "DE", "city": "Berlin", "state": "Berlin", "country": "Deutschland", "formattedAddress": ["Gneisenaustr. 58", "10961 Berlin", "Deutschland"]}, "categories": [{"id": "4bf58dd8d48988d16a941735", "name": "Bakery", "pluralName": "Bakeries", "shortName": "Bakery", "icon": {"prefix": "https://ss3.4sqi.net/img/categories_v2/food/bakery_", "suffix": ".png"}, "primary": true}], "photos": {"count": 0, "groups": []}}, "referralId": "e-0-4badf008f964a52000743be3-97"}, {"reasons": {"count": 0, "items": [{"summary": "This spot is popular", "type": "general", "reasonName": "globalInteractionReason"}]}, "venue": {"id": "4cb9d94043ec6dcb5810a031", "name": "Videodrom", "location": {"address": "Friesenstr. 11", "lat": 52.48778067431334, "lng": 13.394535640702083, "labeledLatLngs": [{"label": "display", "lat": 52.48778067431334, "lng": 13.394535640702083}], "distance": 471, "postalCode": "10965", "cc": "DE", "city": "Berlin", "state": "Berlin", "country": "Deutschland", "formattedAddress": ["Friesenstr. 11", "10965 Berlin", "Deutschland"]}, "categories": [{"id": "4bf58dd8d48988d126951735", "name": "Video Store", "pluralName": "Video Stores", "shortName": "Video Store", "icon": {"prefix": "https://ss3.4sqi.net/img/categories_v2/shops/video_", "suffix": ".png"}, "primary": true}], "photos": {"count": 0, "groups": []}}, "referralId": "e-0-4cb9d94043ec6dcb5810a031-98"}, {"reasons": {"count": 0, "items": [{"summary": "This spot is popular", "type": "general", "reasonName": "globalInteractionReason"}]}, "venue": {"id": "4adcda7af964a520234721e3", "name": "Passionskirche", "location": {"address": "Marheinekeplatz 1-3", "lat": 52.489317757316016, "lng": 13.397037189014016, "labeledLatLngs": [{"label": "display", "lat": 52.489317757316016, "lng": 13.397037189014016}], "distance": 361, "postalCode": "10961", "cc": "DE", "city": "Berlin", "state": "Berlin", "country": "Deutschland", "formattedAddress": ["Marheinekeplatz 1-3", "10961 Berlin", "Deutschland"]}, "categories": [{"id": "4bf58dd8d48988d132941735", "name": "Church", "pluralName": "Churches", "shortName": "Church", "icon": {"prefix": "https://ss3.4sqi.net/img/categories_v2/building/religious_church_", "suffix": ".png"}, "primary": true}], "photos": {"count": 0, "groups": []}}, "referralId": "e-0-4adcda7af964a520234721e3-99"}]