[{"reasons": {"count": 0, "items": [{"summary": "This spot is popular", "type": "general", "reasonName": "globalInteractionReason"}]}, "venue": {"id": "4dc6a71fc65b89d3ca8c5d2e", "name": "Rosengarten", "location": {"address": "Stra\u00dfe des 17. Juni", "crossStreet": "Tiergarten", "lat": 52.513972285563135, "lng": 13.35688796731381, "labeledLatLngs": [{"label": "display", "lat": 52.513972285563135, "lng": 13.35688796731381}], "distance": 401, "postalCode": "10787", "cc": "DE", "city": "Berlin", "state": "Berlin", "country": "Deutschland", "formattedAddress": ["Stra\u00dfe des 17. Juni (Tiergarten)", "10787 Berlin", "Deutschland"]}, "categories": [{"id": "4bf58dd8d48988d15a941735", "name": "Garden", "pluralName": "Gardens", "shortName": "Garden", "icon": {"prefix": "https://ss3.4sqi.net/img/categories_v2/parks_outdoors/garden_", "suffix": ".png"}, "primary": true}], "photos": {"count": 0, "groups": []}}, "referralId": "e-0-4dc6a71fc65b89d3ca8c5d2e-0"}, {"reasons": {"count": 0, "items": [{"summary": "This spot is popular", "type": "general", "reasonName": "globalInteractionReason"}]}, "venue": {"id": "4bbdea8c8a4fb71387863d9d", "name": "Tiergarten", "location": {"address": "Stra\u00dfe des 17. Juni", "lat": 52.51462778550934, "lng": 13.357207775115967, "labeledLatLngs": [{"label": "display", "lat": 52.51462778550934, "lng": 13.357207775115967}], "distance": 469, "postalCode": "10785", "cc": "DE", "city": "Berlin", "state": "Berlin", "country": "Deutschland", "formattedAddress": ["Stra\u00dfe des 17. Juni", "10785 Berlin", "Deutschland"]}, "categories": [{"id": "4bf58dd8d48988d163941735", "name": "Park", "pluralName": "Parks", "shortName": "Park", "icon": {"prefix": "https://ss3.4sqi.net/img/categories_v2/parks_outdoors/park_", "suffix": ".png"}, "primary": true}], "photos": {"count": 0, "groups": []}}, "referralId": "e-0-4bbdea8c8a4fb71387863d9d-1"}, {"reasons": {"count": 0, "items": [{"summary": "This spot is popular", "type": "general", "reasonName": "globalInteractionReason"}]}, "venue": {"id": "4d569b73b4deb1f70bcb127a", "name": "Luiseninsel", "location": {"address": "Tiergartenstr.", "lat": 52.51091480493819, "lng": 13.364304521528554, "labeledLatLngs": [{"label": "display", "lat": 52.51091480493819, "lng": 13.364304521528554}], "distance": 417, "postalCode": "10787", "cc": "DE", "city": "Berlin", "state": "Berlin", "country": "Deutschland", "formattedAddress": ["Tiergartenstr.", "10787 Berlin", "Deutschland"]}, "categories": [{"id": "4bf58dd8d48988d166941735", "name": "Sculpture Garden", "pluralName": "Sculpture Gardens", "shortName": "Sculpture", "icon": {"prefix": "https://ss3.4sqi.net/img/categories_v2/parks_outdoors/sculpture_", "suffix": ".png"}, "primary": true}], "photos": {"count": 0, "groups": []}}, "referralId": "e-0-4d569b73b4deb1f70bcb127a-2"}, {"reasons": {"count": 0, "items": [{"summary": "This spot is popular", "type": "general", "reasonName": "globalInteractionReason"}]}, "venue": {"id": "4adcda83f964a520934821e3", "name": "Gem\u00e4ldegalerie", "location": {"address": "Matth\u00e4ikirchplatz 8", "lat": 52.50896347323177, "lng": 13.366553250421635, "labeledLatLngs": [{"label": "display", "lat": 52.50896347323177, "lng": 13.366553250421635}], "distance": 590, "postalCode": "10785", "cc": "DE", "city": "Berlin", "state": "Berlin", "country": "Deutschland", "formattedAddress": ["Matth\u00e4ikirchplatz 8", "10785 Berlin", "Deutschland"]}, "categories": [{"id": "4bf58dd8d48988d18f941735", "name": "Art Museum", "pluralName": "Art Museums", "shortName": "Art Museum", "icon": {"prefix": "https://ss3.4sqi.net/img/categories_v2/arts_entertainment/museum_art_", "suffix": ".png"}, "primary": true}], "photos": {"count": 0, "groups": []}}, "referralId": "e-0-4adcda83f964a520934821e3-3"}, {"reasons": {"count": 0, "items": [{"summary": "This spot is popular", "type": "general", "reasonName": "globalInteractionReason"}]}, "venue": {"id": "4b28a7ecf964a5207d9424e3", "name": "Gedenkst\u00e4tte Deutscher Widerstand", "location": {"address": "Stauffenbergstr. 13-14", "lat": 52.50763431211695, "lng": 13.363169236520958, "labeledLatLngs": [{"label": "display", "lat": 52.50763431211695, "lng": 13.363169236520958}], "distance": 460, "postalCode": "10785", "cc": "DE", "city": "Berlin", "state": "Berlin", "country": "Deutschland", "formattedAddress": ["Stauffenbergstr. 13-14", "10785 Berlin", "Deutschland"]}, "categories": [{"id": "5642206c498e4bfca532186c", "name": "Memorial Site", "pluralName": "Memorial Sites", "shortName": "Memorial Site", "icon": {"prefix": "https://ss3.4sqi.net/img/categories_v2/arts_entertainment/historicsite_", "suffix": ".png"}, "primary": true}], "photos": {"count": 0, "groups": []}}, "referralId": "e-0-4b28a7ecf964a5207d9424e3-4"}, {"reasons": {"count": 0, "items": [{"summary": "This spot is popular", "type": "general", "reasonName": "globalInteractionReason"}]}, "venue": {"id": "4a1d02fbf964a520667b1fe3", "name": "Siegess\u00e4ule", "location": {"address": "Gro\u00dfer Stern 1", "crossStreet": "Stra\u00dfe des 17. Juni", "lat": 52.51448740902706, "lng": 13.35011601448059, "labeledLatLngs": [{"label": "display", "lat": 52.51448740902706, "lng": 13.35011601448059}], "distance": 707, "postalCode": "10785", "cc": "DE", "city": "Berlin", "state": "Berlin", "country": "Deutschland", "formattedAddress": ["Gro\u00dfer Stern 1 (Stra\u00dfe des 17. Juni)", "10785 Berlin", "Deutschland"]}, "categories": [{"id": "4bf58dd8d48988d12d941735", "name": "Monument / Landmark", "pluralName": "Monuments / Landmarks", "shortName": "Landmark", "icon": {"prefix": "https://ss3.4sqi.net/img/categories_v2/building/government_monument_", "suffix": ".png"}, "primary": true}], "photos": {"count": 0, "groups": []}}, "referralId": "e-0-4a1d02fbf964a520667b1fe3-5"}, {"reasons": {"count": 0, "items": [{"summary": "This spot is popular", "type": "general", "reasonName": "globalInteractionReason"}]}, "venue": {"id": "4adcda8bf964a520e34921e3", "name": "Kammermusiksaal | Chamber Music Hall (Kammermusiksaal)", "location": {"address": "Herbert-von-Karajan-Str. 1", "lat": 52.50941070233693, "lng": 13.368934392929077, "labeledLatLngs": [{"label": "display", "lat": 52.50941070233693, "lng": 13.368934392929077}], "distance": 737, "postalCode": "10785", "cc": "DE", "city": "Berlin", "state": "Berlin", "country": "Deutschland", "formattedAddress": ["Herbert-von-Karajan-Str. 1", "10785 Berlin", "Deutschland"]}, "categories": [{"id": "5032792091d4c4b30a586d5c", "name": "Concert Hall", "pluralName": "Concert Halls", "shortName": "Concert Hall", "icon": {"prefix": "https://ss3.4sqi.net/img/categories_v2/arts_entertainment/musicvenue_", "suffix": ".png"}, "primary": true}], "photos": {"count": 0, "groups": []}}, "referralId": "e-0-4adcda8bf964a520e34921e3-6"}, {"reasons": {"count": 0, "items": [{"summary": "This spot is popular", "type": "general", "reasonName": "globalInteractionReason"}]}, "venue": {"id": "4adcda88f964a5208a4921e3", "name": "Philharmonie", "location": {"address": "Herbert-von-Karajan-Str. 1", "crossStreet": "Tiergartenstr.", "lat": 52.509975, "lng": 13.369776, "labeledLatLngs": [{"label": "display", "lat": 52.509975, "lng": 13.369776}], "distance": 786, "postalCode": "10785", "cc": "DE", "city": "Berlin", "state": "Berlin", "country": "Deutschland", "formattedAddress": ["Herbert-von-Karajan-Str. 1 (Tiergartenstr.)", "10785 Berlin", "Deutschland"]}, "categories": [{"id": "5032792091d4c4b30a586d5c", "name": "Concert Hall", "pluralName": "Concert Halls", "shortName": "Concert Hall", "icon": {"prefix": "https://ss3.4sqi.net/img/categories_v2/arts_entertainment/musicvenue_", "suffix": ".png"}, "primary": true}], "photos": {"count": 0, "groups": []}}, "referralId": "e-0-4adcda88f964a5208a4921e3-7"}, {"reasons": {"count": 0, "items": [{"summary": "This spot is popular", "type": "general", "reasonName": "globalInteractionReason"}]}, "venue": {"id": "50a293bbe4b02a26c0e32ccf", "name": "Das Stue", "location": {"address": "Drakestr. 1", "crossStreet": "Rauchstr.", "lat": 52.509876037195404, "lng": 13.346076418149446, "labeledLatLngs": [{"label": "display", "lat": 52.509876037195404, "lng": 13.346076418149446}], "distance": 823, "postalCode": "10787", "cc": "DE", "neighborhood": "Tiergarten", "city": "Berlin", "state": "Berlin", "country": "Deutschland", "formattedAddress": ["Drakestr. 1 (Rauchstr.)", "10787 Berlin", "Deutschland"]}, "categories": [{"id": "4bf58dd8d48988d1fa931735", "name": "Hotel", "pluralName": "Hotels", "shortName": "Hotel", "icon": {"prefix": "https://ss3.4sqi.net/img/categories_v2/travel/hotel_", "suffix": ".png"}, "primary": true}], "photos": {"count": 0, "groups": []}, "venuePage": {"id": "44703438"}}, "referralId": "e-0-50a293bbe4b02a26c0e32ccf-8"}, {"reasons": {"count": 0, "items": [{"summary": "This spot is popular", "type": "general", "reasonName": "globalInteractionReason"}]}, "venue": {"id": "4c9b9437d4b1b1f74c39da35", "name": "Kulturforum", "location": {"address": "Matth\u00e4ikirchplatz", "crossStreet": "Potsdamer Str.", "lat": 52.50861404689629, "lng": 13.367759585380554, "labeledLatLngs": [{"label": "display", "lat": 52.50861404689629, "lng": 13.367759585380554}], "distance": 679, "postalCode": "10785", "cc": "DE", "city": "Berlin", "state": "Berlin", "country": "Deutschland", "formattedAddress": ["Matth\u00e4ikirchplatz (Potsdamer Str.)", "10785 Berlin", "Deutschland"]}, "categories": [{"id": "4bf58dd8d48988d164941735", "name": "Plaza", "pluralName": "Plazas", "shortName": "Plaza", "icon": {"prefix": "https://ss3.4sqi.net/img/categories_v2/parks_outdoors/plaza_", "suffix": ".png"}, "primary": true}], "photos": {"count": 0, "groups": []}}, "referralId": "e-0-4c9b9437d4b1b1f74c39da35-9"}, {"reasons": {"count": 0, "items": [{"summary": "This spot is popular", "type": "general", "reasonName": "globalInteractionReason"}]}, "venue": {"id": "5954aac62be42574ce70047a", "name": "My Deli Love", "location": {"address": "L\u00fctzowstr. 46", "lat": 52.504892, "lng": 13.356763, "labeledLatLngs": [{"label": "display", "lat": 52.504892, "lng": 13.356763}], "distance": 626, "postalCode": "10785", "cc": "DE", "neighborhood": "Mitte", "city": "Berlin", "state": "Berlin", "country": "Deutschland", "formattedAddress": ["L\u00fctzowstr. 46", "10785 Berlin", "Deutschland"]}, "categories": [{"id": "4bf58dd8d48988d146941735", "name": "Deli / Bodega", "pluralName": "Delis / Bodegas", "shortName": "Deli / Bodega", "icon": {"prefix": "https://ss3.4sqi.net/img/categories_v2/food/deli_", "suffix": ".png"}, "primary": true}], "photos": {"count": 0, "groups": []}}, "referralId": "e-0-5954aac62be42574ce70047a-10"}, {"reasons": {"count": 0, "items": [{"summary": "This spot is popular", "type": "general", "reasonName": "globalInteractionReason"}]}, "venue": {"id": "58c30b2afef5fa18fbbc4b1f", "name": "Kin Dee", "location": {"address": "L\u00fctzowstra\u00dfe 81", "lat": 52.50361954900821, "lng": 13.362411910769733, "labeledLatLngs": [{"label": "display", "lat": 52.50361954900821, "lng": 13.362411910769733}], "distance": 812, "postalCode": "10785", "cc": "DE", "city": "Berlin Sch\u00f6neberg", "state": "Berlin", "country": "Deutschland", "formattedAddress": ["L\u00fctzowstra\u00dfe 81", "10785 Sch\u00f6neberg", "Deutschland"]}, "categories": [{"id": "4bf58dd8d48988d149941735", "name": "Thai Restaurant", "pluralName": "Thai Restaurants", "shortName": "Thai", "icon": {"prefix": "https://ss3.4sqi.net/img/categories_v2/food/thai_", "suffix": ".png"}, "primary": true}], "photos": {"count": 0, "groups": []}}, "referralId": "e-0-58c30b2afef5fa18fbbc4b1f-11"}, {"reasons": {"count": 0, "items": [{"summary": "This spot is popular", "type": "general", "reasonName": "globalInteractionReason"}]}, "venue": {"id": "5a085235a6031c521d54f88b", "name": "Stue Bar", "location": {"lat": 52.50988463626737, "lng": 13.34611940368442, "labeledLatLngs": [{"label": "display", "lat": 52.50988463626737, "lng": 13.34611940368442}], "distance": 820, "cc": "DE", "city": "Berlin", "state": "Berlin", "country": "Deutschland", "formattedAddress": ["Berlin", "Deutschland"]}, "categories": [{"id": "4bf58dd8d48988d1d5941735", "name": "Hotel Bar", "pluralName": "Hotel Bars", "shortName": "Hotel Bar", "icon": {"prefix": "https://ss3.4sqi.net/img/categories_v2/travel/hotel_bar_", "suffix": ".png"}, "primary": true}], "photos": {"count": 0, "groups": []}}, "referralId": "e-0-5a085235a6031c521d54f88b-12"}, {"reasons": {"count": 0, "items": [{"summary": "This spot is popular", "type": "general", "reasonName": "globalInteractionReason"}]}, "venue": {"id": "4bd5b7cd29eb9c7420c293e1", "name": "Gro\u00dfer Stern", "location": {"address": "Stra\u00dfe des 17. Juni", "crossStreet": "Hofj\u00e4gerallee", "lat": 52.51451026104312, "lng": 13.35014820098877, "labeledLatLngs": [{"label": "display", "lat": 52.51451026104312, "lng": 13.35014820098877}], "distance": 707, "postalCode": "10785", "cc": "DE", "city": "Berlin", "state": "Berlin", "country": "Deutschland", "formattedAddress": ["Stra\u00dfe des 17. Juni (Hofj\u00e4gerallee)", "10785 Berlin", "Deutschland"]}, "categories": [{"id": "4bf58dd8d48988d164941735", "name": "Plaza", "pluralName": "Plazas", "shortName": "Plaza", "icon": {"prefix": "https://ss3.4sqi.net/img/categories_v2/parks_outdoors/plaza_", "suffix": ".png"}, "primary": true}], "photos": {"count": 0, "groups": []}}, "referralId": "e-0-4bd5b7cd29eb9c7420c293e1-13"}, {"reasons": {"count": 0, "items": [{"summary": "This spot is popular", "type": "general", "reasonName": "globalInteractionReason"}]}, "venue": {"id": "4c90ec0f104a95212a5de8a9", "name": "Pestana Berlin Tiergarten", "location": {"address": "St\u00fclerstr. 6", "crossStreet": "Rauchstr.", "lat": 52.50834688619156, "lng": 13.34896141126576, "labeledLatLngs": [{"label": "display", "lat": 52.50834688619156, "lng": 13.34896141126576}], "distance": 668, "postalCode": "10787", "cc": "DE", "city": "Berlin", "state": "Berlin", "country": "Deutschland", "formattedAddress": ["St\u00fclerstr. 6 (Rauchstr.)", "10787 Berlin", "Deutschland"]}, "categories": [{"id": "4bf58dd8d48988d1fa931735", "name": "Hotel", "pluralName": "Hotels", "shortName": "Hotel", "icon": {"prefix": "https://ss3.4sqi.net/img/categories_v2/travel/hotel_", "suffix": ".png"}, "primary": true}], "photos": {"count": 0, "groups": []}}, "referralId": "e-0-4c90ec0f104a95212a5de8a9-14"}, {"reasons": {"count": 0, "items": [{"summary": "This spot is popular", "type": "general", "reasonName": "globalInteractionReason"}]}, "venue": {"id": "4c94f8a203413704291b77ef", "name": "Harry's New York Bar", "location": {"address": "L\u00fctzowufer 15", "crossStreet": "Grand Hotel Esplanade", "lat": 52.50577327676405, "lng": 13.354751696063293, "labeledLatLngs": [{"label": "display", "lat": 52.50577327676405, "lng": 13.354751696063293}], "distance": 570, "postalCode": "10785", "cc": "DE", "city": "Berlin", "state": "Berlin", "country": "Deutschland", "formattedAddress": ["L\u00fctzowufer 15 (Grand Hotel Esplanade)", "10785 Berlin", "Deutschland"]}, "categories": [{"id": "4bf58dd8d48988d1d5941735", "name": "Hotel Bar", "pluralName": "Hotel Bars", "shortName": "Hotel Bar", "icon": {"prefix": "https://ss3.4sqi.net/img/categories_v2/travel/hotel_bar_", "suffix": ".png"}, "primary": true}], "photos": {"count": 0, "groups": []}, "venuePage": {"id": "34655231"}}, "referralId": "e-0-4c94f8a203413704291b77ef-15"}, {"reasons": {"count": 0, "items": [{"summary": "This spot is popular", "type": "general", "reasonName": "globalInteractionReason"}]}, "venue": {"id": "4b832300f964a520c6f930e3", "name": "Club Olympus Spa & Fitness", "location": {"address": "Marlene-Dietrich-Platz 2", "lat": 52.508416046461036, "lng": 13.371992577590902, "labeledLatLngs": [{"label": "display", "lat": 52.508416046461036, "lng": 13.371992577590902}], "distance": 962, "postalCode": "10785", "cc": "DE", "city": "Berlin", "state": "Berlin", "country": "Deutschland", "formattedAddress": ["Marlene-Dietrich-Platz 2", "10785 Berlin", "Deutschland"]}, "categories": [{"id": "4bf58dd8d48988d175941735", "name": "Gym / Fitness Center", "pluralName": "Gyms or Fitness Centers", "shortName": "Gym / Fitness", "icon": {"prefix": "https://ss3.4sqi.net/img/categories_v2/building/gym_", "suffix": ".png"}, "primary": true}], "photos": {"count": 0, "groups": []}}, "referralId": "e-0-4b832300f964a520c6f930e3-16"}, {"reasons": {"count": 0, "items": [{"summary": "This spot is popular", "type": "general", "reasonName": "globalInteractionReason"}]}, "venue": {"id": "4eb402ec8b81a81f8fe97d66", "name": "Beethoven-Haydn-Mozart-Denkmal", "location": {"address": "Stra\u00dfe des 17. Juni", "crossStreet": "Venusbassin", "lat": 52.51374443463019, "lng": 13.370373080989987, "labeledLatLngs": [{"label": "display", "lat": 52.51374443463019, "lng": 13.370373080989987}], "distance": 902, "postalCode": "10785", "cc": "DE", "city": "Berlin", "state": "Berlin", "country": "Deutschland", "formattedAddress": ["Stra\u00dfe des 17. Juni (Venusbassin)", "10785 Berlin", "Deutschland"]}, "categories": [{"id": "52e81612bcbc57f1066b79ed", "name": "Outdoor Sculpture", "pluralName": "Outdoor Sculptures", "shortName": "Outdoor Sculpture", "icon": {"prefix": "https://ss3.4sqi.net/img/categories_v2/parks_outdoors/sculpture_", "suffix": ".png"}, "primary": true}], "photos": {"count": 0, "groups": []}}, "referralId": "e-0-4eb402ec8b81a81f8fe97d66-17"}, {"reasons": {"count": 0, "items": [{"summary": "This spot is popular", "type": "general", "reasonName": "globalInteractionReason"}]}, "venue": {"id": "4dda9ba61838b8561d343d61", "name": "Il Valentino", "location": {"address": "Kurf\u00fcrstenstr. 56", "lat": 52.50179676429753, "lng": 13.355430005213929, "labeledLatLngs": [{"label": "display", "lat": 52.50179676429753, "lng": 13.355430005213929}], "distance": 981, "postalCode": "10785", "cc": "DE", "city": "Berlin", "state": "Berlin", "country": "Deutschland", "formattedAddress": ["Kurf\u00fcrstenstr. 56", "10785 Berlin", "Deutschland"]}, "categories": [{"id": "4bf58dd8d48988d110941735", "name": "Italian Restaurant", "pluralName": "Italian Restaurants", "shortName": "Italian", "icon": {"prefix": "https://ss3.4sqi.net/img/categories_v2/food/italian_", "suffix": ".png"}, "primary": true}], "photos": {"count": 0, "groups": []}}, "referralId": "e-0-4dda9ba61838b8561d343d61-18"}, {"reasons": {"count": 0, "items": [{"summary": "This spot is popular", "type": "general", "reasonName": "globalInteractionReason"}]}, "venue": {"id": "4adcda73f964a520584521e3", "name": "Caf\u00e9 am Neuen See", "location": {"address": "Lichtensteinallee 2", "lat": 52.510497175705275, "lng": 13.344290959220633, "labeledLatLngs": [{"label": "display", "lat": 52.510497175705275, "lng": 13.344290959220633}], "distance": 941, "postalCode": "10787", "cc": "DE", "city": "Berlin", "state": "Berlin", "country": "Deutschland", "formattedAddress": ["Lichtensteinallee 2", "10787 Berlin", "Deutschland"]}, "categories": [{"id": "4bf58dd8d48988d117941735", "name": "Beer Garden", "pluralName": "Beer Gardens", "shortName": "Beer Garden", "icon": {"prefix": "https://ss3.4sqi.net/img/categories_v2/nightlife/beergarden_", "suffix": ".png"}, "primary": true}], "photos": {"count": 0, "groups": []}}, "referralId": "e-0-4adcda73f964a520584521e3-19"}, {"reasons": {"count": 0, "items": [{"summary": "This spot is popular", "type": "general", "reasonName": "globalInteractionReason"}]}, "venue": {"id": "4adcda7ef964a520c24721e3", "name": "Schloss Bellevue", "location": {"address": "Spreeweg", "lat": 52.51745480710997, "lng": 13.352744579315186, "labeledLatLngs": [{"label": "display", "lat": 52.51745480710997, "lng": 13.352744579315186}], "distance": 862, "postalCode": "10557", "cc": "DE", "city": "Berlin", "state": "Berlin", "country": "Deutschland", "formattedAddress": ["Spreeweg", "10557 Berlin", "Deutschland"]}, "categories": [{"id": "52e81612bcbc57f1066b7a14", "name": "Palace", "pluralName": "Palaces", "shortName": "Palace", "icon": {"prefix": "https://ss3.4sqi.net/img/categories_v2/parks_outdoors/default_", "suffix": ".png"}, "primary": true}], "photos": {"count": 0, "groups": []}}, "referralId": "e-0-4adcda7ef964a520c24721e3-20"}, {"reasons": {"count": 0, "items": [{"summary": "This spot is popular", "type": "general", "reasonName": "globalInteractionReason"}]}, "venue": {"id": "536a5775498ebcc77aad14bd", "name": "Lebensstern Bar im Einstein", "location": {"address": "Kurf\u00fcrstenstra\u00dfe 58", "lat": 52.5020043933603, "lng": 13.354558637625267, "labeledLatLngs": [{"label": "display", "lat": 52.5020043933603, "lng": 13.354558637625267}], "distance": 972, "postalCode": "10785", "cc": "DE", "city": "Berlin", "state": "Berlin", "country": "Deutschland", "formattedAddress": ["Kurf\u00fcrstenstra\u00dfe 58", "10785 Berlin", "Deutschland"]}, "categories": [{"id": "4bf58dd8d48988d116941735", "name": "Bar", "pluralName": "Bars", "shortName": "Bar", "icon": {"prefix": "https://ss3.4sqi.net/img/categories_v2/nightlife/pub_", "suffix": ".png"}, "primary": true}], "photos": {"count": 0, "groups": []}}, "referralId": "e-0-536a5775498ebcc77aad14bd-21"}, {"reasons": {"count": 0, "items": [{"summary": "This spot is popular", "type": "general", "reasonName": "globalInteractionReason"}]}, "venue": {"id": "5602e1ce498ea3ec766daa79", "name": "Herrmann-Wolff-Saal", "location": {"address": "Herbert-von-Karajan-Str. 1", "lat": 52.509978800265046, "lng": 13.369798064231873, "labeledLatLngs": [{"label": "display", "lat": 52.509978800265046, "lng": 13.369798064231873}], "distance": 788, "postalCode": "10785", "cc": "DE", "city": "Berlin", "state": "Berlin", "country": "Deutschland", "formattedAddress": ["Herbert-von-Karajan-Str. 1", "10785 Berlin", "Deutschland"]}, "categories": [{"id": "5032792091d4c4b30a586d5c", "name": "Concert Hall", "pluralName": "Concert Halls", "shortName": "Concert Hall", "icon": {"prefix": "https://ss3.4sqi.net/img/categories_v2/arts_entertainment/musicvenue_", "suffix": ".png"}, "primary": true}], "photos": {"count": 0, "groups": []}}, "referralId": "e-0-5602e1ce498ea3ec766daa79-22"}, {"reasons": {"count": 0, "items": [{"summary": "This spot is popular", "type": "general", "reasonName": "globalInteractionReason"}]}, "venue": {"id": "4adcda72f964a520284521e3", "name": "InterContinental Berlin", "location": {"address": "Budapester Str. 2", "lat": 52.50721185404532, "lng": 13.345330458661124, "labeledLatLngs": [{"label": "display", "lat": 52.50721185404532, "lng": 13.345330458661124}], "distance": 943, "postalCode": "10787", "cc": "DE", "city": "Berlin", "state": "Berlin", "country": "Deutschland", "formattedAddress": ["Budapester Str. 2", "10787 Berlin", "Deutschland"]}, "categories": [{"id": "4bf58dd8d48988d1fa931735", "name": "Hotel", "pluralName": "Hotels", "shortName": "Hotel", "icon": {"prefix": "https://ss3.4sqi.net/img/categories_v2/travel/hotel_", "suffix": ".png"}, "primary": true}], "photos": {"count": 0, "groups": []}}, "referralId": "e-0-4adcda72f964a520284521e3-23"}, {"reasons": {"count": 0, "items": [{"summary": "This spot is popular", "type": "general", "reasonName": "globalInteractionReason"}]}, "venue": {"id": "4adcda77f964a520044621e3", "name": "Caf\u00e9 Einstein Stammhaus", "location": {"address": "Kurf\u00fcrstenstr. 58", "lat": 52.5021, "lng": 13.354641, "labeledLatLngs": [{"label": "display", "lat": 52.5021, "lng": 13.354641}], "distance": 960, "postalCode": "10785", "cc": "DE", "city": "Berlin", "state": "Berlin", "country": "Deutschland", "formattedAddress": ["Kurf\u00fcrstenstr. 58", "10785 Berlin", "Deutschland"]}, "categories": [{"id": "4bf58dd8d48988d16d941735", "name": "Caf\u00e9", "pluralName": "Caf\u00e9s", "shortName": "Caf\u00e9", "icon": {"prefix": "https://ss3.4sqi.net/img/categories_v2/food/cafe_", "suffix": ".png"}, "primary": true}], "photos": {"count": 0, "groups": []}}, "referralId": "e-0-4adcda77f964a520044621e3-24"}, {"reasons": {"count": 0, "items": [{"summary": "This spot is popular", "type": "general", "reasonName": "globalInteractionReason"}]}, "venue": {"id": "4cc6c1d5c844721ea24ef601", "name": "Kantine im Felleshus", "location": {"address": "Rauchstr. 1", "crossStreet": "3. OG", "lat": 52.50855527666073, "lng": 13.350813388824463, "labeledLatLngs": [{"label": "display", "lat": 52.50855527666073, "lng": 13.350813388824463}], "distance": 542, "postalCode": "10787", "cc": "DE", "city": "Berlin", "state": "Berlin", "country": "Deutschland", "formattedAddress": ["Rauchstr. 1 (3. OG)", "10787 Berlin", "Deutschland"]}, "categories": [{"id": "4bf58dd8d48988d1c6941735", "name": "Scandinavian Restaurant", "pluralName": "Scandinavian Restaurants", "shortName": "Scandinavian", "icon": {"prefix": "https://ss3.4sqi.net/img/categories_v2/food/scandinavian_", "suffix": ".png"}, "primary": true}], "photos": {"count": 0, "groups": []}}, "referralId": "e-0-4cc6c1d5c844721ea24ef601-25"}, {"reasons": {"count": 0, "items": [{"summary": "This spot is popular", "type": "general", "reasonName": "globalInteractionReason"}]}, "venue": {"id": "51863be6498e46caf77ebe76", "name": "K\u00e4nguruhs | Zoo Berlin", "location": {"address": "Hardenbergplatz 8", "lat": 52.50883606707708, "lng": 13.345288038253784, "labeledLatLngs": [{"label": "display", "lat": 52.50883606707708, "lng": 13.345288038253784}], "distance": 892, "postalCode": "10787", "cc": "DE", "city": "Berlin", "state": "Berlin", "country": "Deutschland", "formattedAddress": ["Hardenbergplatz 8", "10787 Berlin", "Deutschland"]}, "categories": [{"id": "58daa1558bbb0b01f18ec1fd", "name": "Zoo Exhibit", "pluralName": "Zoo Exhibits", "shortName": "Zoo Exhibit", "icon": {"prefix": "https://ss3.4sqi.net/img/categories_v2/arts_entertainment/zoo_", "suffix": ".png"}, "primary": true}], "photos": {"count": 0, "groups": []}}, "referralId": "e-0-51863be6498e46caf77ebe76-26"}, {"reasons": {"count": 0, "items": [{"summary": "This spot is popular", "type": "general", "reasonName": "globalInteractionReason"}]}, "venue": {"id": "4b72c9cdf964a520b3882de3", "name": "Joseph-Roth-Diele", "location": {"address": "Potsdamer Str. 75", "crossStreet": "L\u00fctzowstr.", "lat": 52.50270458039348, "lng": 13.365395524144978, "labeledLatLngs": [{"label": "display", "lat": 52.50270458039348, "lng": 13.365395524144978}], "distance": 991, "postalCode": "10785", "cc": "DE", "city": "Berlin", "state": "Berlin", "country": "Deutschland", "formattedAddress": ["Potsdamer Str. 75 (L\u00fctzowstr.)", "10785 Berlin", "Deutschland"]}, "categories": [{"id": "4bf58dd8d48988d155941735", "name": "Gastropub", "pluralName": "Gastropubs", "shortName": "Gastropub", "icon": {"prefix": "https://ss3.4sqi.net/img/categories_v2/food/gastropub_", "suffix": ".png"}, "primary": true}], "photos": {"count": 0, "groups": []}}, "referralId": "e-0-4b72c9cdf964a520b3882de3-27"}, {"reasons": {"count": 0, "items": [{"summary": "This spot is popular", "type": "general", "reasonName": "globalInteractionReason"}]}, "venue": {"id": "50be42c9fe70f1036ecef07e", "name": "The Casual", "location": {"address": "Drakestr. 1", "lat": 52.509769845559056, "lng": 13.345963954925537, "labeledLatLngs": [{"label": "display", "lat": 52.509769845559056, "lng": 13.345963954925537}], "distance": 831, "postalCode": "10787", "cc": "DE", "city": "Berlin", "state": "Berlin", "country": "Deutschland", "formattedAddress": ["Drakestr. 1", "10787 Berlin", "Deutschland"]}, "categories": [{"id": "4bf58dd8d48988d1c4941735", "name": "Restaurant", "pluralName": "Restaurants", "shortName": "Restaurant", "icon": {"prefix": "https://ss3.4sqi.net/img/categories_v2/food/default_", "suffix": ".png"}, "primary": true}], "photos": {"count": 0, "groups": []}}, "referralId": "e-0-50be42c9fe70f1036ecef07e-28"}, {"reasons": {"count": 0, "items": [{"summary": "This spot is popular", "type": "general", "reasonName": "globalInteractionReason"}]}, "venue": {"id": "4e4ab30e45dd81ecad90607c", "name": "Schlosspark Bellevue", "location": {"address": "Bellevue-Ufer", "lat": 52.517970572031565, "lng": 13.351049423217773, "labeledLatLngs": [{"label": "display", "lat": 52.517970572031565, "lng": 13.351049423217773}], "distance": 966, "postalCode": "10557", "cc": "DE", "city": "Berlin", "state": "Berlin", "country": "Deutschland", "formattedAddress": ["Bellevue-Ufer", "10557 Berlin", "Deutschland"]}, "categories": [{"id": "4bf58dd8d48988d163941735", "name": "Park", "pluralName": "Parks", "shortName": "Park", "icon": {"prefix": "https://ss3.4sqi.net/img/categories_v2/parks_outdoors/park_", "suffix": ".png"}, "primary": true}], "photos": {"count": 0, "groups": []}}, "referralId": "e-0-4e4ab30e45dd81ecad90607c-29"}, {"reasons": {"count": 0, "items": [{"summary": "This spot is popular", "type": "general", "reasonName": "globalInteractionReason"}]}, "venue": {"id": "591abd80cf72a02629645c0c", "name": "GOLVET", "location": {"address": "Potsdamer Stra\u00dfe 58", "lat": 52.50540750914714, "lng": 13.367393815840984, "labeledLatLngs": [{"label": "display", "lat": 52.50540750914714, "lng": 13.367393815840984}], "distance": 839, "postalCode": "10785", "cc": "DE", "city": "Berlin", "state": "Berlin", "country": "Deutschland", "formattedAddress": ["Potsdamer Stra\u00dfe 58", "10785 Berlin", "Deutschland"]}, "categories": [{"id": "4bf58dd8d48988d1c4941735", "name": "Restaurant", "pluralName": "Restaurants", "shortName": "Restaurant", "icon": {"prefix": "https://ss3.4sqi.net/img/categories_v2/food/default_", "suffix": ".png"}, "primary": true}], "photos": {"count": 0, "groups": []}, "venuePage": {"id": "502465161"}}, "referralId": "e-0-591abd80cf72a02629645c0c-30"}, {"reasons": {"count": 0, "items": [{"summary": "This spot is popular", "type": "general", "reasonName": "globalInteractionReason"}]}, "venue": {"id": "5c94ec48c8b2fb002cdd6257", "name": "Rocket + Basil", "location": {"address": "L\u00fctzowstr. 22", "lat": 52.503167, "lng": 13.366442, "labeledLatLngs": [{"label": "display", "lat": 52.503167, "lng": 13.366442}], "distance": 985, "postalCode": "10785", "cc": "DE", "city": "Berlin", "state": "Berlin", "country": "Deutschland", "formattedAddress": ["L\u00fctzowstr. 22", "10785 Berlin", "Deutschland"]}, "categories": [{"id": "52e81612bcbc57f1066b79f7", "name": "Persian Restaurant", "pluralName": "Persian Restaurants", "shortName": "Persian", "icon": {"prefix": "https://ss3.4sqi.net/img/categories_v2/food/middleeastern_", "suffix": ".png"}, "primary": true}], "photos": {"count": 0, "groups": []}}, "referralId": "e-0-5c94ec48c8b2fb002cdd6257-31"}, {"reasons": {"count": 0, "items": [{"summary": "This spot is popular", "type": "general", "reasonName": "globalInteractionReason"}]}, "venue": {"id": "4adcda72f964a5202b4521e3", "name": "Sheraton Berlin Grand Hotel Esplanade", "location": {"address": "L\u00fctzowufer 15", "lat": 52.50532344572067, "lng": 13.355173051361362, "labeledLatLngs": [{"label": "display", "lat": 52.50532344572067, "lng": 13.355173051361362}], "distance": 606, "postalCode": "10785", "cc": "DE", "city": "Berlin", "state": "Berlin", "country": "Deutschland", "formattedAddress": ["L\u00fctzowufer 15", "10785 Berlin", "Deutschland"]}, "categories": [{"id": "4bf58dd8d48988d1fa931735", "name": "Hotel", "pluralName": "Hotels", "shortName": "Hotel", "icon": {"prefix": "https://ss3.4sqi.net/img/categories_v2/travel/hotel_", "suffix": ".png"}, "primary": true}], "photos": {"count": 0, "groups": []}}, "referralId": "e-0-4adcda72f964a5202b4521e3-32"}, {"reasons": {"count": 0, "items": [{"summary": "This spot is popular", "type": "general", "reasonName": "globalInteractionReason"}]}, "venue": {"id": "4e539157aeb74b745817afab", "name": "Die L\u00f6ffelei", "location": {"address": "Potsdamer Str. 73", "lat": 52.502732, "lng": 13.365751, "labeledLatLngs": [{"label": "display", "lat": 52.502732, "lng": 13.365751}], "distance": 1000, "postalCode": "10785", "cc": "DE", "city": "Berlin", "state": "Berlin", "country": "Deutschland", "formattedAddress": ["Potsdamer Str. 73", "10785 Berlin", "Deutschland"]}, "categories": [{"id": "4bf58dd8d48988d1dd931735", "name": "Soup Place", "pluralName": "Soup Places", "shortName": "Soup", "icon": {"prefix": "https://ss3.4sqi.net/img/categories_v2/food/soup_", "suffix": ".png"}, "primary": true}], "photos": {"count": 0, "groups": []}, "venuePage": {"id": "584261901"}}, "referralId": "e-0-4e539157aeb74b745817afab-33"}, {"reasons": {"count": 0, "items": [{"summary": "This spot is popular", "type": "general", "reasonName": "globalInteractionReason"}]}, "venue": {"id": "53a46538498e35d5abaf8cf3", "name": "galerie p98a", "location": {"address": "Potsdamer Str. 98a", "lat": 52.502051401097106, "lng": 13.363393786403979, "labeledLatLngs": [{"label": "display", "lat": 52.502051401097106, "lng": 13.363393786403979}], "distance": 999, "postalCode": "10785", "cc": "DE", "city": "Berlin", "state": "Berlin", "country": "Deutschland", "formattedAddress": ["Potsdamer Str. 98a", "10785 Berlin", "Deutschland"]}, "categories": [{"id": "4bf58dd8d48988d1e2931735", "name": "Art Gallery", "pluralName": "Art Galleries", "shortName": "Art Gallery", "icon": {"prefix": "https://ss3.4sqi.net/img/categories_v2/arts_entertainment/artgallery_", "suffix": ".png"}, "primary": true}], "photos": {"count": 0, "groups": []}}, "referralId": "e-0-53a46538498e35d5abaf8cf3-34"}, {"reasons": {"count": 0, "items": [{"summary": "This spot is popular", "type": "general", "reasonName": "globalInteractionReason"}]}, "venue": {"id": "4adcda72f964a5203d4521e3", "name": "Maritim Hotel Berlin", "location": {"address": "Stauffenbergstr. 26", "crossStreet": "Sigismundstr.", "lat": 52.5075862, "lng": 13.3635465, "labeledLatLngs": [{"label": "display", "lat": 52.5075862, "lng": 13.3635465}], "distance": 483, "postalCode": "10785", "cc": "DE", "city": "Berlin", "state": "Berlin", "country": "Deutschland", "formattedAddress": ["Stauffenbergstr. 26 (Sigismundstr.)", "10785 Berlin", "Deutschland"]}, "categories": [{"id": "4bf58dd8d48988d1fa931735", "name": "Hotel", "pluralName": "Hotels", "shortName": "Hotel", "icon": {"prefix": "https://ss3.4sqi.net/img/categories_v2/travel/hotel_", "suffix": ".png"}, "primary": true}], "photos": {"count": 0, "groups": []}, "venuePage": {"id": "86368656"}}, "referralId": "e-0-4adcda72f964a5203d4521e3-35"}, {"reasons": {"count": 0, "items": [{"summary": "This spot is popular", "type": "general", "reasonName": "globalInteractionReason"}]}, "venue": {"id": "4adcda81f964a520604821e3", "name": "Neue Nationalgalerie", "location": {"address": "Potsdamer Str. 50", "lat": 52.50696845059421, "lng": 13.367571830749512, "distance": 744, "postalCode": "10785", "cc": "DE", "city": "Berlin", "state": "Berlin", "country": "Deutschland", "formattedAddress": ["Potsdamer Str. 50", "10785 Berlin", "Deutschland"]}, "categories": [{"id": "4bf58dd8d48988d18f941735", "name": "Art Museum", "pluralName": "Art Museums", "shortName": "Art Museum", "icon": {"prefix": "https://ss3.4sqi.net/img/categories_v2/arts_entertainment/museum_art_", "suffix": ".png"}, "primary": true}], "photos": {"count": 0, "groups": []}}, "referralId": "e-0-4adcda81f964a520604821e3-36"}, {"reasons": {"count": 0, "items": [{"summary": "This spot is popular", "type": "general", "reasonName": "globalInteractionReason"}]}, "venue": {"id": "4dc404ddc65b89d3ca49385b", "name": "Bismarck-Nationaldenkmal", "location": {"address": "Gro\u00dfer Stern 1", "lat": 52.51559517134253, "lng": 13.349820316495629, "labeledLatLngs": [{"label": "display", "lat": 52.51559517134253, "lng": 13.349820316495629}], "distance": 805, "postalCode": "10785", "cc": "DE", "city": "Berlin", "state": "Berlin", "country": "Deutschland", "formattedAddress": ["Gro\u00dfer Stern 1", "10785 Berlin", "Deutschland"]}, "categories": [{"id": "52e81612bcbc57f1066b79ed", "name": "Outdoor Sculpture", "pluralName": "Outdoor Sculptures", "shortName": "Outdoor Sculpture", "icon": {"prefix": "https://ss3.4sqi.net/img/categories_v2/parks_outdoors/sculpture_", "suffix": ".png"}, "primary": true}], "photos": {"count": 0, "groups": []}}, "referralId": "e-0-4dc404ddc65b89d3ca49385b-37"}, {"reasons": {"count": 0, "items": [{"summary": "This spot is popular", "type": "general", "reasonName": "globalInteractionReason"}]}, "venue": {"id": "516a8de0e4b0782ec13fec2f", "name": "Bellevue-Ufer", "location": {"address": "Bellevue-Ufer", "lat": 52.51856059314833, "lng": 13.3518648147583, "labeledLatLngs": [{"label": "display", "lat": 52.51856059314833, "lng": 13.3518648147583}], "distance": 998, "postalCode": "10557", "cc": "DE", "city": "Berlin", "state": "Berlin", "country": "Deutschland", "formattedAddress": ["Bellevue-Ufer", "10557 Berlin", "Deutschland"]}, "categories": [{"id": "56aa371be4b08b9a8d5734c3", "name": "Waterfront", "pluralName": "Waterfronts", "shortName": "Waterfront", "icon": {"prefix": "https://ss3.4sqi.net/img/categories_v2/parks_outdoors/river_", "suffix": ".png"}, "primary": true}], "photos": {"count": 0, "groups": []}}, "referralId": "e-0-516a8de0e4b0782ec13fec2f-38"}, {"reasons": {"count": 0, "items": [{"summary": "This spot is popular", "type": "general", "reasonName": "globalInteractionReason"}]}, "venue": {"id": "4adcda79f964a5209b4621e3", "name": "Kumpelnest 3000", "location": {"address": "L\u00fctzowstra\u00dfe 23", "crossStreet": "Potsdamer Stra\u00dfe", "lat": 52.5030241498708, "lng": 13.366102725023485, "labeledLatLngs": [{"label": "display", "lat": 52.5030241498708, "lng": 13.366102725023485}], "distance": 985, "postalCode": "10785", "cc": "DE", "city": "Berlin", "state": "Berlin", "country": "Deutschland", "formattedAddress": ["L\u00fctzowstra\u00dfe 23 (Potsdamer Stra\u00dfe)", "10785 Berlin", "Deutschland"]}, "categories": [{"id": "4bf58dd8d48988d116941735", "name": "Bar", "pluralName": "Bars", "shortName": "Bar", "icon": {"prefix": "https://ss3.4sqi.net/img/categories_v2/nightlife/pub_", "suffix": ".png"}, "primary": true}], "photos": {"count": 0, "groups": []}}, "referralId": "e-0-4adcda79f964a5209b4621e3-39"}, {"reasons": {"count": 0, "items": [{"summary": "This spot is popular", "type": "general", "reasonName": "globalInteractionReason"}]}, "venue": {"id": "4e21e607fa761d6710813a17", "name": "InterContinental Club Lounge", "location": {"address": "Budapester Str. 2", "lat": 52.5068113170363, "lng": 13.345588440624436, "labeledLatLngs": [{"label": "display", "lat": 52.5068113170363, "lng": 13.345588440624436}], "distance": 945, "postalCode": "10787", "cc": "DE", "city": "Berlin", "state": "Berlin", "country": "Deutschland", "formattedAddress": ["Budapester Str. 2", "10787 Berlin", "Deutschland"]}, "categories": [{"id": "4bf58dd8d48988d121941735", "name": "Lounge", "pluralName": "Lounges", "shortName": "Lounge", "icon": {"prefix": "https://ss3.4sqi.net/img/categories_v2/nightlife/default_", "suffix": ".png"}, "primary": true}], "photos": {"count": 0, "groups": []}}, "referralId": "e-0-4e21e607fa761d6710813a17-40"}, {"reasons": {"count": 0, "items": [{"summary": "This spot is popular", "type": "general", "reasonName": "globalInteractionReason"}]}, "venue": {"id": "4adcda81f964a520544821e3", "name": "Schwules Museum", "location": {"address": "L\u00fctzowstr. 73", "lat": 52.504362066031845, "lng": 13.358433971353096, "labeledLatLngs": [{"label": "display", "lat": 52.504362066031845, "lng": 13.358433971353096}], "distance": 678, "postalCode": "10785", "cc": "DE", "city": "Berlin", "state": "Berlin", "country": "Deutschland", "formattedAddress": ["L\u00fctzowstr. 73", "10785 Berlin", "Deutschland"]}, "categories": [{"id": "4bf58dd8d48988d181941735", "name": "Museum", "pluralName": "Museums", "shortName": "Museum", "icon": {"prefix": "https://ss3.4sqi.net/img/categories_v2/arts_entertainment/museum_", "suffix": ".png"}, "primary": true}], "photos": {"count": 0, "groups": []}}, "referralId": "e-0-4adcda81f964a520544821e3-41"}, {"reasons": {"count": 0, "items": [{"summary": "This spot is popular", "type": "general", "reasonName": "globalInteractionReason"}]}, "venue": {"id": "514da6a5f31c7d564be30513", "name": "5 \u2013 Cinco by Paco P\u00e9rez", "location": {"address": "Drakestr. 1", "lat": 52.5098507628895, "lng": 13.345982971614145, "labeledLatLngs": [{"label": "display", "lat": 52.5098507628895, "lng": 13.345982971614145}], "distance": 829, "postalCode": "10787", "cc": "DE", "city": "Berlin", "state": "Berlin", "country": "Deutschland", "formattedAddress": ["Drakestr. 1", "10787 Berlin", "Deutschland"]}, "categories": [{"id": "4bf58dd8d48988d150941735", "name": "Spanish Restaurant", "pluralName": "Spanish Restaurants", "shortName": "Spanish", "icon": {"prefix": "https://ss3.4sqi.net/img/categories_v2/food/spanish_", "suffix": ".png"}, "primary": true}], "photos": {"count": 0, "groups": []}}, "referralId": "e-0-514da6a5f31c7d564be30513-42"}, {"reasons": {"count": 0, "items": [{"summary": "This spot is popular", "type": "general", "reasonName": "globalInteractionReason"}]}, "venue": {"id": "55af6bf5498edd011868e0d7", "name": "Red Berlin Culinary", "location": {"address": "Genthiner Str. 20", "lat": 52.504101570196205, "lng": 13.35939109325409, "labeledLatLngs": [{"label": "display", "lat": 52.504101570196205, "lng": 13.35939109325409}], "distance": 711, "postalCode": "10785", "cc": "DE", "city": "Berlin", "state": "Berlin", "country": "Deutschland", "formattedAddress": ["Genthiner Str. 20", "10785 Berlin", "Deutschland"]}, "categories": [{"id": "4bf58dd8d48988d1c0941735", "name": "Mediterranean Restaurant", "pluralName": "Mediterranean Restaurants", "shortName": "Mediterranean", "icon": {"prefix": "https://ss3.4sqi.net/img/categories_v2/food/mediterranean_", "suffix": ".png"}, "primary": true}], "photos": {"count": 0, "groups": []}}, "referralId": "e-0-55af6bf5498edd011868e0d7-43"}, {"reasons": {"count": 0, "items": [{"summary": "This spot is popular", "type": "general", "reasonName": "globalInteractionReason"}]}, "venue": {"id": "4e7efbbf6c25806049f78909", "name": "Restaurant \u201eMaritim\u201c", "location": {"address": "Stauffenbergstr. 26", "crossStreet": "Sigismundstr.", "lat": 52.50741903665947, "lng": 13.363773822784424, "labeledLatLngs": [{"label": "display", "lat": 52.50741903665947, "lng": 13.363773822784424}], "distance": 507, "postalCode": "10785", "cc": "DE", "city": "Berlin", "state": "Berlin", "country": "Deutschland", "formattedAddress": ["Stauffenbergstr. 26 (Sigismundstr.)", "10785 Berlin", "Deutschland"]}, "categories": [{"id": "4bf58dd8d48988d143941735", "name": "Breakfast Spot", "pluralName": "Breakfast Spots", "shortName": "Breakfast", "icon": {"prefix": "https://ss3.4sqi.net/img/categories_v2/food/breakfast_", "suffix": ".png"}, "primary": true}], "photos": {"count": 0, "groups": []}}, "referralId": "e-0-4e7efbbf6c25806049f78909-44"}, {"reasons": {"count": 0, "items": [{"summary": "This spot is popular", "type": "general", "reasonName": "globalInteractionReason"}]}, "venue": {"id": "4b9f4095f964a520c71937e3", "name": "Hotel Berlin, Berlin", "location": {"address": "L\u00fctzowplatz 17", "lat": 52.503828063922725, "lng": 13.35204023096594, "labeledLatLngs": [{"label": "display", "lat": 52.503828063922725, "lng": 13.35204023096594}], "distance": 847, "postalCode": "10785", "cc": "DE", "neighborhood": "Tiergarten", "city": "Berlin", "state": "Berlin", "country": "Deutschland", "formattedAddress": ["L\u00fctzowplatz 17", "10785 Berlin", "Deutschland"]}, "categories": [{"id": "4bf58dd8d48988d1fa931735", "name": "Hotel", "pluralName": "Hotels", "shortName": "Hotel", "icon": {"prefix": "https://ss3.4sqi.net/img/categories_v2/travel/hotel_", "suffix": ".png"}, "primary": true}], "photos": {"count": 0, "groups": []}, "venuePage": {"id": "32859294"}}, "referralId": "e-0-4b9f4095f964a520c71937e3-45"}, {"reasons": {"count": 0, "items": [{"summary": "This spot is popular", "type": "general", "reasonName": "globalInteractionReason"}]}, "venue": {"id": "4e42378d814da3635cd73b99", "name": "Bar Berlin, Berlin", "location": {"address": "L\u00fctzowplatz 17", "lat": 52.503612150722674, "lng": 13.352031970536743, "labeledLatLngs": [{"label": "display", "lat": 52.503612150722674, "lng": 13.352031970536743}], "distance": 868, "postalCode": "10785", "cc": "DE", "city": "Berlin", "state": "Berlin", "country": "Deutschland", "formattedAddress": ["L\u00fctzowplatz 17", "10785 Berlin", "Deutschland"]}, "categories": [{"id": "4bf58dd8d48988d1d5941735", "name": "Hotel Bar", "pluralName": "Hotel Bars", "shortName": "Hotel Bar", "icon": {"prefix": "https://ss3.4sqi.net/img/categories_v2/travel/hotel_bar_", "suffix": ".png"}, "primary": true}], "photos": {"count": 0, "groups": []}, "venuePage": {"id": "32859295"}}, "referralId": "e-0-4e42378d814da3635cd73b99-46"}, {"reasons": {"count": 0, "items": [{"summary": "This spot is popular", "type": "general", "reasonName": "globalInteractionReason"}]}, "venue": {"id": "4adcda81f964a520664821e3", "name": "Kunstgewerbemuseum", "location": {"address": "Matth\u00e4ikirchplatz", "lat": 52.50953248351162, "lng": 13.367021836212265, "labeledLatLngs": [{"label": "display", "lat": 52.50953248351162, "lng": 13.367021836212265}], "distance": 606, "postalCode": "10785", "cc": "DE", "city": "Berlin", "state": "Berlin", "country": "Deutschland", "formattedAddress": ["Matth\u00e4ikirchplatz", "10785 Berlin", "Deutschland"]}, "categories": [{"id": "4bf58dd8d48988d18f941735", "name": "Art Museum", "pluralName": "Art Museums", "shortName": "Art Museum", "icon": {"prefix": "https://ss3.4sqi.net/img/categories_v2/arts_entertainment/museum_art_", "suffix": ".png"}, "primary": true}], "photos": {"count": 0, "groups": []}}, "referralId": "e-0-4adcda81f964a520664821e3-47"}, {"reasons": {"count": 0, "items": [{"summary": "This spot is popular", "type": "general", "reasonName": "globalInteractionReason"}]}, "venue": {"id": "4d95eb2aaf3d236a33d3fcc6", "name": "Hotel Altberlin", "location": {"address": "Potsdamer Str. 67", "lat": 52.50340112804553, "lng": 13.366033046361231, "labeledLatLngs": [{"label": "display", "lat": 52.50340112804553, "lng": 13.366033046361231}], "distance": 948, "postalCode": "10785", "cc": "DE", "city": "Berlin", "state": "Berlin", "country": "Deutschland", "formattedAddress": ["Potsdamer Str. 67", "10785 Berlin", "Deutschland"]}, "categories": [{"id": "4bf58dd8d48988d1fa931735", "name": "Hotel", "pluralName": "Hotels", "shortName": "Hotel", "icon": {"prefix": "https://ss3.4sqi.net/img/categories_v2/travel/hotel_", "suffix": ".png"}, "primary": true}], "photos": {"count": 0, "groups": []}}, "referralId": "e-0-4d95eb2aaf3d236a33d3fcc6-48"}, {"reasons": {"count": 0, "items": [{"summary": "This spot is popular", "type": "general", "reasonName": "globalInteractionReason"}]}, "venue": {"id": "5544b46d498e2185e6c3e07c", "name": "Ellipse Lounge", "location": {"address": "L\u00fctzowufer 15", "lat": 52.505763, "lng": 13.354719, "labeledLatLngs": [{"label": "display", "lat": 52.505763, "lng": 13.354719}], "distance": 572, "postalCode": "10785", "cc": "DE", "city": "Berlin", "state": "Berlin", "country": "Deutschland", "formattedAddress": ["L\u00fctzowufer 15", "10785 Berlin", "Deutschland"]}, "categories": [{"id": "4bf58dd8d48988d121941735", "name": "Lounge", "pluralName": "Lounges", "shortName": "Lounge", "icon": {"prefix": "https://ss3.4sqi.net/img/categories_v2/nightlife/default_", "suffix": ".png"}, "primary": true}], "photos": {"count": 0, "groups": []}}, "referralId": "e-0-5544b46d498e2185e6c3e07c-49"}, {"reasons": {"count": 0, "items": [{"summary": "This spot is popular", "type": "general", "reasonName": "globalInteractionReason"}]}, "venue": {"id": "54108148498e943aaa01e050", "name": "Ristorante Tra di Noi", "location": {"address": "L\u00fctzowplatz 5", "lat": 52.50482551151201, "lng": 13.353539004658625, "labeledLatLngs": [{"label": "display", "lat": 52.50482551151201, "lng": 13.353539004658625}], "distance": 701, "postalCode": "10785", "cc": "DE", "city": "Berlin", "state": "Berlin", "country": "Deutschland", "formattedAddress": ["L\u00fctzowplatz 5", "10785 Berlin", "Deutschland"]}, "categories": [{"id": "4bf58dd8d48988d110941735", "name": "Italian Restaurant", "pluralName": "Italian Restaurants", "shortName": "Italian", "icon": {"prefix": "https://ss3.4sqi.net/img/categories_v2/food/italian_", "suffix": ".png"}, "primary": true}], "photos": {"count": 0, "groups": []}}, "referralId": "e-0-54108148498e943aaa01e050-50"}, {"reasons": {"count": 0, "items": [{"summary": "This spot is popular", "type": "general", "reasonName": "globalInteractionReason"}]}, "venue": {"id": "5b78587d029a55002c325499", "name": "Swadishta", "location": {"address": "Kurf\u00fcrstenstra\u00dfe 131A", "lat": 52.501887, "lng": 13.354313, "labeledLatLngs": [{"label": "display", "lat": 52.501887, "lng": 13.354313}], "distance": 989, "postalCode": "10785", "cc": "DE", "city": "Berlin", "state": "Berlin", "country": "Deutschland", "formattedAddress": ["Kurf\u00fcrstenstra\u00dfe 131A", "10785 Berlin", "Deutschland"]}, "categories": [{"id": "4bf58dd8d48988d10f941735", "name": "Indian Restaurant", "pluralName": "Indian Restaurants", "shortName": "Indian", "icon": {"prefix": "https://ss3.4sqi.net/img/categories_v2/food/indian_", "suffix": ".png"}, "primary": true}], "photos": {"count": 0, "groups": []}}, "referralId": "e-0-5b78587d029a55002c325499-51"}, {"reasons": {"count": 0, "items": [{"summary": "This spot is popular", "type": "general", "reasonName": "globalInteractionReason"}]}, "venue": {"id": "4d8a610e7139b1f70fa1c9d4", "name": "Marlene Bar", "location": {"address": "Budapester Str. 2", "lat": 52.50668930220288, "lng": 13.345601854756561, "labeledLatLngs": [{"label": "display", "lat": 52.50668930220288, "lng": 13.345601854756561}], "distance": 950, "postalCode": "10787", "cc": "DE", "city": "Berlin", "state": "Berlin", "country": "Deutschland", "formattedAddress": ["Budapester Str. 2", "10787 Berlin", "Deutschland"]}, "categories": [{"id": "4bf58dd8d48988d1d5941735", "name": "Hotel Bar", "pluralName": "Hotel Bars", "shortName": "Hotel Bar", "icon": {"prefix": "https://ss3.4sqi.net/img/categories_v2/travel/hotel_bar_", "suffix": ".png"}, "primary": true}], "photos": {"count": 0, "groups": []}}, "referralId": "e-0-4d8a610e7139b1f70fa1c9d4-52"}, {"reasons": {"count": 0, "items": [{"summary": "This spot is popular", "type": "general", "reasonName": "globalInteractionReason"}]}, "venue": {"id": "503fc088e4b02d868962c22e", "name": "Le Bar", "location": {"address": "Stauffenbergstra\u00dfe 26", "crossStreet": "Sigismundstr.", "lat": 52.50741202352428, "lng": 13.363988635582018, "labeledLatLngs": [{"label": "display", "lat": 52.50741202352428, "lng": 13.363988635582018}], "distance": 518, "postalCode": "10785", "cc": "DE", "city": "Berlin", "state": "Berlin", "country": "Deutschland", "formattedAddress": ["Stauffenbergstra\u00dfe 26 (Sigismundstr.)", "10785 Berlin", "Deutschland"]}, "categories": [{"id": "4bf58dd8d48988d1d5941735", "name": "Hotel Bar", "pluralName": "Hotel Bars", "shortName": "Hotel Bar", "icon": {"prefix": "https://ss3.4sqi.net/img/categories_v2/travel/hotel_bar_", "suffix": ".png"}, "primary": true}], "photos": {"count": 0, "groups": []}}, "referralId": "e-0-503fc088e4b02d868962c22e-53"}, {"reasons": {"count": 0, "items": [{"summary": "This spot is popular", "type": "general", "reasonName": "globalInteractionReason"}]}, "venue": {"id": "4de881a1fa76fd1168a27fd3", "name": "L.A. Caf\u00e9", "location": {"address": "Budapester Str. 2", "lat": 52.50705334397416, "lng": 13.34587812423706, "labeledLatLngs": [{"label": "display", "lat": 52.50705334397416, "lng": 13.34587812423706}], "distance": 916, "postalCode": "10787", "cc": "DE", "city": "Berlin", "state": "Berlin", "country": "Deutschland", "formattedAddress": ["Budapester Str. 2", "10787 Berlin", "Deutschland"]}, "categories": [{"id": "4bf58dd8d48988d143941735", "name": "Breakfast Spot", "pluralName": "Breakfast Spots", "shortName": "Breakfast", "icon": {"prefix": "https://ss3.4sqi.net/img/categories_v2/food/breakfast_", "suffix": ".png"}, "primary": true}], "photos": {"count": 0, "groups": []}}, "referralId": "e-0-4de881a1fa76fd1168a27fd3-54"}, {"reasons": {"count": 0, "items": [{"summary": "This spot is popular", "type": "general", "reasonName": "globalInteractionReason"}]}, "venue": {"id": "4cb1b0981168a09336113523", "name": "Tiergartenufer", "location": {"address": "Regierungsviertel", "lat": 52.517095726690926, "lng": 13.357958793640137, "labeledLatLngs": [{"label": "display", "lat": 52.517095726690926, "lng": 13.357958793640137}], "distance": 739, "cc": "DE", "city": "Berlin", "state": "Berlin", "country": "Deutschland", "formattedAddress": ["Regierungsviertel", "Berlin", "Deutschland"]}, "categories": [{"id": "4bf58dd8d48988d1e2941735", "name": "Beach", "pluralName": "Beaches", "shortName": "Beach", "icon": {"prefix": "https://ss3.4sqi.net/img/categories_v2/parks_outdoors/beach_", "suffix": ".png"}, "primary": true}], "photos": {"count": 0, "groups": []}}, "referralId": "e-0-4cb1b0981168a09336113523-55"}, {"reasons": {"count": 0, "items": [{"summary": "This spot is popular", "type": "general", "reasonName": "globalInteractionReason"}]}, "venue": {"id": "4adcda81f964a5207c4821e3", "name": "Musikinstrumenten Museum", "location": {"address": "Tiergartenstr. 1", "crossStreet": "Ben-Gurion-Str.", "lat": 52.51050118268362, "lng": 13.370726108551024, "labeledLatLngs": [{"label": "display", "lat": 52.51050118268362, "lng": 13.370726108551024}], "distance": 849, "postalCode": "10785", "cc": "DE", "city": "Berlin", "state": "Berlin", "country": "Deutschland", "formattedAddress": ["Tiergartenstr. 1 (Ben-Gurion-Str.)", "10785 Berlin", "Deutschland"]}, "categories": [{"id": "4bf58dd8d48988d181941735", "name": "Museum", "pluralName": "Museums", "shortName": "Museum", "icon": {"prefix": "https://ss3.4sqi.net/img/categories_v2/arts_entertainment/museum_", "suffix": ".png"}, "primary": true}], "photos": {"count": 0, "groups": []}}, "referralId": "e-0-4adcda81f964a5207c4821e3-56"}, {"reasons": {"count": 0, "items": [{"summary": "This spot is popular", "type": "general", "reasonName": "globalInteractionReason"}]}, "venue": {"id": "4c2e71057cc0c9b6c912ea9a", "name": "Jugendherberge Berlin International", "location": {"address": "Kluckstr. 3", "lat": 52.50507731155693, "lng": 13.362336804773523, "labeledLatLngs": [{"label": "display", "lat": 52.50507731155693, "lng": 13.362336804773523}], "distance": 661, "postalCode": "10785", "cc": "DE", "city": "Berlin", "state": "Berlin", "country": "Deutschland", "formattedAddress": ["Kluckstr. 3", "10785 Berlin", "Deutschland"]}, "categories": [{"id": "4bf58dd8d48988d1ee931735", "name": "Hostel", "pluralName": "Hostels", "shortName": "Hostel", "icon": {"prefix": "https://ss3.4sqi.net/img/categories_v2/travel/hostel_", "suffix": ".png"}, "primary": true}], "photos": {"count": 0, "groups": []}}, "referralId": "e-0-4c2e71057cc0c9b6c912ea9a-57"}, {"reasons": {"count": 0, "items": [{"summary": "This spot is popular", "type": "general", "reasonName": "globalInteractionReason"}]}, "venue": {"id": "504a1783e4b03dd0deb0521f", "name": "Spa InterContinental", "location": {"address": "Budapester Str. 2", "lat": 52.50723763333762, "lng": 13.346132968908123, "labeledLatLngs": [{"label": "display", "lat": 52.50723763333762, "lng": 13.346132968908123}], "distance": 892, "postalCode": "10787", "cc": "DE", "city": "Berlin", "state": "Berlin", "country": "Deutschland", "formattedAddress": ["Budapester Str. 2", "10787 Berlin", "Deutschland"]}, "categories": [{"id": "4bf58dd8d48988d1ed941735", "name": "Spa", "pluralName": "Spas", "shortName": "Spa", "icon": {"prefix": "https://ss3.4sqi.net/img/categories_v2/shops/spa_", "suffix": ".png"}, "primary": true}], "photos": {"count": 0, "groups": []}}, "referralId": "e-0-504a1783e4b03dd0deb0521f-58"}, {"reasons": {"count": 0, "items": [{"summary": "This spot is popular", "type": "general", "reasonName": "globalInteractionReason"}]}, "venue": {"id": "4c9f15be54c8a1cd0002944b", "name": "Kupferstichkabinett", "location": {"address": "Matth\u00e4ikirchplatz", "lat": 52.508685877077525, "lng": 13.366091251373291, "labeledLatLngs": [{"label": "display", "lat": 52.508685877077525, "lng": 13.366091251373291}], "distance": 570, "postalCode": "10785", "cc": "DE", "city": "Berlin", "state": "Berlin", "country": "Deutschland", "formattedAddress": ["Matth\u00e4ikirchplatz", "10785 Berlin", "Deutschland"]}, "categories": [{"id": "4bf58dd8d48988d18f941735", "name": "Art Museum", "pluralName": "Art Museums", "shortName": "Art Museum", "icon": {"prefix": "https://ss3.4sqi.net/img/categories_v2/arts_entertainment/museum_art_", "suffix": ".png"}, "primary": true}], "photos": {"count": 0, "groups": []}}, "referralId": "e-0-4c9f15be54c8a1cd0002944b-59"}, {"reasons": {"count": 0, "items": [{"summary": "This spot is popular", "type": "general", "reasonName": "globalInteractionReason"}]}, "venue": {"id": "55702684498e9e554e8a3d16", "name": "Tuntenwiese", "location": {"address": "Gro\u00dfer Tiergarten", "lat": 52.51283903408561, "lng": 13.349715784284044, "labeledLatLngs": [{"label": "display", "lat": 52.51283903408561, "lng": 13.349715784284044}], "distance": 632, "cc": "DE", "city": "Berlin", "state": "Berlin", "country": "Deutschland", "formattedAddress": ["Gro\u00dfer Tiergarten", "Berlin", "Deutschland"]}, "categories": [{"id": "4bf58dd8d48988d163941735", "name": "Park", "pluralName": "Parks", "shortName": "Park", "icon": {"prefix": "https://ss3.4sqi.net/img/categories_v2/parks_outdoors/park_", "suffix": ".png"}, "primary": true}], "photos": {"count": 0, "groups": []}}, "referralId": "e-0-55702684498e9e554e8a3d16-60"}, {"reasons": {"count": 0, "items": [{"summary": "This spot is popular", "type": "general", "reasonName": "globalInteractionReason"}]}, "venue": {"id": "536cec72498ee5ea76110218", "name": "La sardegna", "location": {"address": "Budapester Str. 11", "lat": 52.506676950015304, "lng": 13.346309843429559, "labeledLatLngs": [{"label": "display", "lat": 52.506676950015304, "lng": 13.346309843429559}], "distance": 908, "cc": "DE", "city": "Berlin", "state": "Berlin", "country": "Deutschland", "formattedAddress": ["Budapester Str. 11", "Berlin", "Deutschland"]}, "categories": [{"id": "4bf58dd8d48988d110941735", "name": "Italian Restaurant", "pluralName": "Italian Restaurants", "shortName": "Italian", "icon": {"prefix": "https://ss3.4sqi.net/img/categories_v2/food/italian_", "suffix": ".png"}, "primary": true}], "photos": {"count": 0, "groups": []}}, "referralId": "e-0-536cec72498ee5ea76110218-61"}, {"reasons": {"count": 0, "items": [{"summary": "This spot is popular", "type": "general", "reasonName": "globalInteractionReason"}]}, "venue": {"id": "4adcda84f964a520e04821e3", "name": "Hugos", "location": {"address": "Budapester Str. 2", "lat": 52.50673989067938, "lng": 13.34482669830322, "labeledLatLngs": [{"label": "display", "lat": 52.50673989067938, "lng": 13.34482669830322}], "distance": 995, "postalCode": "10787", "cc": "DE", "city": "Berlin", "state": "Berlin", "country": "Deutschland", "formattedAddress": ["Budapester Str. 2", "10787 Berlin", "Deutschland"]}, "categories": [{"id": "4bf58dd8d48988d10c941735", "name": "French Restaurant", "pluralName": "French Restaurants", "shortName": "French", "icon": {"prefix": "https://ss3.4sqi.net/img/categories_v2/food/french_", "suffix": ".png"}, "primary": true}], "photos": {"count": 0, "groups": []}}, "referralId": "e-0-4adcda84f964a520e04821e3-62"}, {"reasons": {"count": 0, "items": [{"summary": "This spot is popular", "type": "general", "reasonName": "globalInteractionReason"}]}, "venue": {"id": "4bd2a935a8b3a593e45d685f", "name": "B&B Hotel Berlin-Potsdamer Platz", "location": {"address": "Potsdamer Stra\u00dfe 90", "lat": 52.5027594, "lng": 13.3650664, "labeledLatLngs": [{"label": "display", "lat": 52.5027594, "lng": 13.3650664}], "distance": 975, "postalCode": "10785", "cc": "DE", "city": "Berlin", "state": "Berlin", "country": "Deutschland", "formattedAddress": ["Potsdamer Stra\u00dfe 90", "10785 Berlin", "Deutschland"]}, "categories": [{"id": "4bf58dd8d48988d1fa931735", "name": "Hotel", "pluralName": "Hotels", "shortName": "Hotel", "icon": {"prefix": "https://ss3.4sqi.net/img/categories_v2/travel/hotel_", "suffix": ".png"}, "primary": true}], "photos": {"count": 0, "groups": []}}, "referralId": "e-0-4bd2a935a8b3a593e45d685f-63"}, {"reasons": {"count": 0, "items": [{"summary": "This spot is popular", "type": "general", "reasonName": "globalInteractionReason"}]}, "venue": {"id": "57401528498e6a948bee20e0", "name": "Sheraton Club Lounge", "location": {"address": "L\u00fctzowufer 15", "lat": 52.50575853244261, "lng": 13.354830514739534, "labeledLatLngs": [{"label": "display", "lat": 52.50575853244261, "lng": 13.354830514739534}], "distance": 570, "cc": "DE", "city": "Berlin", "state": "Berlin", "country": "Deutschland", "formattedAddress": ["L\u00fctzowufer 15", "Berlin", "Deutschland"]}, "categories": [{"id": "4bf58dd8d48988d121941735", "name": "Lounge", "pluralName": "Lounges", "shortName": "Lounge", "icon": {"prefix": "https://ss3.4sqi.net/img/categories_v2/nightlife/default_", "suffix": ".png"}, "primary": true}], "photos": {"count": 0, "groups": []}}, "referralId": "e-0-57401528498e6a948bee20e0-64"}, {"reasons": {"count": 0, "items": [{"summary": "This spot is popular", "type": "general", "reasonName": "globalInteractionReason"}]}, "venue": {"id": "4df50e6e6284fefe8fc7db41", "name": "Dalmacija Grill", "location": {"address": "Potsdamer Str. 84", "lat": 52.50331171078395, "lng": 13.365868163061688, "labeledLatLngs": [{"label": "display", "lat": 52.50331171078395, "lng": 13.365868163061688}], "distance": 950, "postalCode": "10785", "cc": "DE", "city": "Berlin", "state": "Berlin", "country": "Deutschland", "formattedAddress": ["Potsdamer Str. 84", "10785 Berlin", "Deutschland"]}, "categories": [{"id": "4bf58dd8d48988d1c0941735", "name": "Mediterranean Restaurant", "pluralName": "Mediterranean Restaurants", "shortName": "Mediterranean", "icon": {"prefix": "https://ss3.4sqi.net/img/categories_v2/food/mediterranean_", "suffix": ".png"}, "primary": true}], "photos": {"count": 0, "groups": []}}, "referralId": "e-0-4df50e6e6284fefe8fc7db41-65"}, {"reasons": {"count": 0, "items": [{"summary": "This spot is popular", "type": "general", "reasonName": "globalInteractionReason"}]}, "venue": {"id": "5249a6a911d224c2fc666bc0", "name": "L\u00fctzow Bar", "location": {"address": "L\u00fctzowplatz 7", "lat": 52.50463363248069, "lng": 13.353377656978212, "labeledLatLngs": [{"label": "display", "lat": 52.50463363248069, "lng": 13.353377656978212}], "distance": 725, "postalCode": "10785", "cc": "DE", "city": "Berlin", "state": "Berlin", "country": "Deutschland", "formattedAddress": ["L\u00fctzowplatz 7", "10785 Berlin", "Deutschland"]}, "categories": [{"id": "4bf58dd8d48988d11e941735", "name": "Cocktail Bar", "pluralName": "Cocktail Bars", "shortName": "Cocktail", "icon": {"prefix": "https://ss3.4sqi.net/img/categories_v2/nightlife/cocktails_", "suffix": ".png"}, "primary": true}], "photos": {"count": 0, "groups": []}, "venuePage": {"id": "565110348"}}, "referralId": "e-0-5249a6a911d224c2fc666bc0-66"}, {"reasons": {"count": 0, "items": [{"summary": "This spot is popular", "type": "general", "reasonName": "globalInteractionReason"}]}, "venue": {"id": "52de4ba411d2021128e3cbc7", "name": "Pauls Deli", "location": {"address": "L\u00fctzowstr. 24", "crossStreet": "Potsdamer Str.", "lat": 52.50349847514827, "lng": 13.364369174505258, "labeledLatLngs": [{"label": "display", "lat": 52.50349847514827, "lng": 13.364369174505258}], "distance": 880, "postalCode": "10785", "cc": "DE", "city": "Berlin", "state": "Berlin", "country": "Deutschland", "formattedAddress": ["L\u00fctzowstr. 24 (Potsdamer Str.)", "10785 Berlin", "Deutschland"]}, "categories": [{"id": "4bf58dd8d48988d146941735", "name": "Deli / Bodega", "pluralName": "Delis / Bodegas", "shortName": "Deli / Bodega", "icon": {"prefix": "https://ss3.4sqi.net/img/categories_v2/food/deli_", "suffix": ".png"}, "primary": true}], "photos": {"count": 0, "groups": []}}, "referralId": "e-0-52de4ba411d2021128e3cbc7-67"}, {"reasons": {"count": 0, "items": [{"summary": "This spot is popular", "type": "general", "reasonName": "globalInteractionReason"}]}, "venue": {"id": "4be1d8daedbb0f47b0e2a615", "name": "Golden Tulip Berlin - Hotel Hamburg", "location": {"address": "Landgrafenstr. 4", "lat": 52.50416687706999, "lng": 13.348828554153442, "labeledLatLngs": [{"label": "display", "lat": 52.50416687706999, "lng": 13.348828554153442}], "distance": 944, "postalCode": "10787", "cc": "DE", "city": "Berlin", "state": "Berlin", "country": "Deutschland", "formattedAddress": ["Landgrafenstr. 4", "10787 Berlin", "Deutschland"]}, "categories": [{"id": "4bf58dd8d48988d1fa931735", "name": "Hotel", "pluralName": "Hotels", "shortName": "Hotel", "icon": {"prefix": "https://ss3.4sqi.net/img/categories_v2/travel/hotel_", "suffix": ".png"}, "primary": true}], "photos": {"count": 0, "groups": []}, "venuePage": {"id": "43749082"}}, "referralId": "e-0-4be1d8daedbb0f47b0e2a615-68"}, {"reasons": {"count": 0, "items": [{"summary": "This spot is popular", "type": "general", "reasonName": "globalInteractionReason"}]}, "venue": {"id": "4be98848a9900f472b691540", "name": "M\u00f6bel H\u00fcbner", "location": {"address": "Genthiner Str. 41", "lat": 52.50161362665192, "lng": 13.35873970174266, "labeledLatLngs": [{"label": "display", "lat": 52.50161362665192, "lng": 13.35873970174266}], "distance": 984, "postalCode": "10785", "cc": "DE", "city": "Berlin", "state": "Berlin", "country": "Deutschland", "formattedAddress": ["Genthiner Str. 41", "10785 Berlin", "Deutschland"]}, "categories": [{"id": "4bf58dd8d48988d1f8941735", "name": "Furniture / Home Store", "pluralName": "Furniture / Home Stores", "shortName": "Furniture / Home", "icon": {"prefix": "https://ss3.4sqi.net/img/categories_v2/shops/furniture_", "suffix": ".png"}, "primary": true}], "photos": {"count": 0, "groups": []}}, "referralId": "e-0-4be98848a9900f472b691540-69"}, {"reasons": {"count": 0, "items": [{"summary": "This spot is popular", "type": "general", "reasonName": "globalInteractionReason"}]}, "venue": {"id": "4b6c1db3f964a520a3242ce3", "name": "Tizian", "location": {"address": "Marlene-Dietrich-Platz 2", "lat": 52.50821995080308, "lng": 13.372290352636487, "labeledLatLngs": [{"label": "display", "lat": 52.50821995080308, "lng": 13.372290352636487}], "distance": 987, "postalCode": "10785", "cc": "DE", "city": "Berlin", "state": "Berlin", "country": "Deutschland", "formattedAddress": ["Marlene-Dietrich-Platz 2", "10785 Berlin", "Deutschland"]}, "categories": [{"id": "4bf58dd8d48988d1c4941735", "name": "Restaurant", "pluralName": "Restaurants", "shortName": "Restaurant", "icon": {"prefix": "https://ss3.4sqi.net/img/categories_v2/food/default_", "suffix": ".png"}, "primary": true}], "photos": {"count": 0, "groups": []}}, "referralId": "e-0-4b6c1db3f964a520a3242ce3-70"}, {"reasons": {"count": 0, "items": [{"summary": "This spot is popular", "type": "general", "reasonName": "globalInteractionReason"}]}, "venue": {"id": "4fb921100039fc6d7b42ad9e", "name": "Persepolis Restaurant & Konditorei", "location": {"address": "Kurf\u00fcrstenstr. 127", "lat": 52.50263360942021, "lng": 13.351655338014531, "labeledLatLngs": [{"label": "display", "lat": 52.50263360942021, "lng": 13.351655338014531}], "distance": 976, "postalCode": "10785", "cc": "DE", "city": "Berlin", "state": "Berlin", "country": "Deutschland", "formattedAddress": ["Kurf\u00fcrstenstr. 127", "10785 Berlin", "Deutschland"]}, "categories": [{"id": "52e81612bcbc57f1066b79f7", "name": "Persian Restaurant", "pluralName": "Persian Restaurants", "shortName": "Persian", "icon": {"prefix": "https://ss3.4sqi.net/img/categories_v2/food/middleeastern_", "suffix": ".png"}, "primary": true}], "photos": {"count": 0, "groups": []}}, "referralId": "e-0-4fb921100039fc6d7b42ad9e-71"}, {"reasons": {"count": 0, "items": [{"summary": "This spot is popular", "type": "general", "reasonName": "globalInteractionReason"}]}, "venue": {"id": "4fcc8062e4b0bd7c57cf49b5", "name": "Hotel L\u00fctzow", "location": {"address": "Keithstr. 38", "lat": 52.50601997808229, "lng": 13.348624259708194, "labeledLatLngs": [{"label": "display", "lat": 52.50601997808229, "lng": 13.348624259708194}], "distance": 814, "postalCode": "10787", "cc": "DE", "city": "Berlin", "state": "Berlin", "country": "Deutschland", "formattedAddress": ["Keithstr. 38", "10787 Berlin", "Deutschland"]}, "categories": [{"id": "4bf58dd8d48988d1fa931735", "name": "Hotel", "pluralName": "Hotels", "shortName": "Hotel", "icon": {"prefix": "https://ss3.4sqi.net/img/categories_v2/travel/hotel_", "suffix": ".png"}, "primary": true}], "photos": {"count": 0, "groups": []}}, "referralId": "e-0-4fcc8062e4b0bd7c57cf49b5-72"}, {"reasons": {"count": 0, "items": [{"summary": "This spot is popular", "type": "general", "reasonName": "globalInteractionReason"}]}, "venue": {"id": "5d5de9a78d4baf0008e53d81", "name": "EDEKA Genthiner Stra\u00dfe Berlin", "location": {"address": "Genthiner Str. 42", "lat": 52.50195866726294, "lng": 13.358392453665147, "labeledLatLngs": [{"label": "display", "lat": 52.50195866726294, "lng": 13.358392453665147}], "distance": 945, "postalCode": "10785", "cc": "DE", "city": "Berlin", "state": "Berlin", "country": "Deutschland", "formattedAddress": ["Genthiner Str. 42", "10785 Berlin", "Deutschland"]}, "categories": [{"id": "52f2ab2ebcbc57f1066b8b46", "name": "Supermarket", "pluralName": "Supermarkets", "shortName": "Supermarket", "icon": {"prefix": "https://ss3.4sqi.net/img/categories_v2/shops/food_grocery_", "suffix": ".png"}, "primary": true}], "photos": {"count": 0, "groups": []}, "venuePage": {"id": "553635435"}}, "referralId": "e-0-5d5de9a78d4baf0008e53d81-73"}, {"reasons": {"count": 0, "items": [{"summary": "This spot is popular", "type": "general", "reasonName": "globalInteractionReason"}]}, "venue": {"id": "5bc5d8df6eda02002ceb1cbf", "name": "Quentin XL Hotel", "location": {"address": "potsdamer Strasse 76", "lat": 52.503901, "lng": 13.366229, "labeledLatLngs": [{"label": "display", "lat": 52.503901, "lng": 13.366229}], "distance": 910, "cc": "DE", "city": "Berlin", "state": "Berlin", "country": "Deutschland", "formattedAddress": ["potsdamer Strasse 76", "Berlin", "Deutschland"]}, "categories": [{"id": "4bf58dd8d48988d1fa931735", "name": "Hotel", "pluralName": "Hotels", "shortName": "Hotel", "icon": {"prefix": "https://ss3.4sqi.net/img/categories_v2/travel/hotel_", "suffix": ".png"}, "primary": true}], "photos": {"count": 0, "groups": []}}, "referralId": "e-0-5bc5d8df6eda02002ceb1cbf-74"}, {"reasons": {"count": 0, "items": [{"summary": "This spot is popular", "type": "general", "reasonName": "globalInteractionReason"}]}, "venue": {"id": "50cc6e69e4b0821752d5c47e", "name": "Caf\u00e9 im Bauhaus-Archiv", "location": {"address": "Klingelh\u00f6ferstr. 14", "crossStreet": "Von-der-Heydt-Str.", "lat": 52.506372668573704, "lng": 13.353988125172108, "labeledLatLngs": [{"label": "display", "lat": 52.506372668573704, "lng": 13.353988125172108}], "distance": 536, "postalCode": "10785", "cc": "DE", "city": "Berlin", "state": "Berlin", "country": "Deutschland", "formattedAddress": ["Klingelh\u00f6ferstr. 14 (Von-der-Heydt-Str.)", "10785 Berlin", "Deutschland"]}, "categories": [{"id": "4bf58dd8d48988d16d941735", "name": "Caf\u00e9", "pluralName": "Caf\u00e9s", "shortName": "Caf\u00e9", "icon": {"prefix": "https://ss3.4sqi.net/img/categories_v2/food/cafe_", "suffix": ".png"}, "primary": true}], "photos": {"count": 0, "groups": []}}, "referralId": "e-0-50cc6e69e4b0821752d5c47e-75"}, {"reasons": {"count": 0, "items": [{"summary": "This spot is popular", "type": "general", "reasonName": "globalInteractionReason"}]}, "venue": {"id": "5a215e2a1c0b34450ed33273", "name": "Lulu Guldsmeden", "location": {"address": "Potsdamer Str. 67", "crossStreet": "L\u00fctzowstr.", "lat": 52.50338093060722, "lng": 13.366036271381173, "labeledLatLngs": [{"label": "display", "lat": 52.50338093060722, "lng": 13.366036271381173}], "distance": 950, "postalCode": "10785", "cc": "DE", "city": "Berlin", "state": "Berlin", "country": "Deutschland", "formattedAddress": ["Potsdamer Str. 67 (L\u00fctzowstr.)", "10785 Berlin", "Deutschland"]}, "categories": [{"id": "4bf58dd8d48988d1fa931735", "name": "Hotel", "pluralName": "Hotels", "shortName": "Hotel", "icon": {"prefix": "https://ss3.4sqi.net/img/categories_v2/travel/hotel_", "suffix": ".png"}, "primary": true}], "photos": {"count": 0, "groups": []}}, "referralId": "e-0-5a215e2a1c0b34450ed33273-76"}, {"reasons": {"count": 0, "items": [{"summary": "This spot is popular", "type": "general", "reasonName": "globalInteractionReason"}]}, "venue": {"id": "4bc7793393bdeee1166c37ae", "name": "Residenz Begaswinkel", "location": {"address": "Genthiner Str. 30a", "lat": 52.5035715108364, "lng": 13.358294604811105, "labeledLatLngs": [{"label": "display", "lat": 52.5035715108364, "lng": 13.358294604811105}], "distance": 766, "postalCode": "10785", "cc": "DE", "city": "Berlin", "state": "Berlin", "country": "Deutschland", "formattedAddress": ["Genthiner Str. 30a", "10785 Berlin", "Deutschland"]}, "categories": [{"id": "4bf58dd8d48988d1fa931735", "name": "Hotel", "pluralName": "Hotels", "shortName": "Hotel", "icon": {"prefix": "https://ss3.4sqi.net/img/categories_v2/travel/hotel_", "suffix": ".png"}, "primary": true}], "photos": {"count": 0, "groups": []}}, "referralId": "e-0-4bc7793393bdeee1166c37ae-77"}, {"reasons": {"count": 0, "items": [{"summary": "This spot is popular", "type": "general", "reasonName": "globalInteractionReason"}]}, "venue": {"id": "54de8875498e53a7884e31d6", "name": "L\u00fctzow St\u00fcbchen bei Olga", "location": {"address": "L\u00fctzowstr. 81", "lat": 52.50363578651227, "lng": 13.362478317782754, "labeledLatLngs": [{"label": "display", "lat": 52.50363578651227, "lng": 13.362478317782754}], "distance": 812, "postalCode": "10785", "cc": "DE", "city": "Berlin", "state": "Berlin", "country": "Deutschland", "formattedAddress": ["L\u00fctzowstr. 81", "10785 Berlin", "Deutschland"]}, "categories": [{"id": "4bf58dd8d48988d116941735", "name": "Bar", "pluralName": "Bars", "shortName": "Bar", "icon": {"prefix": "https://ss3.4sqi.net/img/categories_v2/nightlife/pub_", "suffix": ".png"}, "primary": true}], "photos": {"count": 0, "groups": []}, "venuePage": {"id": "559359969"}}, "referralId": "e-0-54de8875498e53a7884e31d6-78"}, {"reasons": {"count": 0, "items": [{"summary": "This spot is popular", "type": "general", "reasonName": "globalInteractionReason"}]}, "venue": {"id": "4cdae7f2930af04dfbb08797", "name": "Eventlocation Alte Pumpe", "location": {"address": "L\u00fctzowstr. 42", "lat": 52.5054807876333, "lng": 13.358202960121718, "labeledLatLngs": [{"label": "display", "lat": 52.5054807876333, "lng": 13.358202960121718}], "distance": 553, "postalCode": "10785", "cc": "DE", "city": "Berlin", "state": "Berlin", "country": "Deutschland", "formattedAddress": ["L\u00fctzowstr. 42", "10785 Berlin", "Deutschland"]}, "categories": [{"id": "4bf58dd8d48988d10d941735", "name": "German Restaurant", "pluralName": "German Restaurants", "shortName": "German", "icon": {"prefix": "https://ss3.4sqi.net/img/categories_v2/food/german_", "suffix": ".png"}, "primary": true}], "photos": {"count": 0, "groups": []}}, "referralId": "e-0-4cdae7f2930af04dfbb08797-79"}, {"reasons": {"count": 0, "items": [{"summary": "This spot is popular", "type": "general", "reasonName": "globalInteractionReason"}]}, "venue": {"id": "5547d406498ea16d16e64173", "name": "Ayan Filipino Streetfood", "location": {"address": "Potsdamer Str. 69", "crossStreet": "L\u00fctzowstr.", "lat": 52.50322001571735, "lng": 13.365807039152024, "labeledLatLngs": [{"label": "display", "lat": 52.50322001571735, "lng": 13.365807039152024}], "distance": 956, "postalCode": "10785", "cc": "DE", "city": "Berlin", "state": "Berlin", "country": "Deutschland", "formattedAddress": ["Potsdamer Str. 69 (L\u00fctzowstr.)", "10785 Berlin", "Deutschland"]}, "categories": [{"id": "4eb1bd1c3b7b55596b4a748f", "name": "Filipino Restaurant", "pluralName": "Filipino Restaurants", "shortName": "Filipino", "icon": {"prefix": "https://ss3.4sqi.net/img/categories_v2/food/filipino_", "suffix": ".png"}, "primary": true}], "photos": {"count": 0, "groups": []}}, "referralId": "e-0-5547d406498ea16d16e64173-80"}, {"reasons": {"count": 0, "items": [{"summary": "This spot is popular", "type": "general", "reasonName": "globalInteractionReason"}]}, "venue": {"id": "5602a9cb498ef549be8635fa", "name": "RED Ballroom", "location": {"address": "Genthiner Str. 20", "crossStreet": "L\u00fctzowstr.", "lat": 52.504087485576726, "lng": 13.359573893221208, "labeledLatLngs": [{"label": "display", "lat": 52.504087485576726, "lng": 13.359573893221208}], "distance": 715, "postalCode": "10785", "cc": "DE", "city": "Berlin", "state": "Berlin", "country": "Deutschland", "formattedAddress": ["Genthiner Str. 20 (L\u00fctzowstr.)", "10785 Berlin", "Deutschland"]}, "categories": [{"id": "4bf58dd8d48988d171941735", "name": "Event Space", "pluralName": "Event Spaces", "shortName": "Event Space", "icon": {"prefix": "https://ss3.4sqi.net/img/categories_v2/building/eventspace_", "suffix": ".png"}, "primary": true}], "photos": {"count": 0, "groups": []}}, "referralId": "e-0-5602a9cb498ef549be8635fa-81"}, {"reasons": {"count": 0, "items": [{"summary": "This spot is popular", "type": "general", "reasonName": "globalInteractionReason"}]}, "venue": {"id": "4adcda92f964a520084c21e3", "name": "LEGOLAND Discovery Centre", "location": {"address": "Potsdamer Str. 4", "lat": 52.509749, "lng": 13.370153, "labeledLatLngs": [{"label": "display", "lat": 52.509749, "lng": 13.370153}], "distance": 814, "postalCode": "10785", "cc": "DE", "city": "Berlin", "state": "Berlin", "country": "Deutschland", "formattedAddress": ["Potsdamer Str. 4", "10785 Berlin", "Deutschland"]}, "categories": [{"id": "5744ccdfe4b0c0459246b4b5", "name": "Indoor Play Area", "pluralName": "Indoor Play Areas", "shortName": "Indoor Play Area", "icon": {"prefix": "https://ss3.4sqi.net/img/categories_v2/parks_outdoors/playground_", "suffix": ".png"}, "primary": true}], "photos": {"count": 0, "groups": []}}, "referralId": "e-0-4adcda92f964a520084c21e3-82"}, {"reasons": {"count": 0, "items": [{"summary": "This spot is popular", "type": "general", "reasonName": "globalInteractionReason"}]}, "venue": {"id": "563841e9cd10a07d22f50d0b", "name": "Ma\u00eetre vite", "location": {"address": "Potsdamer Str. 71", "lat": 52.502865, "lng": 13.365861, "labeledLatLngs": [{"label": "display", "lat": 52.502865, "lng": 13.365861}], "distance": 991, "postalCode": "10785", "cc": "DE", "city": "Berlin", "state": "Berlin", "country": "Deutschland", "formattedAddress": ["Potsdamer Str. 71", "10785 Berlin", "Deutschland"]}, "categories": [{"id": "4bf58dd8d48988d16a941735", "name": "Bakery", "pluralName": "Bakeries", "shortName": "Bakery", "icon": {"prefix": "https://ss3.4sqi.net/img/categories_v2/food/bakery_", "suffix": ".png"}, "primary": true}], "photos": {"count": 0, "groups": []}}, "referralId": "e-0-563841e9cd10a07d22f50d0b-83"}, {"reasons": {"count": 0, "items": [{"summary": "This spot is popular", "type": "general", "reasonName": "globalInteractionReason"}]}, "venue": {"id": "5155eb33e4b0641ed4f0954c", "name": "Ja! NIKO Ja!", "location": {"address": "Budapester Str. 13", "lat": 52.50665672190756, "lng": 13.345743632988269, "labeledLatLngs": [{"label": "display", "lat": 52.50665672190756, "lng": 13.345743632988269}], "distance": 943, "postalCode": "10787", "cc": "DE", "city": "Berlin", "state": "Berlin", "country": "Deutschland", "formattedAddress": ["Budapester Str. 13", "10787 Berlin", "Deutschland"]}, "categories": [{"id": "4bf58dd8d48988d10e941735", "name": "Greek Restaurant", "pluralName": "Greek Restaurants", "shortName": "Greek", "icon": {"prefix": "https://ss3.4sqi.net/img/categories_v2/food/greek_", "suffix": ".png"}, "primary": true}], "photos": {"count": 0, "groups": []}}, "referralId": "e-0-5155eb33e4b0641ed4f0954c-84"}, {"reasons": {"count": 0, "items": [{"summary": "This spot is popular", "type": "general", "reasonName": "globalInteractionReason"}]}, "venue": {"id": "5069e9ac498e824060550df7", "name": "H Hiroshimasteg", "location": {"address": "L\u00fctzowufer / Reichpietschufer", "crossStreet": "Hiroshimasteg", "lat": 52.506491738568975, "lng": 13.357175588607788, "labeledLatLngs": [{"label": "display", "lat": 52.506491738568975, "lng": 13.357175588607788}], "distance": 446, "postalCode": "10785", "cc": "DE", "neighborhood": "Tiergarten", "city": "Berlin", "state": "Berlin", "country": "Deutschland", "formattedAddress": ["L\u00fctzowufer / Reichpietschufer (Hiroshimasteg)", "10785 Berlin", "Deutschland"]}, "categories": [{"id": "52f2ab2ebcbc57f1066b8b4f", "name": "Bus Stop", "pluralName": "Bus Stops", "shortName": "Bus Stop", "icon": {"prefix": "https://ss3.4sqi.net/img/categories_v2/travel/busstation_", "suffix": ".png"}, "primary": true}], "photos": {"count": 0, "groups": []}}, "referralId": "e-0-5069e9ac498e824060550df7-85"}, {"reasons": {"count": 0, "items": [{"summary": "This spot is popular", "type": "general", "reasonName": "globalInteractionReason"}]}, "venue": {"id": "4d4422f64e5d37047bb7e793", "name": "Netto Marken-Discount", "location": {"address": "Kurf\u00fcrstenstr. 75", "lat": 52.5037301, "lng": 13.3488097, "labeledLatLngs": [{"label": "display", "lat": 52.5037301, "lng": 13.3488097}], "distance": 982, "postalCode": "10787", "cc": "DE", "city": "Tiergarten", "state": "Berlin", "country": "Deutschland", "formattedAddress": ["Kurf\u00fcrstenstr. 75", "10787 Berlin-Tiergarten", "Deutschland"]}, "categories": [{"id": "52f2ab2ebcbc57f1066b8b46", "name": "Supermarket", "pluralName": "Supermarkets", "shortName": "Supermarket", "icon": {"prefix": "https://ss3.4sqi.net/img/categories_v2/shops/food_grocery_", "suffix": ".png"}, "primary": true}], "photos": {"count": 0, "groups": []}, "venuePage": {"id": "539030784"}}, "referralId": "e-0-4d4422f64e5d37047bb7e793-86"}, {"reasons": {"count": 0, "items": [{"summary": "This spot is popular", "type": "general", "reasonName": "globalInteractionReason"}]}, "venue": {"id": "4adcda7bf964a520334721e3", "name": "40seconds", "location": {"address": "Potsdamer Str. 58", "crossStreet": "Sch\u00f6neberger Ufer", "lat": 52.505362114032025, "lng": 13.367536913393549, "labeledLatLngs": [{"label": "display", "lat": 52.505362114032025, "lng": 13.367536913393549}], "distance": 849, "postalCode": "10785", "cc": "DE", "neighborhood": "Tiergarten", "city": "Berlin", "state": "Berlin", "country": "Deutschland", "formattedAddress": ["Potsdamer Str. 58 (Sch\u00f6neberger Ufer)", "10785 Berlin", "Deutschland"]}, "categories": [{"id": "4bf58dd8d48988d133951735", "name": "Roof Deck", "pluralName": "Roof Decks", "shortName": "Roof Deck", "icon": {"prefix": "https://ss3.4sqi.net/img/categories_v2/travel/hotel_roofdeck_", "suffix": ".png"}, "primary": true}], "photos": {"count": 0, "groups": []}}, "referralId": "e-0-4adcda7bf964a520334721e3-87"}, {"reasons": {"count": 0, "items": [{"summary": "This spot is popular", "type": "general", "reasonName": "globalInteractionReason"}]}, "venue": {"id": "4b1e1e1ff964a5207e1724e3", "name": "L\u00fctzowplatz", "location": {"address": "L\u00fctzowplatz", "lat": 52.50461913113516, "lng": 13.351825341985139, "labeledLatLngs": [{"label": "display", "lat": 52.50461913113516, "lng": 13.351825341985139}], "distance": 779, "postalCode": "10785", "cc": "DE", "city": "Berlin", "state": "Berlin", "country": "Deutschland", "formattedAddress": ["L\u00fctzowplatz", "10785 Berlin", "Deutschland"]}, "categories": [{"id": "4bf58dd8d48988d164941735", "name": "Plaza", "pluralName": "Plazas", "shortName": "Plaza", "icon": {"prefix": "https://ss3.4sqi.net/img/categories_v2/parks_outdoors/plaza_", "suffix": ".png"}, "primary": true}], "photos": {"count": 0, "groups": []}}, "referralId": "e-0-4b1e1e1ff964a5207e1724e3-88"}, {"reasons": {"count": 0, "items": [{"summary": "This spot is popular", "type": "general", "reasonName": "globalInteractionReason"}]}, "venue": {"id": "4eafd68a02d521a7a7f261c1", "name": "Restaurant M", "location": {"address": "Stauffenbergstr. 26", "lat": 52.50709252547882, "lng": 13.363580703735352, "labeledLatLngs": [{"label": "display", "lat": 52.50709252547882, "lng": 13.363580703735352}], "distance": 522, "postalCode": "10785", "cc": "DE", "city": "Berlin", "state": "Berlin", "country": "Deutschland", "formattedAddress": ["Stauffenbergstr. 26", "10785 Berlin", "Deutschland"]}, "categories": [{"id": "4bf58dd8d48988d10d941735", "name": "German Restaurant", "pluralName": "German Restaurants", "shortName": "German", "icon": {"prefix": "https://ss3.4sqi.net/img/categories_v2/food/german_", "suffix": ".png"}, "primary": true}], "photos": {"count": 0, "groups": []}}, "referralId": "e-0-4eafd68a02d521a7a7f261c1-89"}, {"reasons": {"count": 0, "items": [{"summary": "This spot is popular", "type": "general", "reasonName": "globalInteractionReason"}]}, "venue": {"id": "4adcda77f964a520f44521e3", "name": "Trompete", "location": {"address": "L\u00fctzowplatz 9", "lat": 52.50434232865603, "lng": 13.35300721740281, "labeledLatLngs": [{"label": "display", "lat": 52.50434232865603, "lng": 13.35300721740281}], "distance": 765, "postalCode": "10785", "cc": "DE", "city": "Berlin", "state": "Berlin", "country": "Deutschland", "formattedAddress": ["L\u00fctzowplatz 9", "10785 Berlin", "Deutschland"]}, "categories": [{"id": "4bf58dd8d48988d11f941735", "name": "Nightclub", "pluralName": "Nightclubs", "shortName": "Nightclub", "icon": {"prefix": "https://ss3.4sqi.net/img/categories_v2/nightlife/nightclub_", "suffix": ".png"}, "primary": true}], "photos": {"count": 0, "groups": []}}, "referralId": "e-0-4adcda77f964a520f44521e3-90"}, {"reasons": {"count": 0, "items": [{"summary": "This spot is popular", "type": "general", "reasonName": "globalInteractionReason"}]}, "venue": {"id": "515ea020e4b0662112e46d1f", "name": "Esplanade Poolbereich", "location": {"address": "Grand Hotel Esplanade Berlin", "lat": 52.50522606759409, "lng": 13.355127440419716, "labeledLatLngs": [{"label": "display", "lat": 52.50522606759409, "lng": 13.355127440419716}], "distance": 618, "cc": "DE", "city": "Berlin", "state": "Berlin", "country": "Deutschland", "formattedAddress": ["Grand Hotel Esplanade Berlin", "Berlin", "Deutschland"]}, "categories": [{"id": "4bf58dd8d48988d132951735", "name": "Hotel Pool", "pluralName": "Hotel Pools", "shortName": "Pool", "icon": {"prefix": "https://ss3.4sqi.net/img/categories_v2/parks_outdoors/pool_", "suffix": ".png"}, "primary": true}], "photos": {"count": 0, "groups": []}}, "referralId": "e-0-515ea020e4b0662112e46d1f-91"}, {"reasons": {"count": 0, "items": [{"summary": "This spot is popular", "type": "general", "reasonName": "globalInteractionReason"}]}, "venue": {"id": "4dc7ae69fa76d685ce1658e8", "name": "Spielplatz", "location": {"address": "John-Foster-Dulles-Allee 10", "lat": 52.516661709872984, "lng": 13.35824891433112, "labeledLatLngs": [{"label": "display", "lat": 52.516661709872984, "lng": 13.35824891433112}], "distance": 690, "postalCode": "10557", "cc": "DE", "neighborhood": "Tiergarten", "city": "Berlin", "state": "Berlin", "country": "Deutschland", "formattedAddress": ["John-Foster-Dulles-Allee 10", "10557 Berlin", "Deutschland"]}, "categories": [{"id": "4bf58dd8d48988d1e7941735", "name": "Playground", "pluralName": "Playgrounds", "shortName": "Playground", "icon": {"prefix": "https://ss3.4sqi.net/img/categories_v2/parks_outdoors/playground_", "suffix": ".png"}, "primary": true}], "photos": {"count": 0, "groups": []}}, "referralId": "e-0-4dc7ae69fa76d685ce1658e8-92"}, {"reasons": {"count": 0, "items": [{"summary": "This spot is popular", "type": "general", "reasonName": "globalInteractionReason"}]}, "venue": {"id": "4f4243eee4b0740e7cb0a58f", "name": "Gro\u00dff\u00fcrstenplatz", "location": {"address": "John-Forster-Dulles-Allee", "lat": 52.51681075255974, "lng": 13.358301942487156, "labeledLatLngs": [{"label": "display", "lat": 52.51681075255974, "lng": 13.358301942487156}], "distance": 707, "postalCode": "10557", "cc": "DE", "city": "Berlin", "state": "Berlin", "country": "Deutschland", "formattedAddress": ["John-Forster-Dulles-Allee", "10557 Berlin", "Deutschland"]}, "categories": [{"id": "4bf58dd8d48988d164941735", "name": "Plaza", "pluralName": "Plazas", "shortName": "Plaza", "icon": {"prefix": "https://ss3.4sqi.net/img/categories_v2/parks_outdoors/plaza_", "suffix": ".png"}, "primary": true}], "photos": {"count": 0, "groups": []}}, "referralId": "e-0-4f4243eee4b0740e7cb0a58f-93"}, {"reasons": {"count": 0, "items": [{"summary": "This spot is popular", "type": "general", "reasonName": "globalInteractionReason"}]}, "venue": {"id": "4b9fb143f964a5206d3537e3", "name": "Tiergartentunnel", "location": {"address": "Tunnel Tiergarten", "lat": 52.511182469187695, "lng": 13.370960649936837, "labeledLatLngs": [{"label": "display", "lat": 52.511182469187695, "lng": 13.370960649936837}], "distance": 868, "cc": "DE", "city": "Berlin", "state": "Berlin", "country": "Deutschland", "formattedAddress": ["Tunnel Tiergarten", "Berlin", "Deutschland"]}, "categories": [{"id": "52f2ab2ebcbc57f1066b8b4a", "name": "Tunnel", "pluralName": "Tunnels", "shortName": "Tunnel", "icon": {"prefix": "https://ss3.4sqi.net/img/categories_v2/travel/default_", "suffix": ".png"}, "primary": true}], "photos": {"count": 0, "groups": []}}, "referralId": "e-0-4b9fb143f964a5206d3537e3-94"}, {"reasons": {"count": 0, "items": [{"summary": "This spot is popular", "type": "general", "reasonName": "globalInteractionReason"}]}, "venue": {"id": "4cfc319bee9cb60ce63894ad", "name": "H L\u00fctzowplatz", "location": {"address": "L\u00fctzowplatz", "crossStreet": "Schillstr.", "lat": 52.504961589767035, "lng": 13.35155906861064, "labeledLatLngs": [{"label": "display", "lat": 52.504961589767035, "lng": 13.35155906861064}], "distance": 758, "postalCode": "10785", "cc": "DE", "city": "Berlin", "state": "Berlin", "country": "Deutschland", "formattedAddress": ["L\u00fctzowplatz (Schillstr.)", "10785 Berlin", "Deutschland"]}, "categories": [{"id": "52f2ab2ebcbc57f1066b8b4f", "name": "Bus Stop", "pluralName": "Bus Stops", "shortName": "Bus Stop", "icon": {"prefix": "https://ss3.4sqi.net/img/categories_v2/travel/busstation_", "suffix": ".png"}, "primary": true}], "photos": {"count": 0, "groups": []}}, "referralId": "e-0-4cfc319bee9cb60ce63894ad-95"}, {"reasons": {"count": 0, "items": [{"summary": "This spot is popular", "type": "general", "reasonName": "globalInteractionReason"}]}, "venue": {"id": "4adcda83f964a520994821e3", "name": "Haus am L\u00fctzowplatz", "location": {"address": "L\u00fctzowplatz 9", "lat": 52.504174935153046, "lng": 13.353702155060107, "labeledLatLngs": [{"label": "display", "lat": 52.504174935153046, "lng": 13.353702155060107}], "distance": 762, "postalCode": "10785", "cc": "DE", "city": "Berlin", "state": "Berlin", "country": "Deutschland", "formattedAddress": ["L\u00fctzowplatz 9", "10785 Berlin", "Deutschland"]}, "categories": [{"id": "4bf58dd8d48988d1e2931735", "name": "Art Gallery", "pluralName": "Art Galleries", "shortName": "Art Gallery", "icon": {"prefix": "https://ss3.4sqi.net/img/categories_v2/arts_entertainment/artgallery_", "suffix": ".png"}, "primary": true}], "photos": {"count": 0, "groups": []}}, "referralId": "e-0-4adcda83f964a520994821e3-96"}, {"reasons": {"count": 0, "items": [{"summary": "This spot is popular", "type": "general", "reasonName": "globalInteractionReason"}]}, "venue": {"id": "52d9a097498e982afb2beb29", "name": "Shop der Philharmonie", "location": {"address": "Herbert-von-Karajan-Str. 1", "lat": 52.509887382703425, "lng": 13.369460105895996, "labeledLatLngs": [{"label": "display", "lat": 52.509887382703425, "lng": 13.369460105895996}], "distance": 766, "postalCode": "10785", "cc": "DE", "city": "Berlin", "state": "Berlin", "country": "Deutschland", "formattedAddress": ["Herbert-von-Karajan-Str. 1", "10785 Berlin", "Deutschland"]}, "categories": [{"id": "4bf58dd8d48988d10d951735", "name": "Record Shop", "pluralName": "Record Shops", "shortName": "Record Shop", "icon": {"prefix": "https://ss3.4sqi.net/img/categories_v2/shops/record_shop_", "suffix": ".png"}, "primary": true}], "photos": {"count": 0, "groups": []}}, "referralId": "e-0-52d9a097498e982afb2beb29-97"}, {"reasons": {"count": 0, "items": [{"summary": "This spot is popular", "type": "general", "reasonName": "globalInteractionReason"}]}, "venue": {"id": "4adcda85f964a520ef4821e3", "name": "Ambrosius", "location": {"address": "Einemstr. 14", "lat": 52.502362262683384, "lng": 13.35330538633398, "labeledLatLngs": [{"label": "display", "lat": 52.502362262683384, "lng": 13.35330538633398}], "distance": 959, "postalCode": "10785", "cc": "DE", "city": "Berlin", "state": "Berlin", "country": "Deutschland", "formattedAddress": ["Einemstr. 14", "10785 Berlin", "Deutschland"]}, "categories": [{"id": "4bf58dd8d48988d1c4941735", "name": "Restaurant", "pluralName": "Restaurants", "shortName": "Restaurant", "icon": {"prefix": "https://ss3.4sqi.net/img/categories_v2/food/default_", "suffix": ".png"}, "primary": true}], "photos": {"count": 0, "groups": []}}, "referralId": "e-0-4adcda85f964a520ef4821e3-98"}, {"reasons": {"count": 0, "items": [{"summary": "This spot is popular", "type": "general", "reasonName": "globalInteractionReason"}]}, "venue": {"id": "56a9d929498e8106e78d0267", "name": "C\u00e2y Tre Qu\u00e1n", "location": {"address": "Potsdamer Stra\u00dfe 69", "crossStreet": "L\u00fctzowstra\u00dfe", "lat": 52.50303792534873, "lng": 13.36612170382449, "labeledLatLngs": [{"label": "display", "lat": 52.50303792534873, "lng": 13.36612170382449}], "distance": 985, "postalCode": "10785", "cc": "DE", "city": "Berlin", "state": "Berlin", "country": "Deutschland", "formattedAddress": ["Potsdamer Stra\u00dfe 69 (L\u00fctzowstra\u00dfe)", "10785 Berlin", "Deutschland"]}, "categories": [{"id": "4bf58dd8d48988d14a941735", "name": "Vietnamese Restaurant", "pluralName": "Vietnamese Restaurants", "shortName": "Vietnamese", "icon": {"prefix": "https://ss3.4sqi.net/img/categories_v2/food/vietnamese_", "suffix": ".png"}, "primary": true}], "photos": {"count": 0, "groups": []}}, "referralId": "e-0-56a9d929498e8106e78d0267-99"}]