[{"reasons": {"count": 0, "items": [{"summary": "This spot is popular", "type": "general", "reasonName": "globalInteractionReason"}]}, "venue": {"id": "5597af1b498ef8cc246f861f", "name": "eismanufaktur Berlin", "location": {"address": "Maxstr. 11", "lat": 52.549935062868556, "lng": 13.36366539986049, "labeledLatLngs": [{"label": "display", "lat": 52.549935062868556, "lng": 13.36366539986049}], "distance": 120, "postalCode": "13347", "cc": "DE", "city": "Berlin", "state": "Berlin", "country": "Deutschland", "formattedAddress": ["Maxstr. 11", "13347 Berlin", "Deutschland"]}, "categories": [{"id": "4bf58dd8d48988d1c9941735", "name": "Ice Cream Shop", "pluralName": "Ice Cream Shops", "shortName": "Ice Cream", "icon": {"prefix": "https://ss3.4sqi.net/img/categories_v2/food/icecream_", "suffix": ".png"}, "primary": true}], "photos": {"count": 0, "groups": []}}, "referralId": "e-0-5597af1b498ef8cc246f861f-0"}, {"reasons": {"count": 0, "items": [{"summary": "This spot is popular", "type": "general", "reasonName": "globalInteractionReason"}]}, "venue": {"id": "5438343b498edc9273ab5927", "name": "Stranero", "location": {"address": "Liebenwalder Str. 11", "lat": 52.55213605629426, "lng": 13.36400082389332, "labeledLatLngs": [{"label": "display", "lat": 52.55213605629426, "lng": 13.36400082389332}], "distance": 333, "postalCode": "13347", "cc": "DE", "neighborhood": "Leopoldplatz", "city": "Berlin", "state": "Berlin", "country": "Deutschland", "formattedAddress": ["Liebenwalder Str. 11", "13347 Berlin-Wedding", "Deutschland"]}, "categories": [{"id": "4bf58dd8d48988d1ca941735", "name": "Pizza Place", "pluralName": "Pizza Places", "shortName": "Pizza", "icon": {"prefix": "https://ss3.4sqi.net/img/categories_v2/food/pizza_", "suffix": ".png"}, "primary": true}], "photos": {"count": 0, "groups": []}, "venuePage": {"id": "148239871"}}, "referralId": "e-0-5438343b498edc9273ab5927-1"}, {"reasons": {"count": 0, "items": [{"summary": "This spot is popular", "type": "general", "reasonName": "globalInteractionReason"}]}, "venue": {"id": "4c7e94801c409521d21682ee", "name": "Dan Thai Food", "location": {"address": "Reinickendorfer Str. 96", "lat": 52.547587499002105, "lng": 13.369250244095339, "labeledLatLngs": [{"label": "display", "lat": 52.547587499002105, "lng": 13.369250244095339}], "distance": 341, "postalCode": "13347", "cc": "DE", "city": "Berlin", "state": "Berlin", "country": "Deutschland", "formattedAddress": ["Reinickendorfer Str. 96", "13347 Berlin", "Deutschland"]}, "categories": [{"id": "4bf58dd8d48988d149941735", "name": "Thai Restaurant", "pluralName": "Thai Restaurants", "shortName": "Thai", "icon": {"prefix": "https://ss3.4sqi.net/img/categories_v2/food/thai_", "suffix": ".png"}, "primary": true}], "photos": {"count": 0, "groups": []}}, "referralId": "e-0-4c7e94801c409521d21682ee-2"}, {"reasons": {"count": 0, "items": [{"summary": "This spot is popular", "type": "general", "reasonName": "globalInteractionReason"}]}, "venue": {"id": "56eb2934498e64058fecd56a", "name": "Basalt", "location": {"address": "Utrechter Str. 38", "lat": 52.55084017306586, "lng": 13.36078223703918, "labeledLatLngs": [{"label": "display", "lat": 52.55084017306586, "lng": 13.36078223703918}], "distance": 336, "postalCode": "13347", "cc": "DE", "city": "Berlin", "state": "Berlin", "country": "Deutschland", "formattedAddress": ["Utrechter Str. 38", "13347 Berlin", "Deutschland"]}, "categories": [{"id": "4bf58dd8d48988d116941735", "name": "Bar", "pluralName": "Bars", "shortName": "Bar", "icon": {"prefix": "https://ss3.4sqi.net/img/categories_v2/nightlife/pub_", "suffix": ".png"}, "primary": true}], "photos": {"count": 0, "groups": []}}, "referralId": "e-0-56eb2934498e64058fecd56a-3"}, {"reasons": {"count": 0, "items": [{"summary": "This spot is popular", "type": "general", "reasonName": "globalInteractionReason"}]}, "venue": {"id": "4bfd72e6f7c82d7f55348e04", "name": "Caf\u00e9 Cralle", "location": {"address": "Hochst\u00e4dter Str. 10a", "lat": 52.55061901645171, "lng": 13.363448964664057, "labeledLatLngs": [{"label": "display", "lat": 52.55061901645171, "lng": 13.363448964664057}], "distance": 188, "postalCode": "13347", "cc": "DE", "city": "Berlin", "state": "Berlin", "country": "Deutschland", "formattedAddress": ["Hochst\u00e4dter Str. 10a", "13347 Berlin", "Deutschland"]}, "categories": [{"id": "4bf58dd8d48988d116941735", "name": "Bar", "pluralName": "Bars", "shortName": "Bar", "icon": {"prefix": "https://ss3.4sqi.net/img/categories_v2/nightlife/pub_", "suffix": ".png"}, "primary": true}], "photos": {"count": 0, "groups": []}}, "referralId": "e-0-4bfd72e6f7c82d7f55348e04-4"}, {"reasons": {"count": 0, "items": [{"summary": "This spot is popular", "type": "general", "reasonName": "globalInteractionReason"}]}, "venue": {"id": "512887c4e4b016a0d7c6f454", "name": "Hak-B\u00e4ckerei", "location": {"address": "Hochst\u00e4dter Str. 24", "crossStreet": "Liebenwalder Str.", "lat": 52.55202383127641, "lng": 13.36616737247823, "labeledLatLngs": [{"label": "display", "lat": 52.55202383127641, "lng": 13.36616737247823}], "distance": 325, "postalCode": "13347", "cc": "DE", "neighborhood": "Nauener Platz", "city": "Berlin", "state": "Berlin", "country": "Deutschland", "formattedAddress": ["Hochst\u00e4dter Str. 24 (Liebenwalder Str.)", "13347 Berlin", "Deutschland"]}, "categories": [{"id": "4bf58dd8d48988d16a941735", "name": "Bakery", "pluralName": "Bakeries", "shortName": "Bakery", "icon": {"prefix": "https://ss3.4sqi.net/img/categories_v2/food/bakery_", "suffix": ".png"}, "primary": true}], "photos": {"count": 0, "groups": []}}, "referralId": "e-0-512887c4e4b016a0d7c6f454-5"}, {"reasons": {"count": 0, "items": [{"summary": "This spot is popular", "type": "general", "reasonName": "globalInteractionReason"}]}, "venue": {"id": "51a380e4498eae4ecb95154e", "name": "Himmelbeet", "location": {"address": "Ruheplatzstr. 12", "crossStreet": "Schulstr.", "lat": 52.547949445967234, "lng": 13.362340621685675, "labeledLatLngs": [{"label": "display", "lat": 52.547949445967234, "lng": 13.362340621685675}], "distance": 225, "postalCode": "13347", "cc": "DE", "city": "Berlin", "state": "Berlin", "country": "Deutschland", "formattedAddress": ["Ruheplatzstr. 12 (Schulstr.)", "13347 Berlin", "Deutschland"]}, "categories": [{"id": "4bf58dd8d48988d15a941735", "name": "Garden", "pluralName": "Gardens", "shortName": "Garden", "icon": {"prefix": "https://ss3.4sqi.net/img/categories_v2/parks_outdoors/garden_", "suffix": ".png"}, "primary": true}], "photos": {"count": 0, "groups": []}}, "referralId": "e-0-51a380e4498eae4ecb95154e-6"}, {"reasons": {"count": 0, "items": [{"summary": "This spot is popular", "type": "general", "reasonName": "globalInteractionReason"}]}, "venue": {"id": "5af8443d7e4b4e0030a38528", "name": "Motte", "location": {"address": "Malplaquetstrasse", "lat": 52.549521, "lng": 13.361872, "labeledLatLngs": [{"label": "display", "lat": 52.549521, "lng": 13.361872}], "distance": 212, "cc": "DE", "neighborhood": "Leopoldplatz", "city": "Berlin", "state": "Berlin", "country": "Deutschland", "formattedAddress": ["Malplaquetstrasse", "Berlin", "Deutschland"]}, "categories": [{"id": "4bf58dd8d48988d16d941735", "name": "Caf\u00e9", "pluralName": "Caf\u00e9s", "shortName": "Caf\u00e9", "icon": {"prefix": "https://ss3.4sqi.net/img/categories_v2/food/cafe_", "suffix": ".png"}, "primary": true}], "photos": {"count": 0, "groups": []}}, "referralId": "e-0-5af8443d7e4b4e0030a38528-7"}, {"reasons": {"count": 0, "items": [{"summary": "This spot is popular", "type": "general", "reasonName": "globalInteractionReason"}]}, "venue": {"id": "598cc3f99411f22af3e65ca8", "name": "ernst", "location": {"address": "Gerichtstr. 54", "lat": 52.544677611082754, "lng": 13.367968797683714, "labeledLatLngs": [{"label": "display", "lat": 52.544677611082754, "lng": 13.367968797683714}], "distance": 542, "postalCode": "13347", "cc": "DE", "city": "Berlin", "state": "Berlin", "country": "Deutschland", "formattedAddress": ["Gerichtstr. 54", "13347 Berlin", "Deutschland"]}, "categories": [{"id": "52e81612bcbc57f1066b79f9", "name": "Modern European Restaurant", "pluralName": "Modern European Restaurants", "shortName": "Modern European", "icon": {"prefix": "https://ss3.4sqi.net/img/categories_v2/food/default_", "suffix": ".png"}, "primary": true}], "photos": {"count": 0, "groups": []}}, "referralId": "e-0-598cc3f99411f22af3e65ca8-8"}, {"reasons": {"count": 0, "items": [{"summary": "This spot is popular", "type": "general", "reasonName": "globalInteractionReason"}]}, "venue": {"id": "4c8adad2a92fa093e27895bf", "name": "Jatz", "location": {"address": "Gottschedstr. 2", "lat": 52.550326782170295, "lng": 13.368970443848335, "labeledLatLngs": [{"label": "display", "lat": 52.550326782170295, "lng": 13.368970443848335}], "distance": 299, "postalCode": "10585", "cc": "DE", "city": "Berlin", "state": "Berlin", "country": "Deutschland", "formattedAddress": ["Gottschedstr. 2", "10585 Berlin", "Deutschland"]}, "categories": [{"id": "4bf58dd8d48988d116941735", "name": "Bar", "pluralName": "Bars", "shortName": "Bar", "icon": {"prefix": "https://ss3.4sqi.net/img/categories_v2/nightlife/pub_", "suffix": ".png"}, "primary": true}], "photos": {"count": 0, "groups": []}}, "referralId": "e-0-4c8adad2a92fa093e27895bf-9"}, {"reasons": {"count": 0, "items": [{"summary": "This spot is popular", "type": "general", "reasonName": "globalInteractionReason"}]}, "venue": {"id": "4ebbe7089a52d00625143d5b", "name": "Caf\u00e9 Largo", "location": {"address": "Malplaquetstr. 33", "crossStreet": "Utrechter Str.", "lat": 52.55069431563843, "lng": 13.359548799632643, "labeledLatLngs": [{"label": "display", "lat": 52.55069431563843, "lng": 13.359548799632643}], "distance": 402, "postalCode": "13347", "cc": "DE", "city": "Berlin", "state": "Berlin", "country": "Deutschland", "formattedAddress": ["Malplaquetstr. 33 (Utrechter Str.)", "13347 Berlin", "Deutschland"]}, "categories": [{"id": "4bf58dd8d48988d16d941735", "name": "Caf\u00e9", "pluralName": "Caf\u00e9s", "shortName": "Caf\u00e9", "icon": {"prefix": "https://ss3.4sqi.net/img/categories_v2/food/cafe_", "suffix": ".png"}, "primary": true}], "photos": {"count": 0, "groups": []}}, "referralId": "e-0-4ebbe7089a52d00625143d5b-10"}, {"reasons": {"count": 0, "items": [{"summary": "This spot is popular", "type": "general", "reasonName": "globalInteractionReason"}]}, "venue": {"id": "50d4563ae4b0ca04f6e12d86", "name": "Coffee Circle Caf\u00e9", "location": {"address": "Lindower Str. 18", "lat": 52.54381308480629, "lng": 13.36785614490509, "labeledLatLngs": [{"label": "display", "lat": 52.54381308480629, "lng": 13.36785614490509}], "distance": 630, "postalCode": "13347", "cc": "DE", "city": "Berlin", "state": "Berlin", "country": "Deutschland", "formattedAddress": ["Lindower Str. 18", "13347 Berlin", "Deutschland"]}, "categories": [{"id": "4bf58dd8d48988d16d941735", "name": "Caf\u00e9", "pluralName": "Caf\u00e9s", "shortName": "Caf\u00e9", "icon": {"prefix": "https://ss3.4sqi.net/img/categories_v2/food/cafe_", "suffix": ".png"}, "primary": true}], "photos": {"count": 0, "groups": []}, "venuePage": {"id": "552504191"}}, "referralId": "e-0-50d4563ae4b0ca04f6e12d86-11"}, {"reasons": {"count": 0, "items": [{"summary": "This spot is popular", "type": "general", "reasonName": "globalInteractionReason"}]}, "venue": {"id": "4bb0b0e6f964a52047553ce3", "name": "ExRotaprint Kantine", "location": {"address": "Gottschedstra\u00dfe 4", "lat": 52.550426777366006, "lng": 13.369833263702342, "labeledLatLngs": [{"label": "display", "lat": 52.550426777366006, "lng": 13.369833263702342}], "distance": 357, "postalCode": "13357", "cc": "DE", "city": "Berlin", "state": "Berlin", "country": "Deutschland", "formattedAddress": ["Gottschedstra\u00dfe 4", "13357 Berlin", "Deutschland"]}, "categories": [{"id": "4bf58dd8d48988d1c4941735", "name": "Restaurant", "pluralName": "Restaurants", "shortName": "Restaurant", "icon": {"prefix": "https://ss3.4sqi.net/img/categories_v2/food/default_", "suffix": ".png"}, "primary": true}], "photos": {"count": 0, "groups": []}}, "referralId": "e-0-4bb0b0e6f964a52047553ce3-12"}, {"reasons": {"count": 0, "items": [{"summary": "This spot is popular", "type": "general", "reasonName": "globalInteractionReason"}]}, "venue": {"id": "4fb6b87fe4b03f883691dec8", "name": "Piano Salon Christophori", "location": {"address": "Uferstr. 8", "lat": 52.55165518280535, "lng": 13.373826742172241, "labeledLatLngs": [{"label": "display", "lat": 52.55165518280535, "lng": 13.373826742172241}], "distance": 659, "postalCode": "13357", "cc": "DE", "city": "Berlin", "state": "Berlin", "country": "Deutschland", "formattedAddress": ["Uferstr. 8", "13357 Berlin", "Deutschland"]}, "categories": [{"id": "4bf58dd8d48988d1e8931735", "name": "Piano Bar", "pluralName": "Piano Bars", "shortName": "Piano Bar", "icon": {"prefix": "https://ss3.4sqi.net/img/categories_v2/arts_entertainment/musicvenue_pianobar_", "suffix": ".png"}, "primary": true}], "photos": {"count": 0, "groups": []}}, "referralId": "e-0-4fb6b87fe4b03f883691dec8-13"}, {"reasons": {"count": 0, "items": [{"summary": "This spot is popular", "type": "general", "reasonName": "globalInteractionReason"}]}, "venue": {"id": "4e44c2802271bdbcf6788d0c", "name": "Falafel Dream 2010", "location": {"address": "M\u00fcllerstr. 14a", "lat": 52.54318461520355, "lng": 13.364903285908893, "labeledLatLngs": [{"label": "display", "lat": 52.54318461520355, "lng": 13.364903285908893}], "distance": 669, "postalCode": "13347", "cc": "DE", "neighborhood": "Leopoldplatz", "city": "Berlin", "state": "Berlin", "country": "Deutschland", "formattedAddress": ["M\u00fcllerstr. 14a", "13347 Berlin", "Deutschland"]}, "categories": [{"id": "4bf58dd8d48988d10b941735", "name": "Falafel Restaurant", "pluralName": "Falafel Restaurants", "shortName": "Falafel", "icon": {"prefix": "https://ss3.4sqi.net/img/categories_v2/food/falafel_", "suffix": ".png"}, "primary": true}], "photos": {"count": 0, "groups": []}}, "referralId": "e-0-4e44c2802271bdbcf6788d0c-14"}, {"reasons": {"count": 0, "items": [{"summary": "This spot is popular", "type": "general", "reasonName": "globalInteractionReason"}]}, "venue": {"id": "58d15e41158b96044e9c5ad1", "name": "Mirage", "location": {"address": "Reinickendorferstr. 110", "lat": 52.544945575237186, "lng": 13.369200963176139, "labeledLatLngs": [{"label": "display", "lat": 52.544945575237186, "lng": 13.369200963176139}], "distance": 553, "postalCode": "13347", "cc": "DE", "neighborhood": "Leopoldplatz", "city": "Berlin", "state": "Berlin", "country": "Deutschland", "formattedAddress": ["Reinickendorferstr. 110", "13347 Berlin", "Deutschland"]}, "categories": [{"id": "52e81612bcbc57f1066b79f1", "name": "Bistro", "pluralName": "Bistros", "shortName": "Bistro", "icon": {"prefix": "https://ss3.4sqi.net/img/categories_v2/food/default_", "suffix": ".png"}, "primary": true}], "photos": {"count": 0, "groups": []}}, "referralId": "e-0-58d15e41158b96044e9c5ad1-15"}, {"reasons": {"count": 0, "items": [{"summary": "This spot is popular", "type": "general", "reasonName": "globalInteractionReason"}]}, "venue": {"id": "4e205c1022717a5245bf2b91", "name": "Darklands", "location": {"lat": 52.543677, "lng": 13.367306, "labeledLatLngs": [{"label": "display", "lat": 52.543677, "lng": 13.367306}], "distance": 634, "postalCode": "10557", "cc": "DE", "city": "Berlin", "state": "Berlin", "country": "Deutschland", "formattedAddress": ["10557 Berlin", "Deutschland"]}, "categories": [{"id": "4bf58dd8d48988d106951735", "name": "Men's Store", "pluralName": "Men's Stores", "shortName": "Men's Store", "icon": {"prefix": "https://ss3.4sqi.net/img/categories_v2/shops/apparel_men_", "suffix": ".png"}, "primary": true}], "photos": {"count": 0, "groups": []}}, "referralId": "e-0-4e205c1022717a5245bf2b91-16"}, {"reasons": {"count": 0, "items": [{"summary": "This spot is popular", "type": "general", "reasonName": "globalInteractionReason"}]}, "venue": {"id": "525096d811d2baeefcf02912", "name": "Dujardin", "location": {"address": "Uferstr. 12", "lat": 52.55078507397972, "lng": 13.373720076713314, "labeledLatLngs": [{"label": "display", "lat": 52.55078507397972, "lng": 13.373720076713314}], "distance": 618, "postalCode": "13357", "cc": "DE", "city": "Berlin", "state": "Berlin", "country": "Deutschland", "formattedAddress": ["Uferstr. 12", "13357 Berlin", "Deutschland"]}, "categories": [{"id": "4bf58dd8d48988d116941735", "name": "Bar", "pluralName": "Bars", "shortName": "Bar", "icon": {"prefix": "https://ss3.4sqi.net/img/categories_v2/nightlife/pub_", "suffix": ".png"}, "primary": true}], "photos": {"count": 0, "groups": []}}, "referralId": "e-0-525096d811d2baeefcf02912-17"}, {"reasons": {"count": 0, "items": [{"summary": "This spot is popular", "type": "general", "reasonName": "globalInteractionReason"}]}, "venue": {"id": "54381747498ea44ee2640ed3", "name": "dm-drogerie markt", "location": {"address": "M\u00fcllerstra\u00dfe 153a-154", "crossStreet": "Leopoldplatz", "lat": 52.54580419599019, "lng": 13.359628279762319, "labeledLatLngs": [{"label": "display", "lat": 52.54580419599019, "lng": 13.359628279762319}], "distance": 522, "postalCode": "13353", "cc": "DE", "city": "Berlin", "state": "Berlin", "country": "Deutschland", "formattedAddress": ["M\u00fcllerstra\u00dfe 153a-154 (Leopoldplatz)", "13353 Berlin", "Deutschland"]}, "categories": [{"id": "5745c2e4498e11e7bccabdbd", "name": "Drugstore", "pluralName": "Drugstores", "shortName": "Drugstore", "icon": {"prefix": "https://ss3.4sqi.net/img/categories_v2/shops/pharmacy_", "suffix": ".png"}, "primary": true}], "photos": {"count": 0, "groups": []}}, "referralId": "e-0-54381747498ea44ee2640ed3-18"}, {"reasons": {"count": 0, "items": [{"summary": "This spot is popular", "type": "general", "reasonName": "globalInteractionReason"}]}, "venue": {"id": "52a7035611d28cd591e781f8", "name": "Safari Imbiss", "location": {"address": "M\u00fcllerstra\u00dfe 143", "lat": 52.54882533859031, "lng": 13.35490872760837, "labeledLatLngs": [{"label": "display", "lat": 52.54882533859031, "lng": 13.35490872760837}], "distance": 681, "postalCode": "13349", "cc": "DE", "city": "Berlin", "state": "Berlin", "country": "Deutschland", "formattedAddress": ["M\u00fcllerstra\u00dfe 143", "13349 Berlin", "Deutschland"]}, "categories": [{"id": "4bf58dd8d48988d1c8941735", "name": "African Restaurant", "pluralName": "African Restaurants", "shortName": "African", "icon": {"prefix": "https://ss3.4sqi.net/img/categories_v2/food/african_", "suffix": ".png"}, "primary": true}], "photos": {"count": 0, "groups": []}}, "referralId": "e-0-52a7035611d28cd591e781f8-19"}, {"reasons": {"count": 0, "items": [{"summary": "This spot is popular", "type": "general", "reasonName": "globalInteractionReason"}]}, "venue": {"id": "4b06da02f964a52075f122e3", "name": "Eschenbr\u00e4u", "location": {"address": "Triftstr. 67", "lat": 52.543593914530476, "lng": 13.359637723459, "labeledLatLngs": [{"label": "display", "lat": 52.543593914530476, "lng": 13.359637723459}], "distance": 720, "postalCode": "13353", "cc": "DE", "city": "Berlin", "state": "Berlin", "country": "Deutschland", "formattedAddress": ["Triftstr. 67", "13353 Berlin", "Deutschland"]}, "categories": [{"id": "50327c8591d4c4b30a586d5d", "name": "Brewery", "pluralName": "Breweries", "shortName": "Brewery", "icon": {"prefix": "https://ss3.4sqi.net/img/categories_v2/food/brewery_", "suffix": ".png"}, "primary": true}], "photos": {"count": 0, "groups": []}}, "referralId": "e-0-4b06da02f964a52075f122e3-20"}, {"reasons": {"count": 0, "items": [{"summary": "This spot is popular", "type": "general", "reasonName": "globalInteractionReason"}]}, "venue": {"id": "5097b589e4b0cb50cd84649b", "name": "Caf\u00e9 Pf\u00f6rtner", "location": {"address": "Uferstr. 8", "lat": 52.55195266468632, "lng": 13.374412706997814, "labeledLatLngs": [{"label": "display", "lat": 52.55195266468632, "lng": 13.374412706997814}], "distance": 709, "postalCode": "13357", "cc": "DE", "neighborhood": "Gesundbrunnen", "city": "Berlin", "state": "Berlin", "country": "Deutschland", "formattedAddress": ["Uferstr. 8", "13357 Berlin", "Deutschland"]}, "categories": [{"id": "4bf58dd8d48988d16d941735", "name": "Caf\u00e9", "pluralName": "Caf\u00e9s", "shortName": "Caf\u00e9", "icon": {"prefix": "https://ss3.4sqi.net/img/categories_v2/food/cafe_", "suffix": ".png"}, "primary": true}], "photos": {"count": 0, "groups": []}, "venuePage": {"id": "385907280"}}, "referralId": "e-0-5097b589e4b0cb50cd84649b-21"}, {"reasons": {"count": 0, "items": [{"summary": "This spot is popular", "type": "general", "reasonName": "globalInteractionReason"}]}, "venue": {"id": "4c82abe4d34ca143d5962e80", "name": "Tangoloft", "location": {"address": "Gerichtstr. 23", "crossStreet": "3. HH, 2. Aufgang", "lat": 52.54501586792985, "lng": 13.373401615394357, "labeledLatLngs": [{"label": "display", "lat": 52.54501586792985, "lng": 13.373401615394357}], "distance": 736, "postalCode": "13347", "cc": "DE", "city": "Berlin", "state": "Berlin", "country": "Deutschland", "formattedAddress": ["Gerichtstr. 23 (3. HH, 2. Aufgang)", "13347 Berlin", "Deutschland"]}, "categories": [{"id": "4bf58dd8d48988d134941735", "name": "Dance Studio", "pluralName": "Dance Studios", "shortName": "Dance Studio", "icon": {"prefix": "https://ss3.4sqi.net/img/categories_v2/arts_entertainment/performingarts_dancestudio_", "suffix": ".png"}, "primary": true}], "photos": {"count": 0, "groups": []}}, "referralId": "e-0-4c82abe4d34ca143d5962e80-22"}, {"reasons": {"count": 0, "items": [{"summary": "This spot is popular", "type": "general", "reasonName": "globalInteractionReason"}]}, "venue": {"id": "4e4d675552b1e05e59edda27", "name": "Kiki Sol", "location": {"address": "Reinickendorfer Str. 96", "lat": 52.54759, "lng": 13.368839, "labeledLatLngs": [{"label": "display", "lat": 52.54759, "lng": 13.368839}], "distance": 317, "postalCode": "13347", "cc": "DE", "neighborhood": "Leopoldplatz", "city": "Berlin", "state": "Berlin", "country": "Deutschland", "formattedAddress": ["Reinickendorfer Str. 96", "13347 Berlin", "Deutschland"]}, "categories": [{"id": "4bf58dd8d48988d116941735", "name": "Bar", "pluralName": "Bars", "shortName": "Bar", "icon": {"prefix": "https://ss3.4sqi.net/img/categories_v2/nightlife/pub_", "suffix": ".png"}, "primary": true}], "photos": {"count": 0, "groups": []}}, "referralId": "e-0-4e4d675552b1e05e59edda27-23"}, {"reasons": {"count": 0, "items": [{"summary": "This spot is popular", "type": "general", "reasonName": "globalInteractionReason"}]}, "venue": {"id": "4d12564512916dcb392cd58a", "name": "CrossFit Werk", "location": {"address": "Gerichtstr. 23 (Hinterhof, Aufgang 2)", "crossStreet": "Between Pankstr. and Kolberger Str.", "lat": 52.545036005284985, "lng": 13.37352038725445, "labeledLatLngs": [{"label": "display", "lat": 52.545036005284985, "lng": 13.37352038725445}], "distance": 741, "postalCode": "13347", "cc": "DE", "city": "Berlin", "state": "Berlin", "country": "Deutschland", "formattedAddress": ["Gerichtstr. 23 (Hinterhof, Aufgang 2) (Between Pankstr. and Kolberger Str.)", "13347 Berlin", "Deutschland"]}, "categories": [{"id": "4bf58dd8d48988d175941735", "name": "Gym / Fitness Center", "pluralName": "Gyms or Fitness Centers", "shortName": "Gym / Fitness", "icon": {"prefix": "https://ss3.4sqi.net/img/categories_v2/building/gym_", "suffix": ".png"}, "primary": true}], "photos": {"count": 0, "groups": []}, "venuePage": {"id": "37542301"}}, "referralId": "e-0-4d12564512916dcb392cd58a-24"}, {"reasons": {"count": 0, "items": [{"summary": "This spot is popular", "type": "general", "reasonName": "globalInteractionReason"}]}, "venue": {"id": "4bf99b6a8d30d13a4b850218", "name": "Mastul", "location": {"address": "Liebenwalder Str. 33", "lat": 52.55189339754282, "lng": 13.358213571788529, "labeledLatLngs": [{"label": "display", "lat": 52.55189339754282, "lng": 13.358213571788529}], "distance": 546, "postalCode": "13347", "cc": "DE", "city": "Berlin", "state": "Berlin", "country": "Deutschland", "formattedAddress": ["Liebenwalder Str. 33", "13347 Berlin", "Deutschland"]}, "categories": [{"id": "4bf58dd8d48988d18e941735", "name": "Comedy Club", "pluralName": "Comedy Clubs", "shortName": "Comedy Club", "icon": {"prefix": "https://ss3.4sqi.net/img/categories_v2/arts_entertainment/comedyclub_", "suffix": ".png"}, "primary": true}], "photos": {"count": 0, "groups": []}}, "referralId": "e-0-4bf99b6a8d30d13a4b850218-25"}, {"reasons": {"count": 0, "items": [{"summary": "This spot is popular", "type": "general", "reasonName": "globalInteractionReason"}]}, "venue": {"id": "4c7a4b0b566db60c5890470e", "name": "Pamfilya", "location": {"address": "Luxemburger Str. 1", "lat": 52.54614111749985, "lng": 13.358741099343542, "labeledLatLngs": [{"label": "display", "lat": 52.54614111749985, "lng": 13.358741099343542}], "distance": 541, "postalCode": "13353", "cc": "DE", "city": "Berlin", "state": "Berlin", "country": "Deutschland", "formattedAddress": ["Luxemburger Str. 1", "13353 Berlin", "Deutschland"]}, "categories": [{"id": "4f04af1f2fb6e1c99f3db0bb", "name": "Turkish Restaurant", "pluralName": "Turkish Restaurants", "shortName": "Turkish", "icon": {"prefix": "https://ss3.4sqi.net/img/categories_v2/food/turkish_", "suffix": ".png"}, "primary": true}], "photos": {"count": 0, "groups": []}}, "referralId": "e-0-4c7a4b0b566db60c5890470e-26"}, {"reasons": {"count": 0, "items": [{"summary": "This spot is popular", "type": "general", "reasonName": "globalInteractionReason"}]}, "venue": {"id": "58b57d0119b1ad10adee79af", "name": "MARS K\u00fcche & Bar", "location": {"address": "Gerichtstr. 35", "lat": 52.54609439608591, "lng": 13.366403563937977, "labeledLatLngs": [{"label": "display", "lat": 52.54609439608591, "lng": 13.366403563937977}], "distance": 358, "postalCode": "13347", "cc": "DE", "city": "Berlin", "state": "Berlin", "country": "Deutschland", "formattedAddress": ["Gerichtstr. 35", "13347 Berlin", "Deutschland"]}, "categories": [{"id": "4bf58dd8d48988d1c4941735", "name": "Restaurant", "pluralName": "Restaurants", "shortName": "Restaurant", "icon": {"prefix": "https://ss3.4sqi.net/img/categories_v2/food/default_", "suffix": ".png"}, "primary": true}], "photos": {"count": 0, "groups": []}}, "referralId": "e-0-58b57d0119b1ad10adee79af-27"}, {"reasons": {"count": 0, "items": [{"summary": "This spot is popular", "type": "general", "reasonName": "globalInteractionReason"}]}, "venue": {"id": "4d83caadf1e56ea867f3678a", "name": "Panke", "location": {"address": "Gerichtstr. 23", "lat": 52.544996759966104, "lng": 13.373890999263054, "labeledLatLngs": [{"label": "display", "lat": 52.544996759966104, "lng": 13.373890999263054}], "distance": 764, "postalCode": "13347", "cc": "DE", "city": "Berlin", "state": "Berlin", "country": "Deutschland", "formattedAddress": ["Gerichtstr. 23", "13347 Berlin", "Deutschland"]}, "categories": [{"id": "4bf58dd8d48988d1f2931735", "name": "Performing Arts Venue", "pluralName": "Performing Arts Venues", "shortName": "Performing Arts", "icon": {"prefix": "https://ss3.4sqi.net/img/categories_v2/arts_entertainment/performingarts_", "suffix": ".png"}, "primary": true}], "photos": {"count": 0, "groups": []}}, "referralId": "e-0-4d83caadf1e56ea867f3678a-28"}, {"reasons": {"count": 0, "items": [{"summary": "This spot is popular", "type": "general", "reasonName": "globalInteractionReason"}]}, "venue": {"id": "4da9e51793a04642f0729f95", "name": "Uferstudios", "location": {"address": "Uferstr. 8/23", "lat": 52.552544086019324, "lng": 13.375853908593722, "labeledLatLngs": [{"label": "display", "lat": 52.552544086019324, "lng": 13.375853908593722}], "distance": 826, "postalCode": "13357", "cc": "DE", "city": "Berlin", "state": "Berlin", "country": "Deutschland", "formattedAddress": ["Uferstr. 8/23", "13357 Berlin", "Deutschland"]}, "categories": [{"id": "4bf58dd8d48988d134941735", "name": "Dance Studio", "pluralName": "Dance Studios", "shortName": "Dance Studio", "icon": {"prefix": "https://ss3.4sqi.net/img/categories_v2/arts_entertainment/performingarts_dancestudio_", "suffix": ".png"}, "primary": true}], "photos": {"count": 0, "groups": []}}, "referralId": "e-0-4da9e51793a04642f0729f95-29"}, {"reasons": {"count": 0, "items": [{"summary": "This spot is popular", "type": "general", "reasonName": "globalInteractionReason"}]}, "venue": {"id": "570d0e54498ec8fc1c192076", "name": "BESTE Bar", "location": {"address": "Willdenowstr. 12a", "crossStreet": "Triftstr.", "lat": 52.544224, "lng": 13.360643, "labeledLatLngs": [{"label": "display", "lat": 52.544224, "lng": 13.360643}], "distance": 625, "postalCode": "13353", "cc": "DE", "city": "Berlin", "state": "Berlin", "country": "Deutschland", "formattedAddress": ["Willdenowstr. 12a (Triftstr.)", "13353 Berlin", "Deutschland"]}, "categories": [{"id": "4bf58dd8d48988d116941735", "name": "Bar", "pluralName": "Bars", "shortName": "Bar", "icon": {"prefix": "https://ss3.4sqi.net/img/categories_v2/nightlife/pub_", "suffix": ".png"}, "primary": true}], "photos": {"count": 0, "groups": []}}, "referralId": "e-0-570d0e54498ec8fc1c192076-30"}, {"reasons": {"count": 0, "items": [{"summary": "This spot is popular", "type": "general", "reasonName": "globalInteractionReason"}]}, "venue": {"id": "52991e5911d21b0fa3bc8c73", "name": "Atti Asiamarkt", "location": {"address": "Luxemburger Str. 31", "crossStreet": "M\u00fcller Stra\u00dfe", "lat": 52.543375402304314, "lng": 13.359966788182211, "labeledLatLngs": [{"label": "display", "lat": 52.543375402304314, "lng": 13.359966788182211}], "distance": 730, "postalCode": "13353", "cc": "DE", "city": "Berlin", "state": "Berlin", "country": "Deutschland", "formattedAddress": ["Luxemburger Str. 31 (M\u00fcller Stra\u00dfe)", "13353 Berlin", "Deutschland"]}, "categories": [{"id": "4bf58dd8d48988d118951735", "name": "Grocery Store", "pluralName": "Grocery Stores", "shortName": "Grocery Store", "icon": {"prefix": "https://ss3.4sqi.net/img/categories_v2/shops/food_grocery_", "suffix": ".png"}, "primary": true}], "photos": {"count": 0, "groups": []}}, "referralId": "e-0-52991e5911d21b0fa3bc8c73-31"}, {"reasons": {"count": 0, "items": [{"summary": "This spot is popular", "type": "general", "reasonName": "globalInteractionReason"}]}, "venue": {"id": "520d338111d2ff90eeae9b0c", "name": "Art Loft Berlin", "location": {"lat": 52.545185423229455, "lng": 13.373583119775143, "labeledLatLngs": [{"label": "display", "lat": 52.545185423229455, "lng": 13.373583119775143}], "distance": 734, "cc": "DE", "city": "Berlin", "state": "Berlin", "country": "Deutschland", "formattedAddress": ["Berlin", "Deutschland"]}, "categories": [{"id": "4bf58dd8d48988d1e2931735", "name": "Art Gallery", "pluralName": "Art Galleries", "shortName": "Art Gallery", "icon": {"prefix": "https://ss3.4sqi.net/img/categories_v2/arts_entertainment/artgallery_", "suffix": ".png"}, "primary": true}], "photos": {"count": 0, "groups": []}}, "referralId": "e-0-520d338111d2ff90eeae9b0c-32"}, {"reasons": {"count": 0, "items": [{"summary": "This spot is popular", "type": "general", "reasonName": "globalInteractionReason"}]}, "venue": {"id": "51e84d3f498e3ae2ffb57f0f", "name": "The Forsberg", "location": {"address": "Gerichtstr. 26", "lat": 52.54439048015399, "lng": 13.371590451996166, "labeledLatLngs": [{"label": "display", "lat": 52.54439048015399, "lng": 13.371590451996166}], "distance": 698, "postalCode": "13347", "cc": "DE", "city": "Berlin", "state": "Berlin", "country": "Deutschland", "formattedAddress": ["Gerichtstr. 26", "13347 Berlin", "Deutschland"]}, "categories": [{"id": "4bf58dd8d48988d116941735", "name": "Bar", "pluralName": "Bars", "shortName": "Bar", "icon": {"prefix": "https://ss3.4sqi.net/img/categories_v2/nightlife/pub_", "suffix": ".png"}, "primary": true}], "photos": {"count": 0, "groups": []}}, "referralId": "e-0-51e84d3f498e3ae2ffb57f0f-33"}, {"reasons": {"count": 0, "items": [{"summary": "This spot is popular", "type": "general", "reasonName": "globalInteractionReason"}]}, "venue": {"id": "5571d19a498e3cef89c0dddf", "name": "THE BASE", "location": {"address": "Uferstr. 8", "lat": 52.5524226566702, "lng": 13.373963882915639, "labeledLatLngs": [{"label": "display", "lat": 52.5524226566702, "lng": 13.373963882915639}], "distance": 707, "postalCode": "13357", "cc": "DE", "city": "Berlin", "state": "Berlin", "country": "Deutschland", "formattedAddress": ["Uferstr. 8", "13357 Berlin", "Deutschland"]}, "categories": [{"id": "4cce455aebf7b749d5e191f5", "name": "Soccer Field", "pluralName": "Soccer Fields", "shortName": "Soccer Field", "icon": {"prefix": "https://ss3.4sqi.net/img/categories_v2/arts_entertainment/stadium_soccer_", "suffix": ".png"}, "primary": true}], "photos": {"count": 0, "groups": []}}, "referralId": "e-0-5571d19a498e3cef89c0dddf-34"}, {"reasons": {"count": 0, "items": [{"summary": "This spot is popular", "type": "general", "reasonName": "globalInteractionReason"}]}, "venue": {"id": "4c6863f94b0d9c74efd3b492", "name": "Krua Thai", "location": {"address": "Luxemburger Stra\u00dfe 4", "lat": 52.545885, "lng": 13.357921, "labeledLatLngs": [{"label": "display", "lat": 52.545885, "lng": 13.357921}], "distance": 602, "postalCode": "13353", "cc": "DE", "city": "Berlin", "state": "Berlin", "country": "Deutschland", "formattedAddress": ["Luxemburger Stra\u00dfe 4", "13353 Berlin", "Deutschland"]}, "categories": [{"id": "4bf58dd8d48988d149941735", "name": "Thai Restaurant", "pluralName": "Thai Restaurants", "shortName": "Thai", "icon": {"prefix": "https://ss3.4sqi.net/img/categories_v2/food/thai_", "suffix": ".png"}, "primary": true}], "photos": {"count": 0, "groups": []}}, "referralId": "e-0-4c6863f94b0d9c74efd3b492-35"}, {"reasons": {"count": 0, "items": [{"summary": "This spot is popular", "type": "general", "reasonName": "globalInteractionReason"}]}, "venue": {"id": "54fdfe28498e33990009e21d", "name": "Servet's Original Gem\u00fcsekebab", "location": {"address": "Luxemburger Str. 33, Berlin", "lat": 52.545908824193205, "lng": 13.358402611943013, "labeledLatLngs": [{"label": "display", "lat": 52.545908824193205, "lng": 13.358402611943013}], "distance": 575, "postalCode": "13353", "cc": "DE", "city": "Berlin", "state": "Berlin", "country": "Deutschland", "formattedAddress": ["Luxemburger Str. 33, Berlin", "13353 Berlin", "Deutschland"]}, "categories": [{"id": "5283c7b4e4b094cb91ec88d8", "name": "Doner Restaurant", "pluralName": "Doner Restaurants", "shortName": "Doner", "icon": {"prefix": "https://ss3.4sqi.net/img/categories_v2/food/turkish_", "suffix": ".png"}, "primary": true}], "photos": {"count": 0, "groups": []}}, "referralId": "e-0-54fdfe28498e33990009e21d-36"}, {"reasons": {"count": 0, "items": [{"summary": "This spot is popular", "type": "general", "reasonName": "globalInteractionReason"}]}, "venue": {"id": "5490ad3b498ecba4999eedfc", "name": "Freya Fuchs", "location": {"address": "Tegeler Str. 34", "crossStreet": "Sprengelstr.", "lat": 52.542090327396885, "lng": 13.356902812424973, "labeledLatLngs": [{"label": "display", "lat": 52.542090327396885, "lng": 13.356902812424973}], "distance": 960, "postalCode": "13353", "cc": "DE", "city": "Berlin", "state": "Berlin", "country": "Deutschland", "formattedAddress": ["Tegeler Str. 34 (Sprengelstr.)", "13353 Berlin", "Deutschland"]}, "categories": [{"id": "4bf58dd8d48988d116941735", "name": "Bar", "pluralName": "Bars", "shortName": "Bar", "icon": {"prefix": "https://ss3.4sqi.net/img/categories_v2/nightlife/pub_", "suffix": ".png"}, "primary": true}], "photos": {"count": 0, "groups": []}}, "referralId": "e-0-5490ad3b498ecba4999eedfc-37"}, {"reasons": {"count": 0, "items": [{"summary": "This spot is popular", "type": "general", "reasonName": "globalInteractionReason"}]}, "venue": {"id": "4c41793d3735be9a087f18a4", "name": "Coffee Star Wedding", "location": {"address": "M\u00fcllerstr. 146", "lat": 52.54791644541, "lng": 13.356585782276195, "labeledLatLngs": [{"label": "display", "lat": 52.54791644541, "lng": 13.356585782276195}], "distance": 584, "postalCode": "13535", "cc": "DE", "city": "Berlin", "state": "Berlin", "country": "Deutschland", "formattedAddress": ["M\u00fcllerstr. 146", "13535 Berlin", "Deutschland"]}, "categories": [{"id": "4bf58dd8d48988d1e0931735", "name": "Coffee Shop", "pluralName": "Coffee Shops", "shortName": "Coffee Shop", "icon": {"prefix": "https://ss3.4sqi.net/img/categories_v2/food/coffeeshop_", "suffix": ".png"}, "primary": true}], "photos": {"count": 0, "groups": []}}, "referralId": "e-0-4c41793d3735be9a087f18a4-38"}, {"reasons": {"count": 0, "items": [{"summary": "This spot is popular", "type": "general", "reasonName": "globalInteractionReason"}]}, "venue": {"id": "50292f04e4b0dd4acd708986", "name": "Hopfen & Malz", "location": {"address": "Triftstr. 57", "lat": 52.5430391101864, "lng": 13.355775313190334, "labeledLatLngs": [{"label": "display", "lat": 52.5430391101864, "lng": 13.355775313190334}], "distance": 925, "postalCode": "13353", "cc": "DE", "city": "Berlin", "state": "Berlin", "country": "Deutschland", "formattedAddress": ["Triftstr. 57", "13353 Berlin", "Deutschland"]}, "categories": [{"id": "5370f356bcbc57f1066c94c2", "name": "Beer Store", "pluralName": "Beer Stores", "shortName": "Beer Store", "icon": {"prefix": "https://ss3.4sqi.net/img/categories_v2/nightlife/beergarden_", "suffix": ".png"}, "primary": true}], "photos": {"count": 0, "groups": []}}, "referralId": "e-0-50292f04e4b0dd4acd708986-39"}, {"reasons": {"count": 0, "items": [{"summary": "This spot is popular", "type": "general", "reasonName": "globalInteractionReason"}]}, "venue": {"id": "5234e93c11d211f57d29f39c", "name": "Anita Berber", "location": {"address": "Gerichtsstr. 23", "crossStreet": "3. Hof, Aufgang 2B", "lat": 52.54522389031273, "lng": 13.373513445892334, "labeledLatLngs": [{"label": "display", "lat": 52.54522389031273, "lng": 13.373513445892334}], "distance": 728, "postalCode": "13347", "cc": "DE", "city": "Berlin", "state": "Berlin", "country": "Deutschland", "formattedAddress": ["Gerichtsstr. 23 (3. Hof, Aufgang 2B)", "13347 Berlin", "Deutschland"]}, "categories": [{"id": "4bf58dd8d48988d11f941735", "name": "Nightclub", "pluralName": "Nightclubs", "shortName": "Nightclub", "icon": {"prefix": "https://ss3.4sqi.net/img/categories_v2/nightlife/nightclub_", "suffix": ".png"}, "primary": true}], "photos": {"count": 0, "groups": []}}, "referralId": "e-0-5234e93c11d211f57d29f39c-40"}, {"reasons": {"count": 0, "items": [{"summary": "This spot is popular", "type": "general", "reasonName": "globalInteractionReason"}]}, "venue": {"id": "4b9ad06bf964a52064d835e3", "name": "Asia Deli", "location": {"address": "Seestr. 41", "lat": 52.549858680723986, "lng": 13.351169044362923, "labeledLatLngs": [{"label": "display", "lat": 52.549858680723986, "lng": 13.351169044362923}], "distance": 936, "postalCode": "13353", "cc": "DE", "neighborhood": "Wedding", "city": "Berlin", "state": "Berlin", "country": "Deutschland", "formattedAddress": ["Seestr. 41", "13353 Berlin", "Deutschland"]}, "categories": [{"id": "4bf58dd8d48988d145941735", "name": "Chinese Restaurant", "pluralName": "Chinese Restaurants", "shortName": "Chinese", "icon": {"prefix": "https://ss3.4sqi.net/img/categories_v2/food/asian_", "suffix": ".png"}, "primary": true}], "photos": {"count": 0, "groups": []}}, "referralId": "e-0-4b9ad06bf964a52064d835e3-41"}, {"reasons": {"count": 0, "items": [{"summary": "This spot is popular", "type": "general", "reasonName": "globalInteractionReason"}]}, "venue": {"id": "4ddb991845ddf752bfc44414", "name": "M\u00fcller", "location": {"address": "M\u00fcllerstr. 30A", "lat": 52.54764993563578, "lng": 13.357271511487763, "labeledLatLngs": [{"label": "display", "lat": 52.54764993563578, "lng": 13.357271511487763}], "distance": 548, "postalCode": "13353", "cc": "DE", "city": "Berlin", "state": "Berlin", "country": "Deutschland", "formattedAddress": ["M\u00fcllerstr. 30A", "13353 Berlin", "Deutschland"]}, "categories": [{"id": "5745c2e4498e11e7bccabdbd", "name": "Drugstore", "pluralName": "Drugstores", "shortName": "Drugstore", "icon": {"prefix": "https://ss3.4sqi.net/img/categories_v2/shops/pharmacy_", "suffix": ".png"}, "primary": true}], "photos": {"count": 0, "groups": []}, "venuePage": {"id": "455300767"}}, "referralId": "e-0-4ddb991845ddf752bfc44414-42"}, {"reasons": {"count": 0, "items": [{"summary": "This spot is popular", "type": "general", "reasonName": "globalInteractionReason"}]}, "venue": {"id": "5932938b123a1963f54ff598", "name": "Lino's Barbecue", "location": {"address": "Malplaquetstra\u00dfe 43", "lat": 52.549359, "lng": 13.361592, "labeledLatLngs": [{"label": "display", "lat": 52.549359, "lng": 13.361592}], "distance": 228, "postalCode": "13347", "cc": "DE", "neighborhood": "Leopoldplatz", "city": "Berlin", "state": "Berlin", "country": "Deutschland", "formattedAddress": ["Malplaquetstra\u00dfe 43", "13347 Berlin", "Deutschland"]}, "categories": [{"id": "4bf58dd8d48988d1df931735", "name": "BBQ Joint", "pluralName": "BBQ Joints", "shortName": "BBQ", "icon": {"prefix": "https://ss3.4sqi.net/img/categories_v2/food/bbqalt_", "suffix": ".png"}, "primary": true}], "photos": {"count": 0, "groups": []}}, "referralId": "e-0-5932938b123a1963f54ff598-43"}, {"reasons": {"count": 0, "items": [{"summary": "This spot is popular", "type": "general", "reasonName": "globalInteractionReason"}]}, "venue": {"id": "5aef52152b984400393c5fdd", "name": "St. Bess", "location": {"address": "Sprengelstr. 41", "crossStreet": "Tegeler Str.", "lat": 52.54206, "lng": 13.356604, "labeledLatLngs": [{"label": "display", "lat": 52.54206, "lng": 13.356604}], "distance": 975, "postalCode": "13353", "cc": "DE", "neighborhood": "Sprengelkiez", "city": "Berlin", "state": "Berlin", "country": "Deutschland", "formattedAddress": ["Sprengelstr. 41 (Tegeler Str.)", "13353 Berlin", "Deutschland"]}, "categories": [{"id": "4bf58dd8d48988d1d3941735", "name": "Vegetarian / Vegan Restaurant", "pluralName": "Vegetarian / Vegan Restaurants", "shortName": "Vegetarian / Vegan", "icon": {"prefix": "https://ss3.4sqi.net/img/categories_v2/food/vegetarian_", "suffix": ".png"}, "primary": true}], "photos": {"count": 0, "groups": []}}, "referralId": "e-0-5aef52152b984400393c5fdd-44"}, {"reasons": {"count": 0, "items": [{"summary": "This spot is popular", "type": "general", "reasonName": "globalInteractionReason"}]}, "venue": {"id": "4b01976ff964a520b24322e3", "name": "Schraders", "location": {"address": "Malplaquetstr. 16 b", "lat": 52.551778970024635, "lng": 13.357930385541069, "labeledLatLngs": [{"label": "display", "lat": 52.551778970024635, "lng": 13.357930385541069}], "distance": 555, "postalCode": "13347", "cc": "DE", "neighborhood": "Leopoldplatz", "city": "Berlin", "state": "Berlin", "country": "Deutschland", "formattedAddress": ["Malplaquetstr. 16 b", "13347 Berlin", "Deutschland"]}, "categories": [{"id": "4bf58dd8d48988d116941735", "name": "Bar", "pluralName": "Bars", "shortName": "Bar", "icon": {"prefix": "https://ss3.4sqi.net/img/categories_v2/nightlife/pub_", "suffix": ".png"}, "primary": true}], "photos": {"count": 0, "groups": []}}, "referralId": "e-0-4b01976ff964a520b24322e3-45"}, {"reasons": {"count": 0, "items": [{"summary": "This spot is popular", "type": "general", "reasonName": "globalInteractionReason"}]}, "venue": {"id": "4f8d8650e4b076cabc31375b", "name": "Pingolino Eis", "location": {"address": "Malplaquetstra\u00dfe 42", "crossStreet": "Nazarethkirchstra\u00dfe", "lat": 52.54959129512073, "lng": 13.36156409444089, "labeledLatLngs": [{"label": "display", "lat": 52.54959129512073, "lng": 13.36156409444089}], "distance": 233, "postalCode": "13347", "cc": "DE", "city": "Berlin", "state": "Berlin", "country": "Deutschland", "formattedAddress": ["Malplaquetstra\u00dfe 42 (Nazarethkirchstra\u00dfe)", "13347 Berlin", "Deutschland"]}, "categories": [{"id": "4bf58dd8d48988d1c9941735", "name": "Ice Cream Shop", "pluralName": "Ice Cream Shops", "shortName": "Ice Cream", "icon": {"prefix": "https://ss3.4sqi.net/img/categories_v2/food/icecream_", "suffix": ".png"}, "primary": true}], "photos": {"count": 0, "groups": []}}, "referralId": "e-0-4f8d8650e4b076cabc31375b-46"}, {"reasons": {"count": 0, "items": [{"summary": "This spot is popular", "type": "general", "reasonName": "globalInteractionReason"}]}, "venue": {"id": "4ca37209a73cb60c49dd1878", "name": "Karstadt Lebensmittel by REWE", "location": {"address": "M\u00fcllerstr. 25", "crossStreet": "Karstadt", "lat": 52.546295697522886, "lng": 13.360351324081421, "labeledLatLngs": [{"label": "display", "lat": 52.546295697522886, "lng": 13.360351324081421}], "distance": 448, "postalCode": "13353", "cc": "DE", "neighborhood": "Leopoldplatz", "city": "Berlin", "state": "Berlin", "country": "Deutschland", "formattedAddress": ["M\u00fcllerstr. 25 (Karstadt)", "13353 Berlin", "Deutschland"]}, "categories": [{"id": "52f2ab2ebcbc57f1066b8b46", "name": "Supermarket", "pluralName": "Supermarkets", "shortName": "Supermarket", "icon": {"prefix": "https://ss3.4sqi.net/img/categories_v2/shops/food_grocery_", "suffix": ".png"}, "primary": true}], "photos": {"count": 0, "groups": []}}, "referralId": "e-0-4ca37209a73cb60c49dd1878-47"}, {"reasons": {"count": 0, "items": [{"summary": "This spot is popular", "type": "general", "reasonName": "globalInteractionReason"}]}, "venue": {"id": "51dadde3498e62a20adec62e", "name": "G\u00f6ttlich Essen & Trinken", "location": {"address": "Tegeler Str. 23", "lat": 52.54190361750728, "lng": 13.3571313673713, "labeledLatLngs": [{"label": "display", "lat": 52.54190361750728, "lng": 13.3571313673713}], "distance": 969, "cc": "DE", "city": "Berlin", "state": "Berlin", "country": "Deutschland", "formattedAddress": ["Tegeler Str. 23", "Berlin", "Deutschland"]}, "categories": [{"id": "4bf58dd8d48988d16d941735", "name": "Caf\u00e9", "pluralName": "Caf\u00e9s", "shortName": "Caf\u00e9", "icon": {"prefix": "https://ss3.4sqi.net/img/categories_v2/food/cafe_", "suffix": ".png"}, "primary": true}], "photos": {"count": 0, "groups": []}}, "referralId": "e-0-51dadde3498e62a20adec62e-48"}, {"reasons": {"count": 0, "items": [{"summary": "This spot is popular", "type": "general", "reasonName": "globalInteractionReason"}]}, "venue": {"id": "4f5b538fe4b0c8398266c4f7", "name": "Pizza De Lux", "location": {"address": "Luxemburger Str. 32", "crossStreet": "Am Leopoldplatz", "lat": 52.54576277234332, "lng": 13.358245416077104, "labeledLatLngs": [{"label": "display", "lat": 52.54576277234332, "lng": 13.358245416077104}], "distance": 593, "postalCode": "13353", "cc": "DE", "city": "Berlin", "state": "Berlin", "country": "Deutschland", "formattedAddress": ["Luxemburger Str. 32 (Am Leopoldplatz)", "13353 Berlin", "Deutschland"]}, "categories": [{"id": "4bf58dd8d48988d1ca941735", "name": "Pizza Place", "pluralName": "Pizza Places", "shortName": "Pizza", "icon": {"prefix": "https://ss3.4sqi.net/img/categories_v2/food/pizza_", "suffix": ".png"}, "primary": true}], "photos": {"count": 0, "groups": []}}, "referralId": "e-0-4f5b538fe4b0c8398266c4f7-49"}, {"reasons": {"count": 0, "items": [{"summary": "This spot is popular", "type": "general", "reasonName": "globalInteractionReason"}]}, "venue": {"id": "4c797bbb93ef236a46c9af0f", "name": "Gerichtsh\u00f6fe", "location": {"address": "Gerichtsstr. 12-13", "lat": 52.544102866836624, "lng": 13.372661088156958, "labeledLatLngs": [{"label": "display", "lat": 52.544102866836624, "lng": 13.372661088156958}], "distance": 770, "postalCode": "13347", "cc": "DE", "city": "Berlin", "state": "Berlin", "country": "Deutschland", "formattedAddress": ["Gerichtsstr. 12-13", "13347 Berlin", "Deutschland"]}, "categories": [{"id": "4bf58dd8d48988d1e2931735", "name": "Art Gallery", "pluralName": "Art Galleries", "shortName": "Art Gallery", "icon": {"prefix": "https://ss3.4sqi.net/img/categories_v2/arts_entertainment/artgallery_", "suffix": ".png"}, "primary": true}], "photos": {"count": 0, "groups": []}}, "referralId": "e-0-4c797bbb93ef236a46c9af0f-50"}, {"reasons": {"count": 0, "items": [{"summary": "This spot is popular", "type": "general", "reasonName": "globalInteractionReason"}]}, "venue": {"id": "4d52fee1e0275481c287bab6", "name": "Alaturka", "location": {"address": "Reinickendorfer Str. 109", "lat": 52.545152795573124, "lng": 13.369422160188224, "labeledLatLngs": [{"label": "display", "lat": 52.545152795573124, "lng": 13.369422160188224}], "distance": 542, "postalCode": "13347", "cc": "DE", "city": "Berlin", "state": "Berlin", "country": "Deutschland", "formattedAddress": ["Reinickendorfer Str. 109", "13347 Berlin", "Deutschland"]}, "categories": [{"id": "4bf58dd8d48988d115941735", "name": "Middle Eastern Restaurant", "pluralName": "Middle Eastern Restaurants", "shortName": "Middle Eastern", "icon": {"prefix": "https://ss3.4sqi.net/img/categories_v2/food/middleeastern_", "suffix": ".png"}, "primary": true}], "photos": {"count": 0, "groups": []}}, "referralId": "e-0-4d52fee1e0275481c287bab6-51"}, {"reasons": {"count": 0, "items": [{"summary": "This spot is popular", "type": "general", "reasonName": "globalInteractionReason"}]}, "venue": {"id": "4b71bde0f964a520b4592de3", "name": "Valle dei Templi", "location": {"address": "Br\u00fcsseler Str. 10", "crossStreet": "Antwerpener Str.", "lat": 52.54764909282134, "lng": 13.351236158211726, "labeledLatLngs": [{"label": "display", "lat": 52.54764909282134, "lng": 13.351236158211726}], "distance": 944, "postalCode": "13353", "cc": "DE", "city": "Berlin", "state": "Berlin", "country": "Deutschland", "formattedAddress": ["Br\u00fcsseler Str. 10 (Antwerpener Str.)", "13353 Berlin", "Deutschland"]}, "categories": [{"id": "4bf58dd8d48988d110941735", "name": "Italian Restaurant", "pluralName": "Italian Restaurants", "shortName": "Italian", "icon": {"prefix": "https://ss3.4sqi.net/img/categories_v2/food/italian_", "suffix": ".png"}, "primary": true}], "photos": {"count": 0, "groups": []}}, "referralId": "e-0-4b71bde0f964a520b4592de3-52"}, {"reasons": {"count": 0, "items": [{"summary": "This spot is popular", "type": "general", "reasonName": "globalInteractionReason"}]}, "venue": {"id": "59df8a3f0457b77fd13a0440", "name": "The Visit Coffee", "location": {"address": "M\u00fchlerstr. 28", "lat": 52.547196, "lng": 13.358168, "labeledLatLngs": [{"label": "display", "lat": 52.547196, "lng": 13.358168}], "distance": 510, "postalCode": "13353", "cc": "DE", "neighborhood": "Leopoldplatz", "city": "Berlin", "state": "Berlin", "country": "Deutschland", "formattedAddress": ["M\u00fchlerstr. 28", "13353 Berlin", "Deutschland"]}, "categories": [{"id": "4bf58dd8d48988d1e0931735", "name": "Coffee Shop", "pluralName": "Coffee Shops", "shortName": "Coffee Shop", "icon": {"prefix": "https://ss3.4sqi.net/img/categories_v2/food/coffeeshop_", "suffix": ".png"}, "primary": true}], "photos": {"count": 0, "groups": []}}, "referralId": "e-0-59df8a3f0457b77fd13a0440-53"}, {"reasons": {"count": 0, "items": [{"summary": "This spot is popular", "type": "general", "reasonName": "globalInteractionReason"}]}, "venue": {"id": "5a4b862ef870fd694c655a44", "name": "Lei\u2018s K\u00fcche China Restaurant", "location": {"address": "Seestra\u00dfe 41/ Rechts", "lat": 52.549702, "lng": 13.350969, "labeledLatLngs": [{"label": "display", "lat": 52.549702, "lng": 13.350969}], "distance": 948, "postalCode": "13353", "cc": "DE", "state": "Berlin", "country": "Deutschland", "formattedAddress": ["Seestra\u00dfe 41/ Rechts", "13353", "Deutschland"]}, "categories": [{"id": "4bf58dd8d48988d145941735", "name": "Chinese Restaurant", "pluralName": "Chinese Restaurants", "shortName": "Chinese", "icon": {"prefix": "https://ss3.4sqi.net/img/categories_v2/food/asian_", "suffix": ".png"}, "primary": true}], "photos": {"count": 0, "groups": []}}, "referralId": "e-0-5a4b862ef870fd694c655a44-54"}, {"reasons": {"count": 0, "items": [{"summary": "This spot is popular", "type": "general", "reasonName": "globalInteractionReason"}]}, "venue": {"id": "5363611e498ed0312c5a7144", "name": "Bioladen * Caf\u00e9", "location": {"address": "Tegeler Stra\u00dfe 30", "lat": 52.542763363436855, "lng": 13.356678839541141, "labeledLatLngs": [{"label": "display", "lat": 52.542763363436855, "lng": 13.356678839541141}], "distance": 909, "postalCode": "13353", "cc": "DE", "city": "Berlin", "state": "Berlin", "country": "Deutschland", "formattedAddress": ["Tegeler Stra\u00dfe 30", "13353 Berlin", "Deutschland"]}, "categories": [{"id": "4bf58dd8d48988d16d941735", "name": "Caf\u00e9", "pluralName": "Caf\u00e9s", "shortName": "Caf\u00e9", "icon": {"prefix": "https://ss3.4sqi.net/img/categories_v2/food/cafe_", "suffix": ".png"}, "primary": true}], "photos": {"count": 0, "groups": []}}, "referralId": "e-0-5363611e498ed0312c5a7144-55"}, {"reasons": {"count": 0, "items": [{"summary": "This spot is popular", "type": "general", "reasonName": "globalInteractionReason"}]}, "venue": {"id": "4fb79025e4b01fc532672bf3", "name": "Brunnenplatz", "location": {"address": "Brunnenplatz", "lat": 52.55015487644891, "lng": 13.373170180440079, "labeledLatLngs": [{"label": "display", "lat": 52.55015487644891, "lng": 13.373170180440079}], "distance": 565, "postalCode": "13357", "cc": "DE", "city": "Berlin", "state": "Berlin", "country": "Deutschland", "formattedAddress": ["Brunnenplatz", "13357 Berlin", "Deutschland"]}, "categories": [{"id": "4bf58dd8d48988d163941735", "name": "Park", "pluralName": "Parks", "shortName": "Park", "icon": {"prefix": "https://ss3.4sqi.net/img/categories_v2/parks_outdoors/park_", "suffix": ".png"}, "primary": true}], "photos": {"count": 0, "groups": []}}, "referralId": "e-0-4fb79025e4b01fc532672bf3-56"}, {"reasons": {"count": 0, "items": [{"summary": "This spot is popular", "type": "general", "reasonName": "globalInteractionReason"}]}, "venue": {"id": "4c49a6f5b5eec9b6ea0308a5", "name": "Vinh-Loi", "location": {"address": "M\u00fcllerstr. 40", "lat": 52.550065126653685, "lng": 13.352789658264062, "labeledLatLngs": [{"label": "display", "lat": 52.550065126653685, "lng": 13.352789658264062}], "distance": 829, "postalCode": "13353", "cc": "DE", "city": "Berlin", "state": "Berlin", "country": "Deutschland", "formattedAddress": ["M\u00fcllerstr. 40", "13353 Berlin", "Deutschland"]}, "categories": [{"id": "4bf58dd8d48988d118951735", "name": "Grocery Store", "pluralName": "Grocery Stores", "shortName": "Grocery Store", "icon": {"prefix": "https://ss3.4sqi.net/img/categories_v2/shops/food_grocery_", "suffix": ".png"}, "primary": true}], "photos": {"count": 0, "groups": []}}, "referralId": "e-0-4c49a6f5b5eec9b6ea0308a5-57"}, {"reasons": {"count": 0, "items": [{"summary": "This spot is popular", "type": "general", "reasonName": "globalInteractionReason"}]}, "venue": {"id": "4bce122cef10952136718386", "name": "Osteria da Pino", "location": {"address": "Wildenowstr.", "crossStreet": "Trifftstr.", "lat": 52.54430460687562, "lng": 13.360309757251162, "labeledLatLngs": [{"label": "display", "lat": 52.54430460687562, "lng": 13.360309757251162}], "distance": 628, "postalCode": "13353", "cc": "DE", "city": "Berlin", "state": "Berlin", "country": "Deutschland", "formattedAddress": ["Wildenowstr. (Trifftstr.)", "13353 Berlin", "Deutschland"]}, "categories": [{"id": "55a5a1ebe4b013909087cb7f", "name": "Trattoria/Osteria", "pluralName": "Trattorias/Osterias", "shortName": "Trattoria/Osteria", "icon": {"prefix": "https://ss3.4sqi.net/img/categories_v2/food/italian_", "suffix": ".png"}, "primary": true}], "photos": {"count": 0, "groups": []}}, "referralId": "e-0-4bce122cef10952136718386-58"}, {"reasons": {"count": 0, "items": [{"summary": "This spot is popular", "type": "general", "reasonName": "globalInteractionReason"}]}, "venue": {"id": "4b0833fcf964a520290623e3", "name": "Auf der Suche nach dem verlorenen Gl\u00fcck", "location": {"address": "Nazarethkirchstr. 43", "lat": 52.54895295253606, "lng": 13.361233553708391, "labeledLatLngs": [{"label": "display", "lat": 52.54895295253606, "lng": 13.361233553708391}], "distance": 253, "postalCode": "13347", "cc": "DE", "city": "Berlin", "state": "Berlin", "country": "Deutschland", "formattedAddress": ["Nazarethkirchstr. 43", "13347 Berlin", "Deutschland"]}, "categories": [{"id": "4bf58dd8d48988d16d941735", "name": "Caf\u00e9", "pluralName": "Caf\u00e9s", "shortName": "Caf\u00e9", "icon": {"prefix": "https://ss3.4sqi.net/img/categories_v2/food/cafe_", "suffix": ".png"}, "primary": true}], "photos": {"count": 0, "groups": []}}, "referralId": "e-0-4b0833fcf964a520290623e3-59"}, {"reasons": {"count": 0, "items": [{"summary": "This spot is popular", "type": "general", "reasonName": "globalInteractionReason"}]}, "venue": {"id": "4cee33acb80da093076e2600", "name": "Bio-B\u00e4ckerei Bucco", "location": {"address": "Ravenestr. 1", "lat": 52.54280988674659, "lng": 13.370479345321653, "labeledLatLngs": [{"label": "display", "lat": 52.54280988674659, "lng": 13.370479345321653}], "distance": 803, "postalCode": "13347", "cc": "DE", "city": "Berlin", "state": "Berlin", "country": "Deutschland", "formattedAddress": ["Ravenestr. 1", "13347 Berlin", "Deutschland"]}, "categories": [{"id": "4bf58dd8d48988d16a941735", "name": "Bakery", "pluralName": "Bakeries", "shortName": "Bakery", "icon": {"prefix": "https://ss3.4sqi.net/img/categories_v2/food/bakery_", "suffix": ".png"}, "primary": true}], "photos": {"count": 0, "groups": []}}, "referralId": "e-0-4cee33acb80da093076e2600-60"}, {"reasons": {"count": 0, "items": [{"summary": "This spot is popular", "type": "general", "reasonName": "globalInteractionReason"}]}, "venue": {"id": "51c4bcce498ee246aa85397b", "name": "Rebel Room", "location": {"address": "Seestr. 93", "lat": 52.55085049627715, "lng": 13.352191029454147, "labeledLatLngs": [{"label": "display", "lat": 52.55085049627715, "lng": 13.352191029454147}], "distance": 883, "postalCode": "13347", "cc": "DE", "neighborhood": "Schillerpark", "city": "Berlin", "state": "Berlin", "country": "Deutschland", "formattedAddress": ["Seestr. 93", "13347 Berlin", "Deutschland"]}, "categories": [{"id": "4bf58dd8d48988d16c941735", "name": "Burger Joint", "pluralName": "Burger Joints", "shortName": "Burgers", "icon": {"prefix": "https://ss3.4sqi.net/img/categories_v2/food/burger_", "suffix": ".png"}, "primary": true}], "photos": {"count": 0, "groups": []}}, "referralId": "e-0-51c4bcce498ee246aa85397b-61"}, {"reasons": {"count": 0, "items": [{"summary": "This spot is popular", "type": "general", "reasonName": "globalInteractionReason"}]}, "venue": {"id": "4b811b27f964a520f99630e3", "name": "\u00c7ar\u0131k Kuruyemi\u015f & Cafe", "location": {"address": "M\u00fcllerstr. 39", "lat": 52.549968126722916, "lng": 13.353563180480318, "labeledLatLngs": [{"label": "display", "lat": 52.549968126722916, "lng": 13.353563180480318}], "distance": 776, "postalCode": "133553", "cc": "DE", "city": "Berlin", "state": "Berlin", "country": "Deutschland", "formattedAddress": ["M\u00fcllerstr. 39", "133553 Berlin", "Deutschland"]}, "categories": [{"id": "4bf58dd8d48988d16d941735", "name": "Caf\u00e9", "pluralName": "Caf\u00e9s", "shortName": "Caf\u00e9", "icon": {"prefix": "https://ss3.4sqi.net/img/categories_v2/food/cafe_", "suffix": ".png"}, "primary": true}], "photos": {"count": 0, "groups": []}}, "referralId": "e-0-4b811b27f964a520f99630e3-62"}, {"reasons": {"count": 0, "items": [{"summary": "This spot is popular", "type": "general", "reasonName": "globalInteractionReason"}]}, "venue": {"id": "544258c9498e71ae5f2d7b79", "name": "BIO COMPANY", "location": {"address": "M\u00fcllerstr. 141", "lat": 52.54923381001504, "lng": 13.354253654248586, "labeledLatLngs": [{"label": "display", "lat": 52.54923381001504, "lng": 13.354253654248586}], "distance": 724, "postalCode": "13353", "cc": "DE", "city": "Berlin", "state": "Berlin", "country": "Deutschland", "formattedAddress": ["M\u00fcllerstr. 141", "13353 Berlin", "Deutschland"]}, "categories": [{"id": "52f2ab2ebcbc57f1066b8b45", "name": "Organic Grocery", "pluralName": "Organic Groceries", "shortName": "Organic Grocery", "icon": {"prefix": "https://ss3.4sqi.net/img/categories_v2/shops/food_grocery_", "suffix": ".png"}, "primary": true}], "photos": {"count": 0, "groups": []}, "venuePage": {"id": "478405591"}}, "referralId": "e-0-544258c9498e71ae5f2d7b79-63"}, {"reasons": {"count": 0, "items": [{"summary": "This spot is popular", "type": "general", "reasonName": "globalInteractionReason"}]}, "venue": {"id": "4e48120214959d51c178bc50", "name": "Corallo", "location": {"address": "Ostender Str.", "lat": 52.547451, "lng": 13.353636, "labeledLatLngs": [{"label": "display", "lat": 52.547451, "lng": 13.353636}], "distance": 790, "cc": "DE", "city": "Berlin", "state": "Berlin", "country": "Deutschland", "formattedAddress": ["Ostender Str.", "Berlin", "Deutschland"]}, "categories": [{"id": "4bf58dd8d48988d110941735", "name": "Italian Restaurant", "pluralName": "Italian Restaurants", "shortName": "Italian", "icon": {"prefix": "https://ss3.4sqi.net/img/categories_v2/food/italian_", "suffix": ".png"}, "primary": true}], "photos": {"count": 0, "groups": []}}, "referralId": "e-0-4e48120214959d51c178bc50-64"}, {"reasons": {"count": 0, "items": [{"summary": "This spot is popular", "type": "general", "reasonName": "globalInteractionReason"}]}, "venue": {"id": "4eefc8490e01e1fde1b50caa", "name": "WG Bar", "location": {"lat": 52.54944512055773, "lng": 13.362060841987589, "labeledLatLngs": [{"label": "display", "lat": 52.54944512055773, "lng": 13.362060841987589}], "distance": 198, "cc": "DE", "city": "Berlin", "state": "Berlin", "country": "Deutschland", "formattedAddress": ["Berlin", "Deutschland"]}, "categories": [{"id": "4bf58dd8d48988d116941735", "name": "Bar", "pluralName": "Bars", "shortName": "Bar", "icon": {"prefix": "https://ss3.4sqi.net/img/categories_v2/nightlife/pub_", "suffix": ".png"}, "primary": true}], "photos": {"count": 0, "groups": []}}, "referralId": "e-0-4eefc8490e01e1fde1b50caa-65"}, {"reasons": {"count": 0, "items": [{"summary": "This spot is popular", "type": "general", "reasonName": "globalInteractionReason"}]}, "venue": {"id": "4bb11263f964a520d6773ce3", "name": "Prime Time Theater", "location": {"address": "M\u00fcllerstr. 163", "crossStreet": "Burgsdorfstr.", "lat": 52.54346575118403, "lng": 13.363546143711245, "labeledLatLngs": [{"label": "display", "lat": 52.54346575118403, "lng": 13.363546143711245}], "distance": 645, "postalCode": "13353", "cc": "DE", "city": "Berlin", "state": "Berlin", "country": "Deutschland", "formattedAddress": ["M\u00fcllerstr. 163 (Burgsdorfstr.)", "13353 Berlin", "Deutschland"]}, "categories": [{"id": "4bf58dd8d48988d135941735", "name": "Indie Theater", "pluralName": "Indie Theaters", "shortName": "Indie", "icon": {"prefix": "https://ss3.4sqi.net/img/categories_v2/arts_entertainment/performingarts_theater_", "suffix": ".png"}, "primary": true}], "photos": {"count": 0, "groups": []}}, "referralId": "e-0-4bb11263f964a520d6773ce3-66"}, {"reasons": {"count": 0, "items": [{"summary": "This spot is popular", "type": "general", "reasonName": "globalInteractionReason"}]}, "venue": {"id": "5122d3d1e4b003538daeb49e", "name": "Zum Schinken", "location": {"address": "Luxemburger Str. 6", "lat": 52.54562961179684, "lng": 13.358003700766726, "labeledLatLngs": [{"label": "display", "lat": 52.54562961179684, "lng": 13.358003700766726}], "distance": 615, "cc": "DE", "city": "Berlin", "state": "Berlin", "country": "Deutschland", "formattedAddress": ["Luxemburger Str. 6", "Berlin", "Deutschland"]}, "categories": [{"id": "4bf58dd8d48988d11b941735", "name": "Pub", "pluralName": "Pubs", "shortName": "Pub", "icon": {"prefix": "https://ss3.4sqi.net/img/categories_v2/nightlife/pub_", "suffix": ".png"}, "primary": true}], "photos": {"count": 0, "groups": []}}, "referralId": "e-0-5122d3d1e4b003538daeb49e-67"}, {"reasons": {"count": 0, "items": [{"summary": "This spot is popular", "type": "general", "reasonName": "globalInteractionReason"}]}, "venue": {"id": "56dc9a51498e275339d6ed97", "name": "Mandi", "location": {"address": "Seestr.57 13347 Berlin", "lat": 52.55179080419174, "lng": 13.354758385000851, "labeledLatLngs": [{"label": "display", "lat": 52.55179080419174, "lng": 13.354758385000851}], "distance": 748, "cc": "DE", "neighborhood": "Leopoldplatz", "city": "Berlin", "state": "Berlin", "country": "Deutschland", "formattedAddress": ["Seestr.57 13347 Berlin", "Berlin", "Deutschland"]}, "categories": [{"id": "5bae9231bedf3950379f89ea", "name": "Yemeni Restaurant", "pluralName": "Yemeni Restaurants", "shortName": "Yemeni Restaurant", "icon": {"prefix": "https://ss3.4sqi.net/img/categories_v2/food/middleeastern_", "suffix": ".png"}, "primary": true}], "photos": {"count": 0, "groups": []}}, "referralId": "e-0-56dc9a51498e275339d6ed97-68"}, {"reasons": {"count": 0, "items": [{"summary": "This spot is popular", "type": "general", "reasonName": "globalInteractionReason"}]}, "venue": {"id": "4f61132ce4b0800f6159a0a3", "name": "Sparrplatz", "location": {"address": "Sparrplatz", "crossStreet": "Sparrstr.", "lat": 52.54287479811958, "lng": 13.359772500523018, "labeledLatLngs": [{"label": "display", "lat": 52.54287479811958, "lng": 13.359772500523018}], "distance": 786, "cc": "DE", "city": "Berlin", "state": "Berlin", "country": "Deutschland", "formattedAddress": ["Sparrplatz (Sparrstr.)", "Berlin", "Deutschland"]}, "categories": [{"id": "4bf58dd8d48988d163941735", "name": "Park", "pluralName": "Parks", "shortName": "Park", "icon": {"prefix": "https://ss3.4sqi.net/img/categories_v2/parks_outdoors/park_", "suffix": ".png"}, "primary": true}], "photos": {"count": 0, "groups": []}}, "referralId": "e-0-4f61132ce4b0800f6159a0a3-69"}, {"reasons": {"count": 0, "items": [{"summary": "This spot is popular", "type": "general", "reasonName": "globalInteractionReason"}]}, "venue": {"id": "50fa896fe4b07787cc85ee46", "name": "Imren Grill", "location": {"address": "M\u00fcllerstr. 134", "lat": 52.55116481406999, "lng": 13.350611987937897, "labeledLatLngs": [{"label": "display", "lat": 52.55116481406999, "lng": 13.350611987937897}], "distance": 995, "postalCode": "13349", "cc": "DE", "city": "Berlin", "state": "Berlin", "country": "Deutschland", "formattedAddress": ["M\u00fcllerstr. 134", "13349 Berlin", "Deutschland"]}, "categories": [{"id": "4f04af1f2fb6e1c99f3db0bb", "name": "Turkish Restaurant", "pluralName": "Turkish Restaurants", "shortName": "Turkish", "icon": {"prefix": "https://ss3.4sqi.net/img/categories_v2/food/turkish_", "suffix": ".png"}, "primary": true}], "photos": {"count": 0, "groups": []}}, "referralId": "e-0-50fa896fe4b07787cc85ee46-70"}, {"reasons": {"count": 0, "items": [{"summary": "This spot is popular", "type": "general", "reasonName": "globalInteractionReason"}]}, "venue": {"id": "4e1360738877ac23b672398a", "name": "Simit Evi", "location": {"address": "M\u00fcllerstr. 147", "lat": 52.54709361706437, "lng": 13.3578142709748, "labeledLatLngs": [{"label": "display", "lat": 52.54709361706437, "lng": 13.3578142709748}], "distance": 537, "postalCode": "13353", "cc": "DE", "city": "Berlin", "state": "Berlin", "country": "Deutschland", "formattedAddress": ["M\u00fcllerstr. 147", "13353 Berlin", "Deutschland"]}, "categories": [{"id": "4bf58dd8d48988d16d941735", "name": "Caf\u00e9", "pluralName": "Caf\u00e9s", "shortName": "Caf\u00e9", "icon": {"prefix": "https://ss3.4sqi.net/img/categories_v2/food/cafe_", "suffix": ".png"}, "primary": true}], "photos": {"count": 0, "groups": []}}, "referralId": "e-0-4e1360738877ac23b672398a-71"}, {"reasons": {"count": 0, "items": [{"summary": "This spot is popular", "type": "general", "reasonName": "globalInteractionReason"}]}, "venue": {"id": "5a3549075d891b1944dd0e24", "name": "Chibee", "location": {"address": "Tegeler Str. 29a", "lat": 52.542890118231455, "lng": 13.35643574019376, "labeledLatLngs": [{"label": "display", "lat": 52.542890118231455, "lng": 13.35643574019376}], "distance": 908, "postalCode": "13353", "cc": "DE", "neighborhood": "Sprengelkiez", "city": "Berlin", "state": "Berlin", "country": "Deutschland", "formattedAddress": ["Tegeler Str. 29a", "13353 Berlin", "Deutschland"]}, "categories": [{"id": "4bf58dd8d48988d113941735", "name": "Korean Restaurant", "pluralName": "Korean Restaurants", "shortName": "Korean", "icon": {"prefix": "https://ss3.4sqi.net/img/categories_v2/food/korean_", "suffix": ".png"}, "primary": true}], "photos": {"count": 0, "groups": []}}, "referralId": "e-0-5a3549075d891b1944dd0e24-72"}, {"reasons": {"count": 0, "items": [{"summary": "This spot is popular", "type": "general", "reasonName": "globalInteractionReason"}]}, "venue": {"id": "53aaffd2498ef1dd73cf0e8d", "name": "Kleine Mensa", "location": {"address": "Trifftstr.58", "lat": 52.543295237006134, "lng": 13.356670764573705, "labeledLatLngs": [{"label": "display", "lat": 52.543295237006134, "lng": 13.356670764573705}], "distance": 863, "cc": "DE", "neighborhood": "Sprengelkiez", "city": "Berlin", "state": "Berlin", "country": "Deutschland", "formattedAddress": ["Trifftstr.58", "Berlin", "Deutschland"]}, "categories": [{"id": "4bf58dd8d48988d16d941735", "name": "Caf\u00e9", "pluralName": "Caf\u00e9s", "shortName": "Caf\u00e9", "icon": {"prefix": "https://ss3.4sqi.net/img/categories_v2/food/cafe_", "suffix": ".png"}, "primary": true}], "photos": {"count": 0, "groups": []}}, "referralId": "e-0-53aaffd2498ef1dd73cf0e8d-73"}, {"reasons": {"count": 0, "items": [{"summary": "This spot is popular", "type": "general", "reasonName": "globalInteractionReason"}]}, "venue": {"id": "4ba673a8f964a520fa5339e3", "name": "McFIT", "location": {"address": "Forum Seestra\u00dfe 64", "crossStreet": "Forum Seestra\u00dfe (#53)", "lat": 52.55368806039361, "lng": 13.360465317964554, "labeledLatLngs": [{"label": "display", "lat": 52.55368806039361, "lng": 13.360465317964554}], "distance": 585, "postalCode": "13347", "cc": "DE", "city": "Berlin", "state": "Berlin", "country": "Deutschland", "formattedAddress": ["Forum Seestra\u00dfe 64 (Forum Seestra\u00dfe (#53))", "13347 Berlin", "Deutschland"]}, "categories": [{"id": "4bf58dd8d48988d175941735", "name": "Gym / Fitness Center", "pluralName": "Gyms or Fitness Centers", "shortName": "Gym / Fitness", "icon": {"prefix": "https://ss3.4sqi.net/img/categories_v2/building/gym_", "suffix": ".png"}, "primary": true}], "photos": {"count": 0, "groups": []}}, "referralId": "e-0-4ba673a8f964a520fa5339e3-74"}, {"reasons": {"count": 0, "items": [{"summary": "This spot is popular", "type": "general", "reasonName": "globalInteractionReason"}]}, "venue": {"id": "4c562a3b73fd2d7f54150dcf", "name": "NOKA KOREA Karaoke", "location": {"address": "Schulstr. 29", "lat": 52.549672628561545, "lng": 13.365501944716675, "labeledLatLngs": [{"label": "display", "lat": 52.549672628561545, "lng": 13.365501944716675}], "distance": 64, "postalCode": "13347", "cc": "DE", "city": "Berlin", "state": "Berlin", "country": "Deutschland", "formattedAddress": ["Schulstr. 29", "13347 Berlin", "Deutschland"]}, "categories": [{"id": "4bf58dd8d48988d120941735", "name": "Karaoke Bar", "pluralName": "Karaoke Bars", "shortName": "Karaoke", "icon": {"prefix": "https://ss3.4sqi.net/img/categories_v2/nightlife/karaoke_", "suffix": ".png"}, "primary": true}], "photos": {"count": 0, "groups": []}}, "referralId": "e-0-4c562a3b73fd2d7f54150dcf-75"}, {"reasons": {"count": 0, "items": [{"summary": "This spot is popular", "type": "general", "reasonName": "globalInteractionReason"}]}, "venue": {"id": "55abad8d498e00ffdc943b49", "name": "Lecker Asia", "location": {"address": "Reinickendorfer Str. 14", "lat": 52.542566832059094, "lng": 13.370109200477598, "labeledLatLngs": [{"label": "display", "lat": 52.542566832059094, "lng": 13.370109200477598}], "distance": 816, "cc": "DE", "city": "Berlin", "state": "Berlin", "country": "Deutschland", "formattedAddress": ["Reinickendorfer Str. 14", "Berlin", "Deutschland"]}, "categories": [{"id": "4bf58dd8d48988d142941735", "name": "Asian Restaurant", "pluralName": "Asian Restaurants", "shortName": "Asian", "icon": {"prefix": "https://ss3.4sqi.net/img/categories_v2/food/asian_", "suffix": ".png"}, "primary": true}], "photos": {"count": 0, "groups": []}}, "referralId": "e-0-55abad8d498e00ffdc943b49-76"}, {"reasons": {"count": 0, "items": [{"summary": "This spot is popular", "type": "general", "reasonName": "globalInteractionReason"}]}, "venue": {"id": "4b5c5379f964a5200e2b29e3", "name": "Bowlingcenter Schillerpark", "location": {"address": "M\u00fcllerstr. 47", "crossStreet": "Schillerpark-Center", "lat": 52.55235783482197, "lng": 13.351222438344234, "labeledLatLngs": [{"label": "display", "lat": 52.55235783482197, "lng": 13.351222438344234}], "distance": 994, "postalCode": "13349", "cc": "DE", "city": "Berlin", "state": "Berlin", "country": "Deutschland", "formattedAddress": ["M\u00fcllerstr. 47 (Schillerpark-Center)", "13349 Berlin", "Deutschland"]}, "categories": [{"id": "4bf58dd8d48988d1e4931735", "name": "Bowling Alley", "pluralName": "Bowling Alleys", "shortName": "Bowling Alley", "icon": {"prefix": "https://ss3.4sqi.net/img/categories_v2/arts_entertainment/bowling_", "suffix": ".png"}, "primary": true}], "photos": {"count": 0, "groups": []}}, "referralId": "e-0-4b5c5379f964a5200e2b29e3-77"}, {"reasons": {"count": 0, "items": [{"summary": "This spot is popular", "type": "general", "reasonName": "globalInteractionReason"}]}, "venue": {"id": "503cba21e4b09e16682af3c8", "name": "Shikgoo", "location": {"address": "Tegelerstr. 27", "lat": 52.542965610416694, "lng": 13.35645400333056, "labeledLatLngs": [{"label": "display", "lat": 52.542965610416694, "lng": 13.35645400333056}], "distance": 901, "cc": "DE", "city": "Berlin", "state": "Berlin", "country": "Deutschland", "formattedAddress": ["Tegelerstr. 27", "Berlin", "Deutschland"]}, "categories": [{"id": "4bf58dd8d48988d113941735", "name": "Korean Restaurant", "pluralName": "Korean Restaurants", "shortName": "Korean", "icon": {"prefix": "https://ss3.4sqi.net/img/categories_v2/food/korean_", "suffix": ".png"}, "primary": true}], "photos": {"count": 0, "groups": []}}, "referralId": "e-0-503cba21e4b09e16682af3c8-78"}, {"reasons": {"count": 0, "items": [{"summary": "This spot is popular", "type": "general", "reasonName": "globalInteractionReason"}]}, "venue": {"id": "4ba2454ff964a5209de837e3", "name": "Ya Karim", "location": {"address": "M\u00fcllerstr. 138a", "lat": 52.549909990822634, "lng": 13.35295026903617, "labeledLatLngs": [{"label": "display", "lat": 52.549909990822634, "lng": 13.35295026903617}], "distance": 816, "postalCode": "13353", "cc": "DE", "neighborhood": "Leopoldplatz", "city": "Berlin", "state": "Berlin", "country": "Deutschland", "formattedAddress": ["M\u00fcllerstr. 138a", "13353 Berlin", "Deutschland"]}, "categories": [{"id": "4bf58dd8d48988d115941735", "name": "Middle Eastern Restaurant", "pluralName": "Middle Eastern Restaurants", "shortName": "Middle Eastern", "icon": {"prefix": "https://ss3.4sqi.net/img/categories_v2/food/middleeastern_", "suffix": ".png"}, "primary": true}], "photos": {"count": 0, "groups": []}}, "referralId": "e-0-4ba2454ff964a5209de837e3-79"}, {"reasons": {"count": 0, "items": [{"summary": "This spot is popular", "type": "general", "reasonName": "globalInteractionReason"}]}, "venue": {"id": "57aede0d498eca015fafc08c", "name": "M\u00f6bel Kraft Wedding", "location": {"lat": 52.54866402700487, "lng": 13.377373196429659, "labeledLatLngs": [{"label": "display", "lat": 52.54866402700487, "lng": 13.377373196429659}], "distance": 842, "cc": "DE", "city": "Berlin", "state": "Berlin", "country": "Deutschland", "formattedAddress": ["Berlin", "Deutschland"]}, "categories": [{"id": "4bf58dd8d48988d1f8941735", "name": "Furniture / Home Store", "pluralName": "Furniture / Home Stores", "shortName": "Furniture / Home", "icon": {"prefix": "https://ss3.4sqi.net/img/categories_v2/shops/furniture_", "suffix": ".png"}, "primary": true}], "photos": {"count": 0, "groups": []}}, "referralId": "e-0-57aede0d498eca015fafc08c-80"}, {"reasons": {"count": 0, "items": [{"summary": "This spot is popular", "type": "general", "reasonName": "globalInteractionReason"}]}, "venue": {"id": "4c07e22798e69c74d1e2c61d", "name": "Baba Sultan K\u00f6fteci", "location": {"address": "Luxemburger Str. 34", "lat": 52.54598451111222, "lng": 13.358697665813871, "labeledLatLngs": [{"label": "display", "lat": 52.54598451111222, "lng": 13.358697665813871}], "distance": 554, "postalCode": "13353", "cc": "DE", "city": "Berlin", "state": "Berlin", "country": "Deutschland", "formattedAddress": ["Luxemburger Str. 34", "13353 Berlin", "Deutschland"]}, "categories": [{"id": "4f04af1f2fb6e1c99f3db0bb", "name": "Turkish Restaurant", "pluralName": "Turkish Restaurants", "shortName": "Turkish", "icon": {"prefix": "https://ss3.4sqi.net/img/categories_v2/food/turkish_", "suffix": ".png"}, "primary": true}], "photos": {"count": 0, "groups": []}}, "referralId": "e-0-4c07e22798e69c74d1e2c61d-81"}, {"reasons": {"count": 0, "items": [{"summary": "This spot is popular", "type": "general", "reasonName": "globalInteractionReason"}]}, "venue": {"id": "4da059f59883d7ceeea503dc", "name": "Dedecan Best Gem\u00fcse Kebap", "location": {"address": "Luxemburger Str. 33", "lat": 52.545899066460045, "lng": 13.358384378678187, "labeledLatLngs": [{"label": "display", "lat": 52.545899066460045, "lng": 13.358384378678187}], "distance": 576, "postalCode": "13353", "cc": "DE", "city": "Berlin", "state": "Berlin", "country": "Deutschland", "formattedAddress": ["Luxemburger Str. 33", "13353 Berlin", "Deutschland"]}, "categories": [{"id": "5283c7b4e4b094cb91ec88d7", "name": "Kebab Restaurant", "pluralName": "Kebab Restaurants", "shortName": "Kebab", "icon": {"prefix": "https://ss3.4sqi.net/img/categories_v2/food/middleeastern_", "suffix": ".png"}, "primary": true}], "photos": {"count": 0, "groups": []}}, "referralId": "e-0-4da059f59883d7ceeea503dc-82"}, {"reasons": {"count": 0, "items": [{"summary": "This spot is popular", "type": "general", "reasonName": "globalInteractionReason"}]}, "venue": {"id": "4fa7de67e4b01208fc68fde0", "name": "Frites van Holland", "location": {"address": "M\u00fcllerstra\u00dfe 25", "crossStreet": "Leopoldplatz", "lat": 52.54662679636061, "lng": 13.359396269373182, "labeledLatLngs": [{"label": "display", "lat": 52.54662679636061, "lng": 13.359396269373182}], "distance": 472, "postalCode": "13347", "cc": "DE", "city": "Berlin", "state": "Berlin", "country": "Deutschland", "formattedAddress": ["M\u00fcllerstra\u00dfe 25 (Leopoldplatz)", "13347 Berlin", "Deutschland"]}, "categories": [{"id": "4bf58dd8d48988d16e941735", "name": "Fast Food Restaurant", "pluralName": "Fast Food Restaurants", "shortName": "Fast Food", "icon": {"prefix": "https://ss3.4sqi.net/img/categories_v2/food/fastfood_", "suffix": ".png"}, "primary": true}], "photos": {"count": 0, "groups": []}}, "referralId": "e-0-4fa7de67e4b01208fc68fde0-83"}, {"reasons": {"count": 0, "items": [{"summary": "This spot is popular", "type": "general", "reasonName": "globalInteractionReason"}]}, "venue": {"id": "4c6d6df7f338236a7595071b", "name": "Fressnapf", "location": {"address": "M\u00fcllerstr. 10-11", "lat": 52.5425519, "lng": 13.36766, "labeledLatLngs": [{"label": "display", "lat": 52.5425519, "lng": 13.36766}], "distance": 761, "postalCode": "13353", "cc": "DE", "city": "Berlin", "state": "Berlin", "country": "Deutschland", "formattedAddress": ["M\u00fcllerstr. 10-11", "13353 Berlin", "Deutschland"]}, "categories": [{"id": "4bf58dd8d48988d100951735", "name": "Pet Store", "pluralName": "Pet Stores", "shortName": "Pet Store", "icon": {"prefix": "https://ss3.4sqi.net/img/categories_v2/shops/pet_store_", "suffix": ".png"}, "primary": true}], "photos": {"count": 0, "groups": []}, "venuePage": {"id": "453538274"}}, "referralId": "e-0-4c6d6df7f338236a7595071b-84"}, {"reasons": {"count": 0, "items": [{"summary": "This spot is popular", "type": "general", "reasonName": "globalInteractionReason"}]}, "venue": {"id": "593283d7e185f327ff8c5500", "name": "Bio Company B\u00e4ckerstand", "location": {"lat": 52.549037, "lng": 13.354195, "labeledLatLngs": [{"label": "display", "lat": 52.549037, "lng": 13.354195}], "distance": 728, "cc": "DE", "city": "Berlin", "state": "Berlin", "country": "Deutschland", "formattedAddress": ["Berlin", "Deutschland"]}, "categories": [{"id": "4bf58dd8d48988d16a941735", "name": "Bakery", "pluralName": "Bakeries", "shortName": "Bakery", "icon": {"prefix": "https://ss3.4sqi.net/img/categories_v2/food/bakery_", "suffix": ".png"}, "primary": true}], "photos": {"count": 0, "groups": []}}, "referralId": "e-0-593283d7e185f327ff8c5500-85"}, {"reasons": {"count": 0, "items": [{"summary": "This spot is popular", "type": "general", "reasonName": "globalInteractionReason"}]}, "venue": {"id": "598af0c4fc9e9467c3649784", "name": "Louis Alfons", "location": {"address": "Gerichtstr. 60", "lat": 52.544355, "lng": 13.371478, "labeledLatLngs": [{"label": "display", "lat": 52.544355, "lng": 13.371478}], "distance": 696, "postalCode": "13347", "cc": "DE", "city": "Berlin", "state": "Berlin", "country": "Deutschland", "formattedAddress": ["Gerichtstr. 60", "13347 Berlin", "Deutschland"]}, "categories": [{"id": "4bf58dd8d48988d16c941735", "name": "Burger Joint", "pluralName": "Burger Joints", "shortName": "Burgers", "icon": {"prefix": "https://ss3.4sqi.net/img/categories_v2/food/burger_", "suffix": ".png"}, "primary": true}], "photos": {"count": 0, "groups": []}}, "referralId": "e-0-598af0c4fc9e9467c3649784-86"}, {"reasons": {"count": 0, "items": [{"summary": "This spot is popular", "type": "general", "reasonName": "globalInteractionReason"}]}, "venue": {"id": "505d87e5e4b08887c616b376", "name": "Der Genter Wochenmarkt", "location": {"address": "Ostender Str.", "lat": 52.546856, "lng": 13.354842, "labeledLatLngs": [{"label": "display", "lat": 52.546856, "lng": 13.354842}], "distance": 732, "postalCode": "13353", "cc": "DE", "neighborhood": "Wedding", "city": "Berlin", "state": "Berlin", "country": "Deutschland", "formattedAddress": ["Ostender Str.", "13353 Berlin", "Deutschland"]}, "categories": [{"id": "4bf58dd8d48988d1fa941735", "name": "Farmers Market", "pluralName": "Farmers Markets", "shortName": "Farmer's Market", "icon": {"prefix": "https://ss3.4sqi.net/img/categories_v2/shops/food_farmersmarket_", "suffix": ".png"}, "primary": true}], "photos": {"count": 0, "groups": []}}, "referralId": "e-0-505d87e5e4b08887c616b376-87"}, {"reasons": {"count": 0, "items": [{"summary": "This spot is popular", "type": "general", "reasonName": "globalInteractionReason"}]}, "venue": {"id": "55a99e12498ec54e62dd8ef0", "name": "Ris A Chicken", "location": {"lat": 52.54742708449943, "lng": 13.357389541000064, "labeledLatLngs": [{"label": "display", "lat": 52.54742708449943, "lng": 13.357389541000064}], "distance": 548, "cc": "DE", "city": "Berlin", "state": "Berlin", "country": "Deutschland", "formattedAddress": ["Berlin", "Deutschland"]}, "categories": [{"id": "4bf58dd8d48988d16e941735", "name": "Fast Food Restaurant", "pluralName": "Fast Food Restaurants", "shortName": "Fast Food", "icon": {"prefix": "https://ss3.4sqi.net/img/categories_v2/food/fastfood_", "suffix": ".png"}, "primary": true}], "photos": {"count": 0, "groups": []}}, "referralId": "e-0-55a99e12498ec54e62dd8ef0-88"}, {"reasons": {"count": 0, "items": [{"summary": "This spot is popular", "type": "general", "reasonName": "globalInteractionReason"}]}, "venue": {"id": "4d2361a75c4ca1cd6c80b93d", "name": "Naveena Path", "location": {"address": "Tegeler Str. 22", "lat": 52.54174097111441, "lng": 13.357280578904813, "labeledLatLngs": [{"label": "display", "lat": 52.54174097111441, "lng": 13.357280578904813}], "distance": 979, "postalCode": "13353", "cc": "DE", "neighborhood": "Sprengelkiez", "city": "Berlin", "state": "Berlin", "country": "Deutschland", "formattedAddress": ["Tegeler Str. 22", "13353 Berlin", "Deutschland"]}, "categories": [{"id": "4bf58dd8d48988d10f941735", "name": "Indian Restaurant", "pluralName": "Indian Restaurants", "shortName": "Indian", "icon": {"prefix": "https://ss3.4sqi.net/img/categories_v2/food/indian_", "suffix": ".png"}, "primary": true}], "photos": {"count": 0, "groups": []}}, "referralId": "e-0-4d2361a75c4ca1cd6c80b93d-89"}, {"reasons": {"count": 0, "items": [{"summary": "This spot is popular", "type": "general", "reasonName": "globalInteractionReason"}]}, "venue": {"id": "4b52e7bff964a520588a27e3", "name": "Taverna Hellas", "location": {"address": "Utrechter Str. 22", "crossStreet": "Turiner Stra\u00dfe", "lat": 52.5498, "lng": 13.357828, "labeledLatLngs": [{"label": "display", "lat": 52.5498, "lng": 13.357828}], "distance": 487, "postalCode": "13347", "cc": "DE", "city": "Berlin", "state": "Berlin", "country": "Deutschland", "formattedAddress": ["Utrechter Str. 22 (Turiner Stra\u00dfe)", "13347 Berlin", "Deutschland"]}, "categories": [{"id": "53d6c1b0e4b02351e88a83d2", "name": "Taverna", "pluralName": "Tavernas", "shortName": "Tavernas", "icon": {"prefix": "https://ss3.4sqi.net/img/categories_v2/food/greek_", "suffix": ".png"}, "primary": true}], "photos": {"count": 0, "groups": []}}, "referralId": "e-0-4b52e7bff964a520588a27e3-90"}, {"reasons": {"count": 0, "items": [{"summary": "This spot is popular", "type": "general", "reasonName": "globalInteractionReason"}]}, "venue": {"id": "53517db3498ea10a3b9a5eb9", "name": "Sch\u00e4fer", "location": {"lat": 52.55259381594814, "lng": 13.361794258513656, "labeledLatLngs": [{"label": "display", "lat": 52.55259381594814, "lng": 13.361794258513656}], "distance": 434, "cc": "DE", "city": "Berlin", "state": "Berlin", "country": "Deutschland", "formattedAddress": ["Berlin", "Deutschland"]}, "categories": [{"id": "4bf58dd8d48988d1c0941735", "name": "Mediterranean Restaurant", "pluralName": "Mediterranean Restaurants", "shortName": "Mediterranean", "icon": {"prefix": "https://ss3.4sqi.net/img/categories_v2/food/mediterranean_", "suffix": ".png"}, "primary": true}], "photos": {"count": 0, "groups": []}}, "referralId": "e-0-53517db3498ea10a3b9a5eb9-91"}, {"reasons": {"count": 0, "items": [{"summary": "This spot is popular", "type": "general", "reasonName": "globalInteractionReason"}]}, "venue": {"id": "56c763ddcd10aa917fba5747", "name": "Kater & Goldfisch", "location": {"address": "Exerzierstr. 1", "lat": 52.55349588037809, "lng": 13.376705447538916, "labeledLatLngs": [{"label": "display", "lat": 52.55349588037809, "lng": 13.376705447538916}], "distance": 928, "postalCode": "13357", "cc": "DE", "city": "Berlin", "state": "Berlin", "country": "Deutschland", "formattedAddress": ["Exerzierstr. 1", "13357 Berlin", "Deutschland"]}, "categories": [{"id": "4bf58dd8d48988d16d941735", "name": "Caf\u00e9", "pluralName": "Caf\u00e9s", "shortName": "Caf\u00e9", "icon": {"prefix": "https://ss3.4sqi.net/img/categories_v2/food/cafe_", "suffix": ".png"}, "primary": true}], "photos": {"count": 0, "groups": []}}, "referralId": "e-0-56c763ddcd10aa917fba5747-92"}, {"reasons": {"count": 0, "items": [{"summary": "This spot is popular", "type": "general", "reasonName": "globalInteractionReason"}]}, "venue": {"id": "4e0769cd52b165b7d7ae2569", "name": "Ital Eis Dal Col", "location": {"address": "M\u00fcllerstr. 156 d", "lat": 52.54539522970515, "lng": 13.361454280386278, "labeledLatLngs": [{"label": "display", "lat": 52.54539522970515, "lng": 13.361454280386278}], "distance": 485, "postalCode": "13353", "cc": "DE", "neighborhood": "Leopoldplatz", "city": "Berlin", "state": "Berlin", "country": "Deutschland", "formattedAddress": ["M\u00fcllerstr. 156 d", "13353 Berlin", "Deutschland"]}, "categories": [{"id": "4bf58dd8d48988d1c9941735", "name": "Ice Cream Shop", "pluralName": "Ice Cream Shops", "shortName": "Ice Cream", "icon": {"prefix": "https://ss3.4sqi.net/img/categories_v2/food/icecream_", "suffix": ".png"}, "primary": true}], "photos": {"count": 0, "groups": []}}, "referralId": "e-0-4e0769cd52b165b7d7ae2569-93"}, {"reasons": {"count": 0, "items": [{"summary": "This spot is popular", "type": "general", "reasonName": "globalInteractionReason"}]}, "venue": {"id": "54a052f8498e03eea5fc1a71", "name": "Divan Simit Evi", "location": {"address": "M\u00fcllerstr. 37", "lat": 52.54934166791308, "lng": 13.354079788804729, "labeledLatLngs": [{"label": "display", "lat": 52.54934166791308, "lng": 13.354079788804729}], "distance": 736, "postalCode": "13353", "cc": "DE", "city": "Berlin", "state": "Berlin", "country": "Deutschland", "formattedAddress": ["M\u00fcllerstr. 37", "13353 Berlin", "Deutschland"]}, "categories": [{"id": "4bf58dd8d48988d16d941735", "name": "Caf\u00e9", "pluralName": "Caf\u00e9s", "shortName": "Caf\u00e9", "icon": {"prefix": "https://ss3.4sqi.net/img/categories_v2/food/cafe_", "suffix": ".png"}, "primary": true}], "photos": {"count": 0, "groups": []}}, "referralId": "e-0-54a052f8498e03eea5fc1a71-94"}, {"reasons": {"count": 0, "items": [{"summary": "This spot is popular", "type": "general", "reasonName": "globalInteractionReason"}]}, "venue": {"id": "5610fbab498e447ac0131110", "name": "Mr. Hoang", "location": {"address": "Gerichtstr. 30", "lat": 52.54475634711417, "lng": 13.368906569867395, "labeledLatLngs": [{"label": "display", "lat": 52.54475634711417, "lng": 13.368906569867395}], "distance": 561, "postalCode": "13347", "cc": "DE", "city": "Berlin", "state": "Berlin", "country": "Deutschland", "formattedAddress": ["Gerichtstr. 30", "13347 Berlin", "Deutschland"]}, "categories": [{"id": "4bf58dd8d48988d14a941735", "name": "Vietnamese Restaurant", "pluralName": "Vietnamese Restaurants", "shortName": "Vietnamese", "icon": {"prefix": "https://ss3.4sqi.net/img/categories_v2/food/vietnamese_", "suffix": ".png"}, "primary": true}], "photos": {"count": 0, "groups": []}}, "referralId": "e-0-5610fbab498e447ac0131110-95"}, {"reasons": {"count": 0, "items": [{"summary": "This spot is popular", "type": "general", "reasonName": "globalInteractionReason"}]}, "venue": {"id": "4c7aec812d3ba143a9ec92d0", "name": "Analog", "location": {"address": "Martin-Opitz-Strasse 21", "lat": 52.55109617899823, "lng": 13.372222834223846, "labeledLatLngs": [{"label": "display", "lat": 52.55109617899823, "lng": 13.372222834223846}], "distance": 535, "cc": "DE", "city": "Berlin", "state": "Berlin", "country": "Deutschland", "formattedAddress": ["Martin-Opitz-Strasse 21", "Berlin", "Deutschland"]}, "categories": [{"id": "4bf58dd8d48988d118941735", "name": "Dive Bar", "pluralName": "Dive Bars", "shortName": "Dive Bar", "icon": {"prefix": "https://ss3.4sqi.net/img/categories_v2/nightlife/divebar_", "suffix": ".png"}, "primary": true}], "photos": {"count": 0, "groups": []}}, "referralId": "e-0-4c7aec812d3ba143a9ec92d0-96"}, {"reasons": {"count": 0, "items": [{"summary": "This spot is popular", "type": "general", "reasonName": "globalInteractionReason"}]}, "venue": {"id": "4ec7921dcc21b428e31d1468", "name": "Moccachino", "location": {"address": "M\u00fcllerstr. 44 - 45", "lat": 52.55126650022769, "lng": 13.351038452300562, "labeledLatLngs": [{"label": "display", "lat": 52.55126650022769, "lng": 13.351038452300562}], "distance": 970, "postalCode": "13349", "cc": "DE", "city": "Berlin", "state": "Berlin", "country": "Deutschland", "formattedAddress": ["M\u00fcllerstr. 44 - 45", "13349 Berlin", "Deutschland"]}, "categories": [{"id": "4bf58dd8d48988d16d941735", "name": "Caf\u00e9", "pluralName": "Caf\u00e9s", "shortName": "Caf\u00e9", "icon": {"prefix": "https://ss3.4sqi.net/img/categories_v2/food/cafe_", "suffix": ".png"}, "primary": true}], "photos": {"count": 0, "groups": []}}, "referralId": "e-0-4ec7921dcc21b428e31d1468-97"}, {"reasons": {"count": 0, "items": [{"summary": "This spot is popular", "type": "general", "reasonName": "globalInteractionReason"}]}, "venue": {"id": "5c1262400802d4002c68258f", "name": "REWE", "location": {"address": "M\u00fcllerstra\u00dfe 141", "lat": 52.54897982497609, "lng": 13.354056258090168, "labeledLatLngs": [{"label": "display", "lat": 52.54897982497609, "lng": 13.354056258090168}], "distance": 738, "postalCode": "13353", "cc": "DE", "city": "Berlin", "state": "Berlin", "country": "Deutschland", "formattedAddress": ["M\u00fcllerstra\u00dfe 141", "13353 Berlin", "Deutschland"]}, "categories": [{"id": "52f2ab2ebcbc57f1066b8b46", "name": "Supermarket", "pluralName": "Supermarkets", "shortName": "Supermarket", "icon": {"prefix": "https://ss3.4sqi.net/img/categories_v2/shops/food_grocery_", "suffix": ".png"}, "primary": true}], "photos": {"count": 0, "groups": []}, "venuePage": {"id": "565106672"}}, "referralId": "e-0-5c1262400802d4002c68258f-98"}, {"reasons": {"count": 0, "items": [{"summary": "This spot is popular", "type": "general", "reasonName": "globalInteractionReason"}]}, "venue": {"id": "4f5de00fe4b035e315b706e8", "name": "Vatan B\u00e4ckerei", "location": {"address": "M\u00fcllerstr. 156c", "lat": 52.54513433507183, "lng": 13.360927999019623, "labeledLatLngs": [{"label": "display", "lat": 52.54513433507183, "lng": 13.360927999019623}], "distance": 528, "postalCode": "13353", "cc": "DE", "city": "Berlin", "state": "Berlin", "country": "Deutschland", "formattedAddress": ["M\u00fcllerstr. 156c", "13353 Berlin", "Deutschland"]}, "categories": [{"id": "4bf58dd8d48988d16a941735", "name": "Bakery", "pluralName": "Bakeries", "shortName": "Bakery", "icon": {"prefix": "https://ss3.4sqi.net/img/categories_v2/food/bakery_", "suffix": ".png"}, "primary": true}], "photos": {"count": 0, "groups": []}}, "referralId": "e-0-4f5de00fe4b035e315b706e8-99"}]