[{"reasons": {"count": 0, "items": [{"summary": "This spot is popular", "type": "general", "reasonName": "globalInteractionReason"}]}, "venue": {"id": "518ba54c498ecb446f734915", "name": "Eisspatz", "location": {"address": "Sch\u00f6nstra\u00dfe 1", "lat": 52.552984063590934, "lng": 13.44922305192657, "labeledLatLngs": [{"label": "display", "lat": 52.552984063590934, "lng": 13.44922305192657}], "distance": 175, "postalCode": "13086", "cc": "DE", "city": "Berlin", "state": "Berlin", "country": "Deutschland", "formattedAddress": ["Sch\u00f6nstra\u00dfe 1", "13086 Berlin", "Deutschland"]}, "categories": [{"id": "4bf58dd8d48988d1c9941735", "name": "Ice Cream Shop", "pluralName": "Ice Cream Shops", "shortName": "Ice Cream", "icon": {"prefix": "https://ss3.4sqi.net/img/categories_v2/food/icecream_", "suffix": ".png"}, "primary": true}], "photos": {"count": 0, "groups": []}}, "referralId": "e-0-518ba54c498ecb446f734915-0"}, {"reasons": {"count": 0, "items": [{"summary": "This spot is popular", "type": "general", "reasonName": "globalInteractionReason"}]}, "venue": {"id": "59f5f578acb00b43e62c787d", "name": "Babuschka in der alten Fischr\u00e4ucherei", "location": {"address": "Behaimstra\u00dfe 32", "lat": 52.550547, "lng": 13.447008, "labeledLatLngs": [{"label": "display", "lat": 52.550547, "lng": 13.447008}], "distance": 410, "postalCode": "13086", "cc": "DE", "neighborhood": "Wei\u00dfensee", "city": "Berlin", "state": "Berlin", "country": "Deutschland", "formattedAddress": ["Behaimstra\u00dfe 32", "13086 Berlin", "Deutschland"]}, "categories": [{"id": "4bf58dd8d48988d16d941735", "name": "Caf\u00e9", "pluralName": "Caf\u00e9s", "shortName": "Caf\u00e9", "icon": {"prefix": "https://ss3.4sqi.net/img/categories_v2/food/cafe_", "suffix": ".png"}, "primary": true}], "photos": {"count": 0, "groups": []}}, "referralId": "e-0-59f5f578acb00b43e62c787d-1"}, {"reasons": {"count": 0, "items": [{"summary": "This spot is popular", "type": "general", "reasonName": "globalInteractionReason"}]}, "venue": {"id": "551fc0d9498eb68460528394", "name": "Fellini PIZZA", "location": {"address": "Langhansstra\u00dfe 151", "lat": 52.548801251679656, "lng": 13.450058154372302, "labeledLatLngs": [{"label": "display", "lat": 52.548801251679656, "lng": 13.450058154372302}], "distance": 460, "postalCode": "13086", "cc": "DE", "city": "Berlin", "state": "Berlin", "country": "Deutschland", "formattedAddress": ["Langhansstra\u00dfe 151", "13086 Berlin", "Deutschland"]}, "categories": [{"id": "4bf58dd8d48988d1ca941735", "name": "Pizza Place", "pluralName": "Pizza Places", "shortName": "Pizza", "icon": {"prefix": "https://ss3.4sqi.net/img/categories_v2/food/pizza_", "suffix": ".png"}, "primary": true}], "photos": {"count": 0, "groups": []}}, "referralId": "e-0-551fc0d9498eb68460528394-2"}, {"reasons": {"count": 0, "items": [{"summary": "This spot is popular", "type": "general", "reasonName": "globalInteractionReason"}]}, "venue": {"id": "532c91e3498e7a400d253aad", "name": "Parkstern", "location": {"address": "Parkstrasse", "lat": 52.554768822220424, "lng": 13.45832524762902, "labeledLatLngs": [{"label": "display", "lat": 52.554768822220424, "lng": 13.45832524762902}], "distance": 492, "postalCode": "13086", "cc": "DE", "city": "Berlin", "state": "Berlin", "country": "Deutschland", "formattedAddress": ["Parkstrasse", "13086 Berlin", "Deutschland"]}, "categories": [{"id": "4bf58dd8d48988d10d941735", "name": "German Restaurant", "pluralName": "German Restaurants", "shortName": "German", "icon": {"prefix": "https://ss3.4sqi.net/img/categories_v2/food/german_", "suffix": ".png"}, "primary": true}], "photos": {"count": 0, "groups": []}}, "referralId": "e-0-532c91e3498e7a400d253aad-3"}, {"reasons": {"count": 0, "items": [{"summary": "This spot is popular", "type": "general", "reasonName": "globalInteractionReason"}]}, "venue": {"id": "4bf9718f8d30d13abe370218", "name": "Park am Wei\u00dfen See", "location": {"address": "Amalienstr.", "crossStreet": "Albertinenstr.", "lat": 52.55283512189626, "lng": 13.461959213912118, "labeledLatLngs": [{"label": "display", "lat": 52.55283512189626, "lng": 13.461959213912118}], "distance": 687, "postalCode": "13086", "cc": "DE", "city": "Berlin", "state": "Berlin", "country": "Deutschland", "formattedAddress": ["Amalienstr. (Albertinenstr.)", "13086 Berlin", "Deutschland"]}, "categories": [{"id": "4bf58dd8d48988d163941735", "name": "Park", "pluralName": "Parks", "shortName": "Park", "icon": {"prefix": "https://ss3.4sqi.net/img/categories_v2/parks_outdoors/park_", "suffix": ".png"}, "primary": true}], "photos": {"count": 0, "groups": []}}, "referralId": "e-0-4bf9718f8d30d13abe370218-4"}, {"reasons": {"count": 0, "items": [{"summary": "This spot is popular", "type": "general", "reasonName": "globalInteractionReason"}]}, "venue": {"id": "4adcda7df964a520a14721e3", "name": "J\u00fcdischer Friedhof Wei\u00dfensee", "location": {"address": "Herbert-Baum-Str. 45", "crossStreet": "Makus-Reich-Platz", "lat": 52.545728213110934, "lng": 13.45775272998751, "labeledLatLngs": [{"label": "display", "lat": 52.545728213110934, "lng": 13.45775272998751}], "distance": 884, "postalCode": "13088", "cc": "DE", "city": "Berlin", "state": "Berlin", "country": "Deutschland", "formattedAddress": ["Herbert-Baum-Str. 45 (Makus-Reich-Platz)", "13088 Berlin", "Deutschland"]}, "categories": [{"id": "4bf58dd8d48988d15c941735", "name": "Cemetery", "pluralName": "Cemeteries", "shortName": "Cemetery", "icon": {"prefix": "https://ss3.4sqi.net/img/categories_v2/parks_outdoors/cemetery_", "suffix": ".png"}, "primary": true}], "photos": {"count": 0, "groups": []}}, "referralId": "e-0-4adcda7df964a520a14721e3-5"}, {"reasons": {"count": 0, "items": [{"summary": "This spot is popular", "type": "general", "reasonName": "globalInteractionReason"}]}, "venue": {"id": "4adcda8cf964a520094a21e3", "name": "Kino Toni & Tonino", "location": {"address": "Antonplatz 1", "lat": 52.54875144271796, "lng": 13.450917950742943, "labeledLatLngs": [{"label": "display", "lat": 52.54875144271796, "lng": 13.450917950742943}], "distance": 454, "postalCode": "13086", "cc": "DE", "city": "Berlin", "state": "Berlin", "country": "Deutschland", "formattedAddress": ["Antonplatz 1", "13086 Berlin", "Deutschland"]}, "categories": [{"id": "4bf58dd8d48988d17e941735", "name": "Indie Movie Theater", "pluralName": "Indie Movie Theaters", "shortName": "Indie Movies", "icon": {"prefix": "https://ss3.4sqi.net/img/categories_v2/arts_entertainment/movietheater_", "suffix": ".png"}, "primary": true}], "photos": {"count": 0, "groups": []}}, "referralId": "e-0-4adcda8cf964a520094a21e3-6"}, {"reasons": {"count": 0, "items": [{"summary": "This spot is popular", "type": "general", "reasonName": "globalInteractionReason"}]}, "venue": {"id": "5a99aa57a2a6ce7533efacff", "name": "Moon Asiate", "location": {"address": "Langhansstr 153", "lat": 52.548613, "lng": 13.450423, "labeledLatLngs": [{"label": "display", "lat": 52.548613, "lng": 13.450423}], "distance": 475, "cc": "DE", "city": "Berlin", "state": "Berlin", "country": "Deutschland", "formattedAddress": ["Langhansstr 153", "Berlin", "Deutschland"]}, "categories": [{"id": "4bf58dd8d48988d142941735", "name": "Asian Restaurant", "pluralName": "Asian Restaurants", "shortName": "Asian", "icon": {"prefix": "https://ss3.4sqi.net/img/categories_v2/food/asian_", "suffix": ".png"}, "primary": true}], "photos": {"count": 0, "groups": []}}, "referralId": "e-0-5a99aa57a2a6ce7533efacff-7"}, {"reasons": {"count": 0, "items": [{"summary": "This spot is popular", "type": "general", "reasonName": "globalInteractionReason"}]}, "venue": {"id": "4b8d1c4df964a52086e832e3", "name": "Langhans Grill", "location": {"address": "Langhanstra\u00dfe", "lat": 52.551202618718, "lng": 13.44223654648286, "labeledLatLngs": [{"label": "display", "lat": 52.551202618718, "lng": 13.44223654648286}], "distance": 671, "cc": "DE", "city": "Berlin", "state": "Berlin", "country": "Deutschland", "formattedAddress": ["Langhanstra\u00dfe", "Berlin", "Deutschland"]}, "categories": [{"id": "4bf58dd8d48988d16e941735", "name": "Fast Food Restaurant", "pluralName": "Fast Food Restaurants", "shortName": "Fast Food", "icon": {"prefix": "https://ss3.4sqi.net/img/categories_v2/food/fastfood_", "suffix": ".png"}, "primary": true}], "photos": {"count": 0, "groups": []}}, "referralId": "e-0-4b8d1c4df964a52086e832e3-8"}, {"reasons": {"count": 0, "items": [{"summary": "This spot is popular", "type": "general", "reasonName": "globalInteractionReason"}]}, "venue": {"id": "50bc7474e4b0efcb4c53756b", "name": "Kopierladen", "location": {"address": "Berliner Allee 16", "crossStreet": "Rossinistr. 1", "lat": 52.54754, "lng": 13.449779, "labeledLatLngs": [{"label": "display", "lat": 52.54754, "lng": 13.449779}], "distance": 601, "postalCode": "13086", "cc": "DE", "city": "Berlin", "state": "Berlin", "country": "Deutschland", "formattedAddress": ["Berliner Allee 16 (Rossinistr. 1)", "13086 Berlin", "Deutschland"]}, "categories": [{"id": "4bf58dd8d48988d121951735", "name": "Paper / Office Supplies Store", "pluralName": "Paper / Office Supplies Stores", "shortName": "Office Supplies", "icon": {"prefix": "https://ss3.4sqi.net/img/categories_v2/shops/papergoods_", "suffix": ".png"}, "primary": true}], "photos": {"count": 0, "groups": []}}, "referralId": "e-0-50bc7474e4b0efcb4c53756b-9"}, {"reasons": {"count": 0, "items": [{"summary": "This spot is popular", "type": "general", "reasonName": "globalInteractionReason"}]}, "venue": {"id": "4b2ccafcf964a52050c924e3", "name": "happa happa", "location": {"address": "Smetanastr. 17", "lat": 52.54836524285714, "lng": 13.459294612499999, "labeledLatLngs": [{"label": "display", "lat": 52.54836524285714, "lng": 13.459294612499999}], "distance": 707, "postalCode": "13088", "cc": "DE", "city": "Berlin", "state": "Berlin", "country": "Deutschland", "formattedAddress": ["Smetanastr. 17", "13088 Berlin", "Deutschland"]}, "categories": [{"id": "4bf58dd8d48988d147941735", "name": "Diner", "pluralName": "Diners", "shortName": "Diner", "icon": {"prefix": "https://ss3.4sqi.net/img/categories_v2/food/diner_", "suffix": ".png"}, "primary": true}], "photos": {"count": 0, "groups": []}}, "referralId": "e-0-4b2ccafcf964a52050c924e3-10"}, {"reasons": {"count": 0, "items": [{"summary": "This spot is popular", "type": "general", "reasonName": "globalInteractionReason"}]}, "venue": {"id": "5381d754498e59fb6234116f", "name": "Le Food", "location": {"address": "Langhansstra\u00dfe 15", "lat": 52.549486027470586, "lng": 13.448034167676667, "labeledLatLngs": [{"label": "display", "lat": 52.549486027470586, "lng": 13.448034167676667}], "distance": 448, "postalCode": "13086", "cc": "DE", "city": "Berlin", "state": "Berlin", "country": "Deutschland", "formattedAddress": ["Langhansstra\u00dfe 15", "13086 Berlin", "Deutschland"]}, "categories": [{"id": "4bf58dd8d48988d142941735", "name": "Asian Restaurant", "pluralName": "Asian Restaurants", "shortName": "Asian", "icon": {"prefix": "https://ss3.4sqi.net/img/categories_v2/food/asian_", "suffix": ".png"}, "primary": true}], "photos": {"count": 0, "groups": []}}, "referralId": "e-0-5381d754498e59fb6234116f-11"}, {"reasons": {"count": 0, "items": [{"summary": "This spot is popular", "type": "general", "reasonName": "globalInteractionReason"}]}, "venue": {"id": "4adcda71f964a5200d4521e3", "name": "Living Hotel Wei\u00dfensee", "location": {"address": "Parkstr. 87", "lat": 52.554305651638245, "lng": 13.457305937972706, "labeledLatLngs": [{"label": "display", "lat": 52.554305651638245, "lng": 13.457305937972706}], "distance": 408, "postalCode": "13086", "cc": "DE", "city": "Berlin", "state": "Berlin", "country": "Deutschland", "formattedAddress": ["Parkstr. 87", "13086 Berlin", "Deutschland"]}, "categories": [{"id": "4bf58dd8d48988d1fa931735", "name": "Hotel", "pluralName": "Hotels", "shortName": "Hotel", "icon": {"prefix": "https://ss3.4sqi.net/img/categories_v2/travel/hotel_", "suffix": ".png"}, "primary": true}], "photos": {"count": 0, "groups": []}, "venuePage": {"id": "553296833"}}, "referralId": "e-0-4adcda71f964a5200d4521e3-12"}, {"reasons": {"count": 0, "items": [{"summary": "This spot is popular", "type": "general", "reasonName": "globalInteractionReason"}]}, "venue": {"id": "52ec27f3498e908a07280044", "name": "Sexauer Galerie", "location": {"address": "Streustr. 90", "lat": 52.550730519174344, "lng": 13.438995754068007, "labeledLatLngs": [{"label": "display", "lat": 52.550730519174344, "lng": 13.438995754068007}], "distance": 897, "postalCode": "13086", "cc": "DE", "city": "Berlin", "state": "Berlin", "country": "Deutschland", "formattedAddress": ["Streustr. 90", "13086 Berlin", "Deutschland"]}, "categories": [{"id": "4bf58dd8d48988d1e2931735", "name": "Art Gallery", "pluralName": "Art Galleries", "shortName": "Art Gallery", "icon": {"prefix": "https://ss3.4sqi.net/img/categories_v2/arts_entertainment/artgallery_", "suffix": ".png"}, "primary": true}], "photos": {"count": 0, "groups": []}}, "referralId": "e-0-52ec27f3498e908a07280044-13"}, {"reasons": {"count": 0, "items": [{"summary": "This spot is popular", "type": "general", "reasonName": "globalInteractionReason"}]}, "venue": {"id": "4b59bc70f964a520529528e3", "name": "Strandbad Wei\u00dfensee", "location": {"address": "Uferpromenade am Wei\u00dfen See", "lat": 52.55386906975814, "lng": 13.465636422198884, "labeledLatLngs": [{"label": "display", "lat": 52.55386906975814, "lng": 13.465636422198884}], "distance": 943, "postalCode": "13088", "cc": "DE", "city": "Berlin", "state": "Berlin", "country": "Deutschland", "formattedAddress": ["Uferpromenade am Wei\u00dfen See", "13088 Berlin", "Deutschland"]}, "categories": [{"id": "4bf58dd8d48988d1e2941735", "name": "Beach", "pluralName": "Beaches", "shortName": "Beach", "icon": {"prefix": "https://ss3.4sqi.net/img/categories_v2/parks_outdoors/beach_", "suffix": ".png"}, "primary": true}], "photos": {"count": 0, "groups": []}}, "referralId": "e-0-4b59bc70f964a520529528e3-14"}, {"reasons": {"count": 0, "items": [{"summary": "This spot is popular", "type": "general", "reasonName": "globalInteractionReason"}]}, "venue": {"id": "4faf2f48e4b0e047b24ae0c7", "name": "Mirbachplatz", "location": {"address": "Mirbachplatz", "lat": 52.5529689368457, "lng": 13.448931780313616, "labeledLatLngs": [{"label": "display", "lat": 52.5529689368457, "lng": 13.448931780313616}], "distance": 195, "cc": "DE", "city": "Berlin", "state": "Berlin", "country": "Deutschland", "formattedAddress": ["Mirbachplatz", "Berlin", "Deutschland"]}, "categories": [{"id": "4bf58dd8d48988d164941735", "name": "Plaza", "pluralName": "Plazas", "shortName": "Plaza", "icon": {"prefix": "https://ss3.4sqi.net/img/categories_v2/parks_outdoors/plaza_", "suffix": ".png"}, "primary": true}], "photos": {"count": 0, "groups": []}}, "referralId": "e-0-4faf2f48e4b0e047b24ae0c7-15"}, {"reasons": {"count": 0, "items": [{"summary": "This spot is popular", "type": "general", "reasonName": "globalInteractionReason"}]}, "venue": {"id": "5197b717498e8ad73b67b6fd", "name": "Bambus am See", "location": {"lat": 52.55067825317383, "lng": 13.461772918701172, "labeledLatLngs": [{"label": "display", "lat": 52.55067825317383, "lng": 13.461772918701172}], "distance": 714, "cc": "DE", "city": "Berlin", "state": "Berlin", "country": "Deutschland", "formattedAddress": ["Berlin", "Deutschland"]}, "categories": [{"id": "4bf58dd8d48988d14a941735", "name": "Vietnamese Restaurant", "pluralName": "Vietnamese Restaurants", "shortName": "Vietnamese", "icon": {"prefix": "https://ss3.4sqi.net/img/categories_v2/food/vietnamese_", "suffix": ".png"}, "primary": true}], "photos": {"count": 0, "groups": []}}, "referralId": "e-0-5197b717498e8ad73b67b6fd-16"}, {"reasons": {"count": 0, "items": [{"summary": "This spot is popular", "type": "general", "reasonName": "globalInteractionReason"}]}, "venue": {"id": "4b6577f1f964a52095f12ae3", "name": "Kieser Training", "location": {"address": "Ostseestr. 107", "lat": 52.5468062857738, "lng": 13.442567447223489, "labeledLatLngs": [{"label": "display", "lat": 52.5468062857738, "lng": 13.442567447223489}], "distance": 914, "postalCode": "10409", "cc": "DE", "city": "Berlin", "state": "Berlin", "country": "Deutschland", "formattedAddress": ["Ostseestr. 107", "10409 Berlin", "Deutschland"]}, "categories": [{"id": "4bf58dd8d48988d175941735", "name": "Gym / Fitness Center", "pluralName": "Gyms or Fitness Centers", "shortName": "Gym / Fitness", "icon": {"prefix": "https://ss3.4sqi.net/img/categories_v2/building/gym_", "suffix": ".png"}, "primary": true}], "photos": {"count": 0, "groups": []}, "venuePage": {"id": "557861071"}}, "referralId": "e-0-4b6577f1f964a52095f12ae3-17"}, {"reasons": {"count": 0, "items": [{"summary": "This spot is popular", "type": "general", "reasonName": "globalInteractionReason"}]}, "venue": {"id": "53725af9498eebfa60ae1986", "name": "PastaLaden", "location": {"address": "Langhansstr. 149", "crossStreet": "Antonplatz", "lat": 52.548878, "lng": 13.449719, "labeledLatLngs": [{"label": "display", "lat": 52.548878, "lng": 13.449719}], "distance": 458, "cc": "DE", "city": "Berlin", "state": "Berlin", "country": "Deutschland", "formattedAddress": ["Langhansstr. 149 (Antonplatz)", "Berlin", "Deutschland"]}, "categories": [{"id": "4bf58dd8d48988d110941735", "name": "Italian Restaurant", "pluralName": "Italian Restaurants", "shortName": "Italian", "icon": {"prefix": "https://ss3.4sqi.net/img/categories_v2/food/italian_", "suffix": ".png"}, "primary": true}], "photos": {"count": 0, "groups": []}}, "referralId": "e-0-53725af9498eebfa60ae1986-18"}, {"reasons": {"count": 0, "items": [{"summary": "This spot is popular", "type": "general", "reasonName": "globalInteractionReason"}]}, "venue": {"id": "522b7a8411d2ee21bf1d5fc5", "name": "Biorestaurant Mandelbaum", "location": {"address": "Smetanastr. 9", "lat": 52.54899847787375, "lng": 13.459146806098895, "labeledLatLngs": [{"label": "display", "lat": 52.54899847787375, "lng": 13.459146806098895}], "distance": 652, "postalCode": "13088", "cc": "DE", "city": "Berlin", "state": "Berlin", "country": "Deutschland", "formattedAddress": ["Smetanastr. 9", "13088 Berlin", "Deutschland"]}, "categories": [{"id": "4bf58dd8d48988d10d941735", "name": "German Restaurant", "pluralName": "German Restaurants", "shortName": "German", "icon": {"prefix": "https://ss3.4sqi.net/img/categories_v2/food/german_", "suffix": ".png"}, "primary": true}], "photos": {"count": 0, "groups": []}}, "referralId": "e-0-522b7a8411d2ee21bf1d5fc5-19"}, {"reasons": {"count": 0, "items": [{"summary": "This spot is popular", "type": "general", "reasonName": "globalInteractionReason"}]}, "venue": {"id": "4d586313bdac60fc6ef68fd0", "name": "Tandoori", "location": {"address": "Bizetstr. 121", "lat": 52.54971545378161, "lng": 13.462751527896911, "labeledLatLngs": [{"label": "display", "lat": 52.54971545378161, "lng": 13.462751527896911}], "distance": 816, "postalCode": "13088", "cc": "DE", "neighborhood": "Wei\u00dfensee", "city": "Berlin", "state": "Berlin", "country": "Deutschland", "formattedAddress": ["Bizetstr. 121", "13088 Berlin", "Deutschland"]}, "categories": [{"id": "4bf58dd8d48988d10f941735", "name": "Indian Restaurant", "pluralName": "Indian Restaurants", "shortName": "Indian", "icon": {"prefix": "https://ss3.4sqi.net/img/categories_v2/food/indian_", "suffix": ".png"}, "primary": true}], "photos": {"count": 0, "groups": []}}, "referralId": "e-0-4d586313bdac60fc6ef68fd0-20"}, {"reasons": {"count": 0, "items": [{"summary": "This spot is popular", "type": "general", "reasonName": "globalInteractionReason"}]}, "venue": {"id": "4b4858fdf964a520ef4b26e3", "name": "Kaiser's", "location": {"address": "Bizetstr. 25 - 27", "lat": 52.54793067764277, "lng": 13.451195883055707, "labeledLatLngs": [{"label": "display", "lat": 52.54793067764277, "lng": 13.451195883055707}], "distance": 543, "postalCode": "13088", "cc": "DE", "city": "Berlin", "state": "Berlin", "country": "Deutschland", "formattedAddress": ["Bizetstr. 25 - 27", "13088 Berlin", "Deutschland"]}, "categories": [{"id": "52f2ab2ebcbc57f1066b8b46", "name": "Supermarket", "pluralName": "Supermarkets", "shortName": "Supermarket", "icon": {"prefix": "https://ss3.4sqi.net/img/categories_v2/shops/food_grocery_", "suffix": ".png"}, "primary": true}], "photos": {"count": 0, "groups": []}}, "referralId": "e-0-4b4858fdf964a520ef4b26e3-21"}, {"reasons": {"count": 0, "items": [{"summary": "This spot is popular", "type": "general", "reasonName": "globalInteractionReason"}]}, "venue": {"id": "563737eb498e6c1e196be727", "name": "BIO COMPANY", "location": {"address": "Berliner Allee 24-26", "lat": 52.547984183515396, "lng": 13.449108388844767, "labeledLatLngs": [{"label": "display", "lat": 52.547984183515396, "lng": 13.449108388844767}], "distance": 566, "postalCode": "13088", "cc": "DE", "city": "Berlin", "state": "Berlin", "country": "Deutschland", "formattedAddress": ["Berliner Allee 24-26", "13088 Berlin", "Deutschland"]}, "categories": [{"id": "52f2ab2ebcbc57f1066b8b45", "name": "Organic Grocery", "pluralName": "Organic Groceries", "shortName": "Organic Grocery", "icon": {"prefix": "https://ss3.4sqi.net/img/categories_v2/shops/food_grocery_", "suffix": ".png"}, "primary": true}], "photos": {"count": 0, "groups": []}}, "referralId": "e-0-563737eb498e6c1e196be727-22"}, {"reasons": {"count": 0, "items": [{"summary": "This spot is popular", "type": "general", "reasonName": "globalInteractionReason"}]}, "venue": {"id": "5082d373e4b0be59d5ec39a8", "name": "La Paz", "location": {"address": "Mahlerstr. 12", "lat": 52.54764074205351, "lng": 13.45320760678995, "labeledLatLngs": [{"label": "display", "lat": 52.54764074205351, "lng": 13.45320760678995}], "distance": 582, "postalCode": "13088", "cc": "DE", "city": "Wei\u00dfensee", "state": "Berlin", "country": "Deutschland", "formattedAddress": ["Mahlerstr. 12", "13088 Wei\u00dfensee", "Deutschland"]}, "categories": [{"id": "4bf58dd8d48988d1c1941735", "name": "Mexican Restaurant", "pluralName": "Mexican Restaurants", "shortName": "Mexican", "icon": {"prefix": "https://ss3.4sqi.net/img/categories_v2/food/mexican_", "suffix": ".png"}, "primary": true}], "photos": {"count": 0, "groups": []}}, "referralId": "e-0-5082d373e4b0be59d5ec39a8-23"}, {"reasons": {"count": 0, "items": [{"summary": "This spot is popular", "type": "general", "reasonName": "globalInteractionReason"}]}, "venue": {"id": "4ead985c8b8181aef8297222", "name": "La Familiga", "location": {"lat": 52.55031598481985, "lng": 13.458321291039619, "labeledLatLngs": [{"label": "display", "lat": 52.55031598481985, "lng": 13.458321291039619}], "distance": 520, "cc": "DE", "city": "Berlin", "state": "Berlin", "country": "Deutschland", "formattedAddress": ["Berlin", "Deutschland"]}, "categories": [{"id": "4bf58dd8d48988d110941735", "name": "Italian Restaurant", "pluralName": "Italian Restaurants", "shortName": "Italian", "icon": {"prefix": "https://ss3.4sqi.net/img/categories_v2/food/italian_", "suffix": ".png"}, "primary": true}], "photos": {"count": 0, "groups": []}}, "referralId": "e-0-4ead985c8b8181aef8297222-24"}, {"reasons": {"count": 0, "items": [{"summary": "This spot is popular", "type": "general", "reasonName": "globalInteractionReason"}]}, "venue": {"id": "52a063d411d2c290f0ebbf82", "name": "Friedas Gl\u00fcck", "location": {"address": "Lindenallee 55", "crossStreet": "Ecke Bizetstra\u00dfe", "lat": 52.54960973767014, "lng": 13.462723457469036, "labeledLatLngs": [{"label": "display", "lat": 52.54960973767014, "lng": 13.462723457469036}], "distance": 820, "postalCode": "13088", "cc": "DE", "city": "Berlin", "state": "Berlin", "country": "Deutschland", "formattedAddress": ["Lindenallee 55 (Ecke Bizetstra\u00dfe)", "13088 Berlin", "Deutschland"]}, "categories": [{"id": "52e81612bcbc57f1066b79f1", "name": "Bistro", "pluralName": "Bistros", "shortName": "Bistro", "icon": {"prefix": "https://ss3.4sqi.net/img/categories_v2/food/default_", "suffix": ".png"}, "primary": true}], "photos": {"count": 0, "groups": []}}, "referralId": "e-0-52a063d411d2c290f0ebbf82-25"}, {"reasons": {"count": 0, "items": [{"summary": "This spot is popular", "type": "general", "reasonName": "globalInteractionReason"}]}, "venue": {"id": "559fa464498ee47a295b1a56", "name": "Schiller Burger", "location": {"address": "Berliner Allee 95", "lat": 52.54979284508504, "lng": 13.45784083195965, "labeledLatLngs": [{"label": "display", "lat": 52.54979284508504, "lng": 13.45784083195965}], "distance": 528, "postalCode": "13088", "cc": "DE", "city": "Berlin", "state": "Berlin", "country": "Deutschland", "formattedAddress": ["Berliner Allee 95", "13088 Berlin", "Deutschland"]}, "categories": [{"id": "4bf58dd8d48988d16c941735", "name": "Burger Joint", "pluralName": "Burger Joints", "shortName": "Burgers", "icon": {"prefix": "https://ss3.4sqi.net/img/categories_v2/food/burger_", "suffix": ".png"}, "primary": true}], "photos": {"count": 0, "groups": []}}, "referralId": "e-0-559fa464498ee47a295b1a56-26"}, {"reasons": {"count": 0, "items": [{"summary": "This spot is popular", "type": "general", "reasonName": "globalInteractionReason"}]}, "venue": {"id": "4b5da69cf964a520206529e3", "name": "Rossmann", "location": {"address": "Berliner Allee 44", "lat": 52.54853628158097, "lng": 13.451918669449892, "labeledLatLngs": [{"label": "display", "lat": 52.54853628158097, "lng": 13.451918669449892}], "distance": 474, "postalCode": "13088", "cc": "DE", "city": "Berlin", "state": "Berlin", "country": "Deutschland", "formattedAddress": ["Berliner Allee 44", "13088 Berlin", "Deutschland"]}, "categories": [{"id": "5745c2e4498e11e7bccabdbd", "name": "Drugstore", "pluralName": "Drugstores", "shortName": "Drugstore", "icon": {"prefix": "https://ss3.4sqi.net/img/categories_v2/shops/pharmacy_", "suffix": ".png"}, "primary": true}], "photos": {"count": 0, "groups": []}}, "referralId": "e-0-4b5da69cf964a520206529e3-27"}, {"reasons": {"count": 0, "items": [{"summary": "This spot is popular", "type": "general", "reasonName": "globalInteractionReason"}]}, "venue": {"id": "502fd509e4b047ef9aa61980", "name": "H Antonplatz", "location": {"address": "Berliner Allee", "crossStreet": "Antonplatz", "lat": 52.54853461005465, "lng": 13.451872976959585, "labeledLatLngs": [{"label": "display", "lat": 52.54853461005465, "lng": 13.451872976959585}], "distance": 474, "postalCode": "13086", "cc": "DE", "city": "Berlin", "state": "Berlin", "country": "Deutschland", "formattedAddress": ["Berliner Allee (Antonplatz)", "13086 Berlin", "Deutschland"]}, "categories": [{"id": "52f2ab2ebcbc57f1066b8b51", "name": "Tram Station", "pluralName": "Tram Stations", "shortName": "Tram", "icon": {"prefix": "https://ss3.4sqi.net/img/categories_v2/travel/trainstation_", "suffix": ".png"}, "primary": true}], "photos": {"count": 0, "groups": []}}, "referralId": "e-0-502fd509e4b047ef9aa61980-28"}, {"reasons": {"count": 0, "items": [{"summary": "This spot is popular", "type": "general", "reasonName": "globalInteractionReason"}]}, "venue": {"id": "4cf8cefd5698a093724407fc", "name": "Restaurant Platon", "location": {"lat": 52.553065945851515, "lng": 13.44869191812933, "labeledLatLngs": [{"label": "display", "lat": 52.553065945851515, "lng": 13.44869191812933}], "distance": 212, "cc": "DE", "city": "Berlin", "state": "Berlin", "country": "Deutschland", "formattedAddress": ["Berlin", "Deutschland"]}, "categories": [{"id": "4bf58dd8d48988d10e941735", "name": "Greek Restaurant", "pluralName": "Greek Restaurants", "shortName": "Greek", "icon": {"prefix": "https://ss3.4sqi.net/img/categories_v2/food/greek_", "suffix": ".png"}, "primary": true}], "photos": {"count": 0, "groups": []}}, "referralId": "e-0-4cf8cefd5698a093724407fc-29"}, {"reasons": {"count": 0, "items": [{"summary": "This spot is popular", "type": "general", "reasonName": "globalInteractionReason"}]}, "venue": {"id": "503fbd0a7e2752ec471b5498", "name": "Rossmann", "location": {"address": "Berliner Allee 79", "lat": 52.5488122477043, "lng": 13.4539425101346, "labeledLatLngs": [{"label": "display", "lat": 52.5488122477043, "lng": 13.4539425101346}], "distance": 467, "postalCode": "13088", "cc": "DE", "city": "Berlin", "state": "Berlin", "country": "Deutschland", "formattedAddress": ["Berliner Allee 79", "13088 Berlin", "Deutschland"]}, "categories": [{"id": "5745c2e4498e11e7bccabdbd", "name": "Drugstore", "pluralName": "Drugstores", "shortName": "Drugstore", "icon": {"prefix": "https://ss3.4sqi.net/img/categories_v2/shops/pharmacy_", "suffix": ".png"}, "primary": true}], "photos": {"count": 0, "groups": []}}, "referralId": "e-0-503fbd0a7e2752ec471b5498-30"}, {"reasons": {"count": 0, "items": [{"summary": "This spot is popular", "type": "general", "reasonName": "globalInteractionReason"}]}, "venue": {"id": "515342ede4b0f25d4c91c995", "name": "EDEKA Ostseestrasse", "location": {"address": "Ostseestra\u00dfe 107-109", "lat": 52.54673284, "lng": 13.44283286, "labeledLatLngs": [{"label": "display", "lat": 52.54673284, "lng": 13.44283286}], "distance": 908, "postalCode": "10409", "cc": "DE", "neighborhood": "Wei\u00dfensee", "city": "Berlin", "state": "Berlin", "country": "Deutschland", "formattedAddress": ["Ostseestra\u00dfe 107-109", "10409 Berlin", "Deutschland"]}, "categories": [{"id": "52f2ab2ebcbc57f1066b8b46", "name": "Supermarket", "pluralName": "Supermarkets", "shortName": "Supermarket", "icon": {"prefix": "https://ss3.4sqi.net/img/categories_v2/shops/food_grocery_", "suffix": ".png"}, "primary": true}], "photos": {"count": 0, "groups": []}, "venuePage": {"id": "550939797"}}, "referralId": "e-0-515342ede4b0f25d4c91c995-31"}, {"reasons": {"count": 0, "items": [{"summary": "This spot is popular", "type": "general", "reasonName": "globalInteractionReason"}]}, "venue": {"id": "4b5862d1f964a5206c5528e3", "name": "BackWerk", "location": {"address": "Berliner Allee 50", "lat": 52.548619229727755, "lng": 13.452792010989697, "labeledLatLngs": [{"label": "display", "lat": 52.548619229727755, "lng": 13.452792010989697}], "distance": 470, "postalCode": "13088", "cc": "DE", "city": "Berlin", "state": "Berlin", "country": "Deutschland", "formattedAddress": ["Berliner Allee 50", "13088 Berlin", "Deutschland"]}, "categories": [{"id": "4bf58dd8d48988d16a941735", "name": "Bakery", "pluralName": "Bakeries", "shortName": "Bakery", "icon": {"prefix": "https://ss3.4sqi.net/img/categories_v2/food/bakery_", "suffix": ".png"}, "primary": true}], "photos": {"count": 0, "groups": []}, "venuePage": {"id": "559108367"}}, "referralId": "e-0-4b5862d1f964a5206c5528e3-32"}, {"reasons": {"count": 0, "items": [{"summary": "This spot is popular", "type": "general", "reasonName": "globalInteractionReason"}]}, "venue": {"id": "4d4d2d8e72eba1436a084012", "name": "NETTO", "location": {"address": "Pistoriusstr. 13", "lat": 52.5514622, "lng": 13.4554293, "labeledLatLngs": [{"label": "display", "lat": 52.5514622, "lng": 13.4554293}], "distance": 287, "postalCode": "13086", "cc": "DE", "city": "Berlin", "state": "Berlin", "country": "Deutschland", "formattedAddress": ["Pistoriusstr. 13", "13086 Berlin", "Deutschland"]}, "categories": [{"id": "52f2ab2ebcbc57f1066b8b46", "name": "Supermarket", "pluralName": "Supermarkets", "shortName": "Supermarket", "icon": {"prefix": "https://ss3.4sqi.net/img/categories_v2/shops/food_grocery_", "suffix": ".png"}, "primary": true}], "photos": {"count": 0, "groups": []}, "venuePage": {"id": "449530602"}}, "referralId": "e-0-4d4d2d8e72eba1436a084012-33"}, {"reasons": {"count": 0, "items": [{"summary": "This spot is popular", "type": "general", "reasonName": "globalInteractionReason"}]}, "venue": {"id": "4b5c3e26f964a520552829e3", "name": "OBI", "location": {"address": "Ostseestr. 107 - 111", "lat": 52.546609545148414, "lng": 13.443482361572023, "labeledLatLngs": [{"label": "display", "lat": 52.546609545148414, "lng": 13.443482361572023}], "distance": 890, "postalCode": "10409", "cc": "DE", "city": "Berlin-Wei\u00dfensee", "state": "Berlin", "country": "Deutschland", "formattedAddress": ["Ostseestr. 107 - 111", "10409 Berlin-Wei\u00dfensee", "Deutschland"]}, "categories": [{"id": "4bf58dd8d48988d112951735", "name": "Hardware Store", "pluralName": "Hardware Stores", "shortName": "Hardware", "icon": {"prefix": "https://ss3.4sqi.net/img/categories_v2/shops/hardware_", "suffix": ".png"}, "primary": true}], "photos": {"count": 0, "groups": []}}, "referralId": "e-0-4b5c3e26f964a520552829e3-34"}, {"reasons": {"count": 0, "items": [{"summary": "This spot is popular", "type": "general", "reasonName": "globalInteractionReason"}]}, "venue": {"id": "52b54950498e483de64aff90", "name": "denn's Biomarkt", "location": {"address": "Bizetstra\u00dfe 17-19", "crossStreet": "Antonplatz", "lat": 52.54756462830358, "lng": 13.451123165813147, "labeledLatLngs": [{"label": "display", "lat": 52.54756462830358, "lng": 13.451123165813147}], "distance": 584, "postalCode": "13088", "cc": "DE", "city": "Berlin", "state": "Berlin", "country": "Deutschland", "formattedAddress": ["Bizetstra\u00dfe 17-19 (Antonplatz)", "13088 Berlin", "Deutschland"]}, "categories": [{"id": "52f2ab2ebcbc57f1066b8b45", "name": "Organic Grocery", "pluralName": "Organic Groceries", "shortName": "Organic Grocery", "icon": {"prefix": "https://ss3.4sqi.net/img/categories_v2/shops/food_grocery_", "suffix": ".png"}, "primary": true}], "photos": {"count": 0, "groups": []}}, "referralId": "e-0-52b54950498e483de64aff90-35"}, {"reasons": {"count": 0, "items": [{"summary": "This spot is popular", "type": "general", "reasonName": "globalInteractionReason"}]}, "venue": {"id": "4c4932f96f1420a13f104b55", "name": "Konnopke's Imbiss", "location": {"address": "Mahlerstrasse 3", "crossStreet": "Berliner Allee", "lat": 52.548377738811084, "lng": 13.45295533925248, "labeledLatLngs": [{"label": "display", "lat": 52.548377738811084, "lng": 13.45295533925248}], "distance": 498, "postalCode": "13088", "cc": "DE", "city": "Berlin", "state": "Berlin", "country": "Deutschland", "formattedAddress": ["Mahlerstrasse 3 (Berliner Allee)", "13088 Berlin", "Deutschland"]}, "categories": [{"id": "4bf58dd8d48988d16e941735", "name": "Fast Food Restaurant", "pluralName": "Fast Food Restaurants", "shortName": "Fast Food", "icon": {"prefix": "https://ss3.4sqi.net/img/categories_v2/food/fastfood_", "suffix": ".png"}, "primary": true}], "photos": {"count": 0, "groups": []}}, "referralId": "e-0-4c4932f96f1420a13f104b55-36"}, {"reasons": {"count": 0, "items": [{"summary": "This spot is popular", "type": "general", "reasonName": "globalInteractionReason"}]}, "venue": {"id": "4b56ea8df964a520241f28e3", "name": "EDEKA Peth", "location": {"address": "Berliner Allee 100", "crossStreet": "Smetanastra\u00dfe", "lat": 52.549886224763036, "lng": 13.458235161236797, "labeledLatLngs": [{"label": "display", "lat": 52.549886224763036, "lng": 13.458235161236797}], "distance": 542, "postalCode": "13088", "cc": "DE", "city": "Berlin", "state": "Berlin", "country": "Deutschland", "formattedAddress": ["Berliner Allee 100 (Smetanastra\u00dfe)", "13088 Berlin", "Deutschland"]}, "categories": [{"id": "52f2ab2ebcbc57f1066b8b46", "name": "Supermarket", "pluralName": "Supermarkets", "shortName": "Supermarket", "icon": {"prefix": "https://ss3.4sqi.net/img/categories_v2/shops/food_grocery_", "suffix": ".png"}, "primary": true}], "photos": {"count": 0, "groups": []}, "venuePage": {"id": "554189772"}}, "referralId": "e-0-4b56ea8df964a520241f28e3-37"}, {"reasons": {"count": 0, "items": [{"summary": "This spot is popular", "type": "general", "reasonName": "globalInteractionReason"}]}, "venue": {"id": "4b2925e4f964a520bc9924e3", "name": "Antonplatz", "location": {"address": "Antonplatz", "lat": 52.548476640946916, "lng": 13.450812525688784, "labeledLatLngs": [{"label": "display", "lat": 52.548476640946916, "lng": 13.450812525688784}], "distance": 486, "postalCode": "13086", "cc": "DE", "city": "Berlin", "state": "Berlin", "country": "Deutschland", "formattedAddress": ["Antonplatz", "13086 Berlin", "Deutschland"]}, "categories": [{"id": "4bf58dd8d48988d164941735", "name": "Plaza", "pluralName": "Plazas", "shortName": "Plaza", "icon": {"prefix": "https://ss3.4sqi.net/img/categories_v2/parks_outdoors/plaza_", "suffix": ".png"}, "primary": true}], "photos": {"count": 0, "groups": []}}, "referralId": "e-0-4b2925e4f964a520bc9924e3-38"}, {"reasons": {"count": 0, "items": [{"summary": "This spot is popular", "type": "general", "reasonName": "globalInteractionReason"}]}, "venue": {"id": "5313579b11d2285db4b13a97", "name": "Headquarter Sitzkissenfraktion", "location": {"address": "HSV Sitzkissenfraktion Ausw\u00e4rts", "lat": 52.54949497160737, "lng": 13.440095445103498, "labeledLatLngs": [{"label": "display", "lat": 52.54949497160737, "lng": 13.440095445103498}], "distance": 873, "postalCode": "13086", "cc": "DE", "state": "Berlin", "country": "Deutschland", "formattedAddress": ["HSV Sitzkissenfraktion Ausw\u00e4rts", "13086", "Deutschland"]}, "categories": [{"id": "4bf58dd8d48988d1f2941735", "name": "Sporting Goods Shop", "pluralName": "Sporting Goods Shops", "shortName": "Sporting Goods", "icon": {"prefix": "https://ss3.4sqi.net/img/categories_v2/shops/sports_outdoors_", "suffix": ".png"}, "primary": true}], "photos": {"count": 0, "groups": []}}, "referralId": "e-0-5313579b11d2285db4b13a97-39"}, {"reasons": {"count": 0, "items": [{"summary": "This spot is popular", "type": "general", "reasonName": "globalInteractionReason"}]}, "venue": {"id": "587394d17d0f6d626449dcad", "name": "EDEKA Schlender", "location": {"address": "Pistoriusstr. 112-114", "lat": 52.5533357, "lng": 13.4460359, "labeledLatLngs": [{"label": "display", "lat": 52.5533357, "lng": 13.4460359}], "distance": 394, "postalCode": "13086", "cc": "DE", "city": "Berlin", "state": "Berlin", "country": "Deutschland", "formattedAddress": ["Pistoriusstr. 112-114", "13086 Berlin", "Deutschland"]}, "categories": [{"id": "52f2ab2ebcbc57f1066b8b46", "name": "Supermarket", "pluralName": "Supermarkets", "shortName": "Supermarket", "icon": {"prefix": "https://ss3.4sqi.net/img/categories_v2/shops/food_grocery_", "suffix": ".png"}, "primary": true}], "photos": {"count": 0, "groups": []}, "venuePage": {"id": "554438947"}}, "referralId": "e-0-587394d17d0f6d626449dcad-40"}, {"reasons": {"count": 0, "items": [{"summary": "This spot is popular", "type": "general", "reasonName": "globalInteractionReason"}]}, "venue": {"id": "4b2b8a81f964a5205ab724e3", "name": "Dokan", "location": {"address": "Pistoriusstr. 4", "lat": 52.5510189238646, "lng": 13.457997276841025, "labeledLatLngs": [{"label": "display", "lat": 52.5510189238646, "lng": 13.457997276841025}], "distance": 463, "postalCode": "13086", "cc": "DE", "city": "Berlin", "state": "Berlin", "country": "Deutschland", "formattedAddress": ["Pistoriusstr. 4", "13086 Berlin", "Deutschland"]}, "categories": [{"id": "4f4528bc4b90abdf24c9de85", "name": "Athletics & Sports", "pluralName": "Athletics & Sports", "shortName": "Athletics & Sports", "icon": {"prefix": "https://ss3.4sqi.net/img/categories_v2/shops/sports_outdoors_", "suffix": ".png"}, "primary": true}], "photos": {"count": 0, "groups": []}}, "referralId": "e-0-4b2b8a81f964a5205ab724e3-41"}, {"reasons": {"count": 0, "items": [{"summary": "This spot is popular", "type": "general", "reasonName": "globalInteractionReason"}]}, "venue": {"id": "538223a9498e5da650856a16", "name": "Anton Grill", "location": {"address": "Langhansstrasse 40", "lat": 52.548484802246094, "lng": 13.451828956604004, "labeledLatLngs": [{"label": "display", "lat": 52.548484802246094, "lng": 13.451828956604004}], "distance": 480, "postalCode": "13086", "cc": "DE", "city": "Berlin", "state": "Berlin", "country": "Deutschland", "formattedAddress": ["Langhansstrasse 40", "13086 Berlin", "Deutschland"]}, "categories": [{"id": "5283c7b4e4b094cb91ec88d8", "name": "Doner Restaurant", "pluralName": "Doner Restaurants", "shortName": "Doner", "icon": {"prefix": "https://ss3.4sqi.net/img/categories_v2/food/turkish_", "suffix": ".png"}, "primary": true}], "photos": {"count": 0, "groups": []}}, "referralId": "e-0-538223a9498e5da650856a16-42"}, {"reasons": {"count": 0, "items": [{"summary": "This spot is popular", "type": "general", "reasonName": "globalInteractionReason"}]}, "venue": {"id": "4f93ba12e4b0532d5df9fcca", "name": "Backstop (im Kaiser's)", "location": {"address": "Berliner Allee 36", "lat": 52.54797336716436, "lng": 13.45122600701398, "labeledLatLngs": [{"label": "display", "lat": 52.54797336716436, "lng": 13.45122600701398}], "distance": 538, "cc": "DE", "city": "Berlin", "state": "Berlin", "country": "Deutschland", "formattedAddress": ["Berliner Allee 36", "Berlin", "Deutschland"]}, "categories": [{"id": "4bf58dd8d48988d16a941735", "name": "Bakery", "pluralName": "Bakeries", "shortName": "Bakery", "icon": {"prefix": "https://ss3.4sqi.net/img/categories_v2/food/bakery_", "suffix": ".png"}, "primary": true}], "photos": {"count": 0, "groups": []}}, "referralId": "e-0-4f93ba12e4b0532d5df9fcca-43"}, {"reasons": {"count": 0, "items": [{"summary": "This spot is popular", "type": "general", "reasonName": "globalInteractionReason"}]}, "venue": {"id": "4fcf611b3ac6d9ec99037621", "name": "Lidl", "location": {"address": "Roelckestra\u00dfe 172", "lat": 52.550079, "lng": 13.441458, "labeledLatLngs": [{"label": "display", "lat": 52.550079, "lng": 13.441458}], "distance": 763, "postalCode": "13086", "cc": "DE", "city": "Berlin", "state": "Berlin", "country": "Deutschland", "formattedAddress": ["Roelckestra\u00dfe 172", "13086 Berlin", "Deutschland"]}, "categories": [{"id": "52f2ab2ebcbc57f1066b8b46", "name": "Supermarket", "pluralName": "Supermarkets", "shortName": "Supermarket", "icon": {"prefix": "https://ss3.4sqi.net/img/categories_v2/shops/food_grocery_", "suffix": ".png"}, "primary": true}], "photos": {"count": 0, "groups": []}, "venuePage": {"id": "579270996"}}, "referralId": "e-0-4fcf611b3ac6d9ec99037621-44"}, {"reasons": {"count": 0, "items": [{"summary": "This spot is popular", "type": "general", "reasonName": "globalInteractionReason"}]}, "venue": {"id": "5a044699e96d0c37472a31a7", "name": "EDEKA Am Antonplatz", "location": {"address": "Bizetstr. 25-27", "crossStreet": "Bundesstr", "lat": 52.5476213, "lng": 13.4515471, "labeledLatLngs": [{"label": "display", "lat": 52.5476213, "lng": 13.4515471}], "distance": 576, "postalCode": "13088", "cc": "DE", "city": "Berlin", "state": "Berlin", "country": "Deutschland", "formattedAddress": ["Bizetstr. 25-27 (Bundesstr)", "13088 Berlin", "Deutschland"]}, "categories": [{"id": "52f2ab2ebcbc57f1066b8b46", "name": "Supermarket", "pluralName": "Supermarkets", "shortName": "Supermarket", "icon": {"prefix": "https://ss3.4sqi.net/img/categories_v2/shops/food_grocery_", "suffix": ".png"}, "primary": true}], "photos": {"count": 0, "groups": []}, "venuePage": {"id": "557192832"}}, "referralId": "e-0-5a044699e96d0c37472a31a7-45"}, {"reasons": {"count": 0, "items": [{"summary": "This spot is popular", "type": "general", "reasonName": "globalInteractionReason"}]}, "venue": {"id": "4b59bfb0f964a520fc9528e3", "name": "Milchh\u00e4uschen", "location": {"address": "Parkstr. 33a", "lat": 52.554555716056186, "lng": 13.461225123079206, "labeledLatLngs": [{"label": "display", "lat": 52.554555716056186, "lng": 13.461225123079206}], "distance": 666, "postalCode": "13086", "cc": "DE", "city": "Berlin", "state": "Berlin", "country": "Deutschland", "formattedAddress": ["Parkstr. 33a", "13086 Berlin", "Deutschland"]}, "categories": [{"id": "4bf58dd8d48988d10d941735", "name": "German Restaurant", "pluralName": "German Restaurants", "shortName": "German", "icon": {"prefix": "https://ss3.4sqi.net/img/categories_v2/food/german_", "suffix": ".png"}, "primary": true}], "photos": {"count": 0, "groups": []}}, "referralId": "e-0-4b59bfb0f964a520fc9528e3-46"}, {"reasons": {"count": 0, "items": [{"summary": "This spot is popular", "type": "general", "reasonName": "globalInteractionReason"}]}, "venue": {"id": "4b4ad496f964a520c68e26e3", "name": "MediaMarkt", "location": {"address": "Greifswalder Str. 140", "crossStreet": "Ostseestr.", "lat": 52.54588465702262, "lng": 13.444651812314987, "labeledLatLngs": [{"label": "display", "lat": 52.54588465702262, "lng": 13.444651812314987}], "distance": 909, "postalCode": "10409", "cc": "DE", "city": "Berlin", "state": "Berlin", "country": "Deutschland", "formattedAddress": ["Greifswalder Str. 140 (Ostseestr.)", "10409 Berlin", "Deutschland"]}, "categories": [{"id": "4bf58dd8d48988d122951735", "name": "Electronics Store", "pluralName": "Electronics Stores", "shortName": "Electronics", "icon": {"prefix": "https://ss3.4sqi.net/img/categories_v2/shops/technology_", "suffix": ".png"}, "primary": true}], "photos": {"count": 0, "groups": []}, "venuePage": {"id": "450534352"}}, "referralId": "e-0-4b4ad496f964a520c68e26e3-47"}, {"reasons": {"count": 0, "items": [{"summary": "This spot is popular", "type": "general", "reasonName": "globalInteractionReason"}]}, "venue": {"id": "4b9b80fdf964a520960b36e3", "name": "Pizzeria La Romana", "location": {"address": "Hamburger Platz", "lat": 52.555430475693704, "lng": 13.438910986561936, "labeledLatLngs": [{"label": "display", "lat": 52.555430475693704, "lng": 13.438910986561936}], "distance": 920, "postalCode": "13086", "cc": "DE", "city": "Berlin", "state": "Berlin", "country": "Deutschland", "formattedAddress": ["Hamburger Platz", "13086 Berlin", "Deutschland"]}, "categories": [{"id": "4bf58dd8d48988d110941735", "name": "Italian Restaurant", "pluralName": "Italian Restaurants", "shortName": "Italian", "icon": {"prefix": "https://ss3.4sqi.net/img/categories_v2/food/italian_", "suffix": ".png"}, "primary": true}], "photos": {"count": 0, "groups": []}}, "referralId": "e-0-4b9b80fdf964a520960b36e3-48"}, {"reasons": {"count": 0, "items": [{"summary": "This spot is popular", "type": "general", "reasonName": "globalInteractionReason"}]}, "venue": {"id": "4c61662390b2c9b60a053f22", "name": "H Pasedagplatz", "location": {"address": "Pasedagplatz", "crossStreet": "Rennbahnstr.", "lat": 52.559870707026, "lng": 13.459926751861378, "labeledLatLngs": [{"label": "display", "lat": 52.559870707026, "lng": 13.459926751861378}], "distance": 959, "postalCode": "13088", "cc": "DE", "city": "Berlin", "state": "Berlin", "country": "Deutschland", "formattedAddress": ["Pasedagplatz (Rennbahnstr.)", "13088 Berlin", "Deutschland"]}, "categories": [{"id": "52f2ab2ebcbc57f1066b8b51", "name": "Tram Station", "pluralName": "Tram Stations", "shortName": "Tram", "icon": {"prefix": "https://ss3.4sqi.net/img/categories_v2/travel/trainstation_", "suffix": ".png"}, "primary": true}], "photos": {"count": 0, "groups": []}}, "referralId": "e-0-4c61662390b2c9b60a053f22-49"}, {"reasons": {"count": 0, "items": [{"summary": "This spot is popular", "type": "general", "reasonName": "globalInteractionReason"}]}, "venue": {"id": "4e5bb6808877c8a76e029560", "name": "H Greifswalder Stra\u00dfe / Ostseestra\u00dfe", "location": {"address": "Greifswalder Str.", "crossStreet": "Ostseestr.", "lat": 52.545264826767266, "lng": 13.444175720214844, "labeledLatLngs": [{"label": "display", "lat": 52.545264826767266, "lng": 13.444175720214844}], "distance": 985, "postalCode": "10409", "cc": "DE", "city": "Berlin", "state": "Berlin", "country": "Deutschland", "formattedAddress": ["Greifswalder Str. (Ostseestr.)", "10409 Berlin", "Deutschland"]}, "categories": [{"id": "52f2ab2ebcbc57f1066b8b51", "name": "Tram Station", "pluralName": "Tram Stations", "shortName": "Tram", "icon": {"prefix": "https://ss3.4sqi.net/img/categories_v2/travel/trainstation_", "suffix": ".png"}, "primary": true}], "photos": {"count": 0, "groups": []}}, "referralId": "e-0-4e5bb6808877c8a76e029560-50"}]