[{"reasons": {"count": 0, "items": [{"summary": "This spot is popular", "type": "general", "reasonName": "globalInteractionReason"}]}, "venue": {"id": "560f5603498eff75a3061ad3", "name": "Runway 08L/26R", "location": {"address": "TXL Airport", "lat": 52.55911431408465, "lng": 13.281033039093016, "labeledLatLngs": [{"label": "display", "lat": 52.55911431408465, "lng": 13.281033039093016}], "distance": 487, "postalCode": "13405", "cc": "DE", "neighborhood": "Flughafen Tegel", "city": "Berlin", "state": "Berlin", "country": "Deutschland", "formattedAddress": ["TXL Airport", "13405 Berlin", "Deutschland"]}, "categories": [{"id": "56aa371be4b08b9a8d57352f", "name": "Airport Service", "pluralName": "Airport Services", "shortName": "Airport Service", "icon": {"prefix": "https://ss3.4sqi.net/img/categories_v2/travel/airport_", "suffix": ".png"}, "primary": true}], "photos": {"count": 0, "groups": []}}, "referralId": "e-0-560f5603498eff75a3061ad3-0"}, {"reasons": {"count": 0, "items": [{"summary": "This spot is popular", "type": "general", "reasonName": "globalInteractionReason"}]}, "venue": {"id": "4adcda7df964a520994721e3", "name": "Flughafensee", "location": {"address": "Seidelstr.", "lat": 52.567846, "lng": 13.285507, "labeledLatLngs": [{"label": "display", "lat": 52.567846, "lng": 13.285507}], "distance": 620, "postalCode": "13405", "cc": "DE", "city": "Berlin", "state": "Berlin", "country": "Deutschland", "formattedAddress": ["Seidelstr.", "13405 Berlin", "Deutschland"]}, "categories": [{"id": "4bf58dd8d48988d161941735", "name": "Lake", "pluralName": "Lakes", "shortName": "Lake", "icon": {"prefix": "https://ss3.4sqi.net/img/categories_v2/parks_outdoors/lake_", "suffix": ".png"}, "primary": true}], "photos": {"count": 0, "groups": []}}, "referralId": "e-0-4adcda7df964a520994721e3-1"}, {"reasons": {"count": 0, "items": [{"summary": "This spot is popular", "type": "general", "reasonName": "globalInteractionReason"}]}, "venue": {"id": "57d5c4f1498e96cceefb3a96", "name": "Flughafensee", "location": {"address": "Flughafensee", "lat": 52.56879, "lng": 13.283027, "labeledLatLngs": [{"label": "display", "lat": 52.56879, "lng": 13.283027}], "distance": 632, "postalCode": "13507", "cc": "DE", "city": "Berlin", "state": "Berlin", "country": "Deutschland", "formattedAddress": ["Flughafensee", "13507 Berlin", "Deutschland"]}, "categories": [{"id": "4bf58dd8d48988d161941735", "name": "Lake", "pluralName": "Lakes", "shortName": "Lake", "icon": {"prefix": "https://ss3.4sqi.net/img/categories_v2/parks_outdoors/lake_", "suffix": ".png"}, "primary": true}], "photos": {"count": 0, "groups": []}}, "referralId": "e-0-57d5c4f1498e96cceefb3a96-2"}, {"reasons": {"count": 0, "items": [{"summary": "This spot is popular", "type": "general", "reasonName": "globalInteractionReason"}]}, "venue": {"id": "572dce61498ec5f0379310cf", "name": "Strand am Flughafensee", "location": {"lat": 52.56973, "lng": 13.285003, "labeledLatLngs": [{"label": "display", "lat": 52.56973, "lng": 13.285003}], "distance": 781, "postalCode": "13405", "cc": "DE", "city": "Berlin", "state": "Berlin", "country": "Deutschland", "formattedAddress": ["13405 Berlin", "Deutschland"]}, "categories": [{"id": "4bf58dd8d48988d1e2941735", "name": "Beach", "pluralName": "Beaches", "shortName": "Beach", "icon": {"prefix": "https://ss3.4sqi.net/img/categories_v2/parks_outdoors/beach_", "suffix": ".png"}, "primary": true}], "photos": {"count": 0, "groups": []}}, "referralId": "e-0-572dce61498ec5f0379310cf-3"}, {"reasons": {"count": 0, "items": [{"summary": "This spot is popular", "type": "general", "reasonName": "globalInteractionReason"}]}, "venue": {"id": "555443bc498e6a305ff5ba7b", "name": "Runway 08R/26L", "location": {"address": "TXL Airport", "lat": 52.55814244840915, "lng": 13.289337158203123, "labeledLatLngs": [{"label": "display", "lat": 52.55814244840915, "lng": 13.289337158203123}], "distance": 869, "postalCode": "13405", "cc": "DE", "city": "Berlin", "state": "Berlin", "country": "Deutschland", "formattedAddress": ["TXL Airport", "13405 Berlin", "Deutschland"]}, "categories": [{"id": "56aa371be4b08b9a8d57352f", "name": "Airport Service", "pluralName": "Airport Services", "shortName": "Airport Service", "icon": {"prefix": "https://ss3.4sqi.net/img/categories_v2/travel/airport_", "suffix": ".png"}, "primary": true}], "photos": {"count": 0, "groups": []}}, "referralId": "e-0-555443bc498e6a305ff5ba7b-4"}, {"reasons": {"count": 0, "items": [{"summary": "This spot is popular", "type": "general", "reasonName": "globalInteractionReason"}]}, "venue": {"id": "4d6d3f6dedc26dcb0ed8c6a4", "name": "Th\u00fcrmann", "location": {"address": "Bernauer Str. 69 - 73", "lat": 52.571278040606394, "lng": 13.280342601265954, "labeledLatLngs": [{"label": "display", "lat": 52.571278040606394, "lng": 13.280342601265954}], "distance": 873, "postalCode": "13507", "cc": "DE", "city": "Berlin", "state": "Berlin", "country": "Deutschland", "formattedAddress": ["Bernauer Str. 69 - 73", "13507 Berlin", "Deutschland"]}, "categories": [{"id": "4bf58dd8d48988d16a941735", "name": "Bakery", "pluralName": "Bakeries", "shortName": "Bakery", "icon": {"prefix": "https://ss3.4sqi.net/img/categories_v2/food/bakery_", "suffix": ".png"}, "primary": true}], "photos": {"count": 0, "groups": []}}, "referralId": "e-0-4d6d3f6dedc26dcb0ed8c6a4-5"}, {"reasons": {"count": 0, "items": [{"summary": "This spot is popular", "type": "general", "reasonName": "globalInteractionReason"}]}, "venue": {"id": "4ffd2e47e4b052cb4df35826", "name": "Tegeler Wald", "location": {"lat": 52.57055419963075, "lng": 13.273725167015112, "labeledLatLngs": [{"label": "display", "lat": 52.57055419963075, "lng": 13.273725167015112}], "distance": 895, "cc": "DE", "city": "Berlin", "state": "Berlin", "country": "Deutschland", "formattedAddress": ["Berlin", "Deutschland"]}, "categories": [{"id": "52e81612bcbc57f1066b7a23", "name": "Forest", "pluralName": "Forests", "shortName": "Forest", "icon": {"prefix": "https://ss3.4sqi.net/img/categories_v2/parks_outdoors/default_", "suffix": ".png"}, "primary": true}], "photos": {"count": 0, "groups": []}}, "referralId": "e-0-4ffd2e47e4b052cb4df35826-6"}]