[{"reasons": {"count": 0, "items": [{"summary": "This spot is popular", "type": "general", "reasonName": "globalInteractionReason"}]}, "venue": {"id": "4f5f13c0e4b06f48bf495537", "name": "Malche Restaurant am See", "location": {"address": "Gabrielenstra\u00dfe 77", "lat": 52.5899475, "lng": 13.2679105, "labeledLatLngs": [{"label": "display", "lat": 52.5899475, "lng": 13.2679105}], "distance": 620, "postalCode": "13507", "cc": "DE", "city": "Berlin", "state": "Berlin", "country": "Deutschland", "formattedAddress": ["Gabrielenstra\u00dfe 77", "13507 Berlin", "Deutschland"]}, "categories": [{"id": "4bf58dd8d48988d10d941735", "name": "German Restaurant", "pluralName": "German Restaurants", "shortName": "German", "icon": {"prefix": "https://ss3.4sqi.net/img/categories_v2/food/german_", "suffix": ".png"}, "primary": true}], "photos": {"count": 0, "groups": []}}, "referralId": "e-0-4f5f13c0e4b06f48bf495537-0"}, {"reasons": {"count": 0, "items": [{"summary": "This spot is popular", "type": "general", "reasonName": "globalInteractionReason"}]}, "venue": {"id": "4ea3d5314690104bb426a221", "name": "Dicke Marie", "location": {"address": "An der Malche 1", "lat": 52.593555977072754, "lng": 13.264950513839722, "labeledLatLngs": [{"label": "display", "lat": 52.593555977072754, "lng": 13.264950513839722}], "distance": 349, "postalCode": "13505", "cc": "DE", "city": "Berlin", "state": "Berlin", "country": "Deutschland", "formattedAddress": ["An der Malche 1", "13505 Berlin", "Deutschland"]}, "categories": [{"id": "52e81612bcbc57f1066b7a24", "name": "Tree", "pluralName": "Trees", "shortName": "Tree", "icon": {"prefix": "https://ss3.4sqi.net/img/categories_v2/parks_outdoors/default_", "suffix": ".png"}, "primary": true}], "photos": {"count": 0, "groups": []}}, "referralId": "e-0-4ea3d5314690104bb426a221-1"}, {"reasons": {"count": 0, "items": [{"summary": "This spot is popular", "type": "general", "reasonName": "globalInteractionReason"}]}, "venue": {"id": "4f358b67bb3d31432ddaf40d", "name": "Wildgehege Tegeler Forst", "location": {"address": "Schwarzer Weg 13", "lat": 52.58516402832335, "lng": 13.252837657928467, "labeledLatLngs": [{"label": "display", "lat": 52.58516402832335, "lng": 13.252837657928467}], "distance": 971, "postalCode": "13507", "cc": "DE", "city": "Berlin", "state": "Berlin", "country": "Deutschland", "formattedAddress": ["Schwarzer Weg 13", "13507 Berlin", "Deutschland"]}, "categories": [{"id": "58daa1558bbb0b01f18ec1fd", "name": "Zoo Exhibit", "pluralName": "Zoo Exhibits", "shortName": "Zoo Exhibit", "icon": {"prefix": "https://ss3.4sqi.net/img/categories_v2/arts_entertainment/zoo_", "suffix": ".png"}, "primary": true}], "photos": {"count": 0, "groups": []}}, "referralId": "e-0-4f358b67bb3d31432ddaf40d-2"}, {"reasons": {"count": 0, "items": [{"summary": "This spot is popular", "type": "general", "reasonName": "globalInteractionReason"}]}, "venue": {"id": "4dbd864aa86e0e98a1fc93ca", "name": "Waldh\u00fctte am See", "location": {"address": "Schwarzer Weg 5", "lat": 52.593682551123344, "lng": 13.264052324656161, "labeledLatLngs": [{"label": "display", "lat": 52.593682551123344, "lng": 13.264052324656161}], "distance": 295, "postalCode": "13505", "cc": "DE", "city": "Berlin", "state": "Berlin", "country": "Deutschland", "formattedAddress": ["Schwarzer Weg 5", "13505 Berlin", "Deutschland"]}, "categories": [{"id": "4bf58dd8d48988d10d941735", "name": "German Restaurant", "pluralName": "German Restaurants", "shortName": "German", "icon": {"prefix": "https://ss3.4sqi.net/img/categories_v2/food/german_", "suffix": ".png"}, "primary": true}], "photos": {"count": 0, "groups": []}}, "referralId": "e-0-4dbd864aa86e0e98a1fc93ca-3"}, {"reasons": {"count": 0, "items": [{"summary": "This spot is popular", "type": "general", "reasonName": "globalInteractionReason"}]}, "venue": {"id": "4bcb13e7b6c49c74dc6f9191", "name": "SeePavillon am Tegeler See", "location": {"address": "Schwarzer Weg 45", "lat": 52.59064003762309, "lng": 13.261203336385112, "labeledLatLngs": [{"label": "display", "lat": 52.59064003762309, "lng": 13.261203336385112}], "distance": 248, "postalCode": "13505", "cc": "DE", "city": "Berlin", "state": "Berlin", "country": "Deutschland", "formattedAddress": ["Schwarzer Weg 45", "13505 Berlin", "Deutschland"]}, "categories": [{"id": "4bf58dd8d48988d16d941735", "name": "Caf\u00e9", "pluralName": "Caf\u00e9s", "shortName": "Caf\u00e9", "icon": {"prefix": "https://ss3.4sqi.net/img/categories_v2/food/cafe_", "suffix": ".png"}, "primary": true}], "photos": {"count": 0, "groups": []}}, "referralId": "e-0-4bcb13e7b6c49c74dc6f9191-4"}, {"reasons": {"count": 0, "items": [{"summary": "This spot is popular", "type": "general", "reasonName": "globalInteractionReason"}]}, "venue": {"id": "4db1a78a4df03036e8d34f9e", "name": "Pavillon am See", "location": {"address": "Greenwichpromenade", "lat": 52.588554106028745, "lng": 13.273017453454182, "labeledLatLngs": [{"label": "display", "lat": 52.588554106028745, "lng": 13.273017453454182}], "distance": 998, "cc": "DE", "city": "Berlin", "state": "Berlin", "country": "Deutschland", "formattedAddress": ["Greenwichpromenade", "Berlin", "Deutschland"]}, "categories": [{"id": "4bf58dd8d48988d16d941735", "name": "Caf\u00e9", "pluralName": "Caf\u00e9s", "shortName": "Caf\u00e9", "icon": {"prefix": "https://ss3.4sqi.net/img/categories_v2/food/cafe_", "suffix": ".png"}, "primary": true}], "photos": {"count": 0, "groups": []}}, "referralId": "e-0-4db1a78a4df03036e8d34f9e-5"}, {"reasons": {"count": 0, "items": [{"summary": "This spot is popular", "type": "general", "reasonName": "globalInteractionReason"}]}, "venue": {"id": "4e917a4e46908c033f869c98", "name": "Der archaische Erzengel von Heiligensee", "location": {"address": "Gabrielenstr.", "crossStreet": "An der Malche", "lat": 52.589585782348486, "lng": 13.26714815589969, "labeledLatLngs": [{"label": "display", "lat": 52.589585782348486, "lng": 13.26714815589969}], "distance": 599, "postalCode": "13507", "cc": "DE", "city": "Berlin", "state": "Berlin", "country": "Deutschland", "formattedAddress": ["Gabrielenstr. (An der Malche)", "13507 Berlin", "Deutschland"]}, "categories": [{"id": "52e81612bcbc57f1066b79ed", "name": "Outdoor Sculpture", "pluralName": "Outdoor Sculptures", "shortName": "Outdoor Sculpture", "icon": {"prefix": "https://ss3.4sqi.net/img/categories_v2/parks_outdoors/sculpture_", "suffix": ".png"}, "primary": true}], "photos": {"count": 0, "groups": []}}, "referralId": "e-0-4e917a4e46908c033f869c98-6"}]