[{"reasons": {"count": 0, "items": [{"summary": "This spot is popular", "type": "general", "reasonName": "globalInteractionReason"}]}, "venue": {"id": "5548c6f8498e7fd005050312", "name": "Versicherungen Frank M\u00fcller", "location": {"address": "Heiligenseestr. 118", "lat": 52.605907, "lng": 13.231334, "labeledLatLngs": [{"label": "display", "lat": 52.605907, "lng": 13.231334}], "distance": 162, "postalCode": "13503", "cc": "DE", "city": "Berlin", "state": "Berlin", "country": "Deutschland", "formattedAddress": ["Heiligenseestr. 118", "13503 Berlin", "Deutschland"]}, "categories": [{"id": "58daa1558bbb0b01f18ec1f1", "name": "Insurance Office", "pluralName": "Insurance Offices", "shortName": "Insurance Office", "icon": {"prefix": "https://ss3.4sqi.net/img/categories_v2/shops/financial_", "suffix": ".png"}, "primary": true}], "photos": {"count": 0, "groups": []}}, "referralId": "e-0-5548c6f8498e7fd005050312-0"}, {"reasons": {"count": 0, "items": [{"summary": "This spot is popular", "type": "general", "reasonName": "globalInteractionReason"}]}, "venue": {"id": "51f16f5e498e4efd1e18ae18", "name": "Korfu", "location": {"address": "Heiligenseestr. 51", "lat": 52.60189437866211, "lng": 13.239707946777344, "labeledLatLngs": [{"label": "display", "lat": 52.60189437866211, "lng": 13.239707946777344}], "distance": 782, "postalCode": "13503", "cc": "DE", "city": "Berlin", "state": "Berlin", "country": "Deutschland", "formattedAddress": ["Heiligenseestr. 51", "13503 Berlin", "Deutschland"]}, "categories": [{"id": "4bf58dd8d48988d10e941735", "name": "Greek Restaurant", "pluralName": "Greek Restaurants", "shortName": "Greek", "icon": {"prefix": "https://ss3.4sqi.net/img/categories_v2/food/greek_", "suffix": ".png"}, "primary": true}], "photos": {"count": 0, "groups": []}}, "referralId": "e-0-51f16f5e498e4efd1e18ae18-1"}, {"reasons": {"count": 0, "items": [{"summary": "This spot is popular", "type": "general", "reasonName": "globalInteractionReason"}]}, "venue": {"id": "4dea2e551f6e3ddebdc4406e", "name": "Heiligensee", "location": {"lat": 52.60449188749817, "lng": 13.22078161862257, "labeledLatLngs": [{"label": "display", "lat": 52.60449188749817, "lng": 13.22078161862257}], "distance": 833, "cc": "DE", "city": "Berlin", "state": "Berlin", "country": "Deutschland", "formattedAddress": ["Berlin", "Deutschland"]}, "categories": [{"id": "4bf58dd8d48988d161941735", "name": "Lake", "pluralName": "Lakes", "shortName": "Lake", "icon": {"prefix": "https://ss3.4sqi.net/img/categories_v2/parks_outdoors/lake_", "suffix": ".png"}, "primary": true}], "photos": {"count": 0, "groups": []}}, "referralId": "e-0-4dea2e551f6e3ddebdc4406e-2"}, {"reasons": {"count": 0, "items": [{"summary": "This spot is popular", "type": "general", "reasonName": "globalInteractionReason"}]}, "venue": {"id": "4df6084622718759f827ee40", "name": "Baumberge D\u00fcnen", "location": {"address": "Elchdamm 121", "lat": 52.59934039590912, "lng": 13.228890538552555, "labeledLatLngs": [{"label": "display", "lat": 52.59934039590912, "lng": 13.228890538552555}], "distance": 910, "postalCode": "13503", "cc": "DE", "city": "Berlin", "state": "Berlin", "country": "Deutschland", "formattedAddress": ["Elchdamm 121", "13503 Berlin", "Deutschland"]}, "categories": [{"id": "4bf58dd8d48988d163941735", "name": "Park", "pluralName": "Parks", "shortName": "Park", "icon": {"prefix": "https://ss3.4sqi.net/img/categories_v2/parks_outdoors/park_", "suffix": ".png"}, "primary": true}], "photos": {"count": 0, "groups": []}}, "referralId": "e-0-4df6084622718759f827ee40-3"}, {"reasons": {"count": 0, "items": [{"summary": "This spot is popular", "type": "general", "reasonName": "globalInteractionReason"}]}, "venue": {"id": "5e68c66aef4d2d0008c5d10c", "name": "star", "location": {"address": "Heiligenseestr. 28", "lat": 52.6016, "lng": 13.24308, "labeledLatLngs": [{"label": "display", "lat": 52.6016, "lng": 13.24308}], "distance": 966, "postalCode": "13503", "cc": "DE", "city": "Berlin", "state": "Berlin", "country": "Deutschland", "formattedAddress": ["Heiligenseestr. 28", "13503 Berlin", "Deutschland"]}, "categories": [{"id": "4bf58dd8d48988d113951735", "name": "Gas Station", "pluralName": "Gas Stations", "shortName": "Gas Station", "icon": {"prefix": "https://ss3.4sqi.net/img/categories_v2/shops/gas_", "suffix": ".png"}, "primary": true}], "photos": {"count": 0, "groups": []}, "venuePage": {"id": "574880567"}}, "referralId": "e-0-5e68c66aef4d2d0008c5d10c-4"}]