[{"reasons": {"count": 0, "items": [{"summary": "This spot is popular", "type": "general", "reasonName": "globalInteractionReason"}]}, "venue": {"id": "4f816a95e4b085b99be7a748", "name": "Pula Grill", "location": {"address": "Auguste-Viktoria-Allee 79", "crossStreet": "Meller Bogen", "lat": 52.57036293235923, "lng": 13.320630492077417, "labeledLatLngs": [{"label": "display", "lat": 52.57036293235923, "lng": 13.320630492077417}], "distance": 150, "postalCode": "13403", "cc": "DE", "city": "Berlin", "state": "Berlin", "country": "Deutschland", "formattedAddress": ["Auguste-Viktoria-Allee 79 (Meller Bogen)", "13403 Berlin", "Deutschland"]}, "categories": [{"id": "4bf58dd8d48988d1c4941735", "name": "Restaurant", "pluralName": "Restaurants", "shortName": "Restaurant", "icon": {"prefix": "https://ss3.4sqi.net/img/categories_v2/food/default_", "suffix": ".png"}, "primary": true}], "photos": {"count": 0, "groups": []}}, "referralId": "e-0-4f816a95e4b085b99be7a748-0"}, {"reasons": {"count": 0, "items": [{"summary": "This spot is popular", "type": "general", "reasonName": "globalInteractionReason"}]}, "venue": {"id": "4c5d643c85a1e21ebb2e5911", "name": "Steakhaus Asado", "location": {"address": "Scharnweberstr. 67", "lat": 52.56798284932453, "lng": 13.31007921363037, "labeledLatLngs": [{"label": "display", "lat": 52.56798284932453, "lng": 13.31007921363037}], "distance": 643, "postalCode": "13405", "cc": "DE", "city": "Berlin", "state": "Berlin", "country": "Deutschland", "formattedAddress": ["Scharnweberstr. 67", "13405 Berlin", "Deutschland"]}, "categories": [{"id": "4bf58dd8d48988d107941735", "name": "Argentinian Restaurant", "pluralName": "Argentinian Restaurants", "shortName": "Argentinian", "icon": {"prefix": "https://ss3.4sqi.net/img/categories_v2/food/argentinian_", "suffix": ".png"}, "primary": true}], "photos": {"count": 0, "groups": []}}, "referralId": "e-0-4c5d643c85a1e21ebb2e5911-1"}, {"reasons": {"count": 0, "items": [{"summary": "This spot is popular", "type": "general", "reasonName": "globalInteractionReason"}]}, "venue": {"id": "4f943801e4b08038d86cd25b", "name": "Eis Schober", "location": {"address": "Auguste-Viktoria-Allee 45", "lat": 52.5716090243276, "lng": 13.311765742504356, "labeledLatLngs": [{"label": "display", "lat": 52.5716090243276, "lng": 13.311765742504356}], "distance": 465, "postalCode": "13403", "cc": "DE", "city": "Berlin", "state": "Berlin", "country": "Deutschland", "formattedAddress": ["Auguste-Viktoria-Allee 45", "13403 Berlin", "Deutschland"]}, "categories": [{"id": "4bf58dd8d48988d1c9941735", "name": "Ice Cream Shop", "pluralName": "Ice Cream Shops", "shortName": "Ice Cream", "icon": {"prefix": "https://ss3.4sqi.net/img/categories_v2/food/icecream_", "suffix": ".png"}, "primary": true}], "photos": {"count": 0, "groups": []}}, "referralId": "e-0-4f943801e4b08038d86cd25b-2"}, {"reasons": {"count": 0, "items": [{"summary": "This spot is popular", "type": "general", "reasonName": "globalInteractionReason"}]}, "venue": {"id": "518f7cd2498e7ca6e529500a", "name": "Restaurant Dalmacija", "location": {"address": "Qu\u00e4kerstr 2", "lat": 52.572479208473844, "lng": 13.30806345573552, "labeledLatLngs": [{"label": "display", "lat": 52.572479208473844, "lng": 13.30806345573552}], "distance": 731, "postalCode": "13403", "cc": "DE", "city": "Berlin", "state": "Berlin", "country": "Deutschland", "formattedAddress": ["Qu\u00e4kerstr 2", "13403 Berlin", "Deutschland"]}, "categories": [{"id": "4bf58dd8d48988d109941735", "name": "Eastern European Restaurant", "pluralName": "Eastern European Restaurants", "shortName": "Eastern European", "icon": {"prefix": "https://ss3.4sqi.net/img/categories_v2/food/default_", "suffix": ".png"}, "primary": true}], "photos": {"count": 0, "groups": []}}, "referralId": "e-0-518f7cd2498e7ca6e529500a-3"}, {"reasons": {"count": 0, "items": [{"summary": "This spot is popular", "type": "general", "reasonName": "globalInteractionReason"}]}, "venue": {"id": "4b40ce03f964a52055bb25e3", "name": "Il Mulino", "location": {"address": "Scharnweberstr. 17-20", "lat": 52.564107293453816, "lng": 13.327069985556712, "labeledLatLngs": [{"label": "display", "lat": 52.564107293453816, "lng": 13.327069985556712}], "distance": 936, "postalCode": "13405", "cc": "DE", "neighborhood": "Scharnweberstra\u00dfe", "city": "Berlin", "state": "Berlin", "country": "Deutschland", "formattedAddress": ["Scharnweberstr. 17-20", "13405 Berlin", "Deutschland"]}, "categories": [{"id": "4bf58dd8d48988d110941735", "name": "Italian Restaurant", "pluralName": "Italian Restaurants", "shortName": "Italian", "icon": {"prefix": "https://ss3.4sqi.net/img/categories_v2/food/italian_", "suffix": ".png"}, "primary": true}], "photos": {"count": 0, "groups": []}}, "referralId": "e-0-4b40ce03f964a52055bb25e3-4"}, {"reasons": {"count": 0, "items": [{"summary": "This spot is popular", "type": "general", "reasonName": "globalInteractionReason"}]}, "venue": {"id": "534e7513498ef7cdfc9ebe15", "name": "dm-drogerie markt", "location": {"address": "Ollenhauerstra\u00dfe 105b", "lat": 52.570634, "lng": 13.329108, "labeledLatLngs": [{"label": "display", "lat": 52.570634, "lng": 13.329108}], "distance": 719, "postalCode": "13403", "cc": "DE", "city": "Berlin", "state": "Berlin", "country": "Deutschland", "formattedAddress": ["Ollenhauerstra\u00dfe 105b", "13403 Berlin", "Deutschland"]}, "categories": [{"id": "5745c2e4498e11e7bccabdbd", "name": "Drugstore", "pluralName": "Drugstores", "shortName": "Drugstore", "icon": {"prefix": "https://ss3.4sqi.net/img/categories_v2/shops/pharmacy_", "suffix": ".png"}, "primary": true}], "photos": {"count": 0, "groups": []}, "venuePage": {"id": "451282186"}}, "referralId": "e-0-534e7513498ef7cdfc9ebe15-5"}, {"reasons": {"count": 0, "items": [{"summary": "This spot is popular", "type": "general", "reasonName": "globalInteractionReason"}]}, "venue": {"id": "502f2a2ee4b0b5040f4cd783", "name": "Planespotter-H\u00fcgel", "location": {"address": "Meteorstr.", "crossStreet": "Uranusweg", "lat": 52.56405710524957, "lng": 13.315582170451316, "labeledLatLngs": [{"label": "display", "lat": 52.56405710524957, "lng": 13.315582170451316}], "distance": 765, "cc": "DE", "city": "Berlin", "state": "Berlin", "country": "Deutschland", "formattedAddress": ["Meteorstr. (Uranusweg)", "Berlin", "Deutschland"]}, "categories": [{"id": "4bf58dd8d48988d165941735", "name": "Scenic Lookout", "pluralName": "Scenic Lookouts", "shortName": "Scenic Lookout", "icon": {"prefix": "https://ss3.4sqi.net/img/categories_v2/parks_outdoors/sceniclookout_", "suffix": ".png"}, "primary": true}], "photos": {"count": 0, "groups": []}}, "referralId": "e-0-502f2a2ee4b0b5040f4cd783-6"}, {"reasons": {"count": 0, "items": [{"summary": "This spot is popular", "type": "general", "reasonName": "globalInteractionReason"}]}, "venue": {"id": "4b88cfa1f964a5208a0e32e3", "name": "Kaufland", "location": {"address": "Ollenhauerstr. 122", "lat": 52.56767666620926, "lng": 13.329041005403178, "labeledLatLngs": [{"label": "display", "lat": 52.56767666620926, "lng": 13.329041005403178}], "distance": 790, "postalCode": "13403", "cc": "DE", "city": "Berlin", "state": "Berlin", "country": "Deutschland", "formattedAddress": ["Ollenhauerstr. 122", "13403 Berlin-Reinickendorf", "Deutschland"]}, "categories": [{"id": "52f2ab2ebcbc57f1066b8b42", "name": "Big Box Store", "pluralName": "Big Box Stores", "shortName": "Big Box Store", "icon": {"prefix": "https://ss3.4sqi.net/img/categories_v2/shops/default_", "suffix": ".png"}, "primary": true}], "photos": {"count": 0, "groups": []}, "venuePage": {"id": "452816698"}}, "referralId": "e-0-4b88cfa1f964a5208a0e32e3-7"}, {"reasons": {"count": 0, "items": [{"summary": "This spot is popular", "type": "general", "reasonName": "globalInteractionReason"}]}, "venue": {"id": "4e68ee5114954826ade2faca", "name": "Lidl", "location": {"address": "Waldstr. 14-21", "lat": 52.57632359999999, "lng": 13.3256639, "labeledLatLngs": [{"label": "display", "lat": 52.57632359999999, "lng": 13.3256639}], "distance": 792, "postalCode": "13403", "cc": "DE", "city": "Berlin", "state": "Berlin", "country": "Deutschland", "formattedAddress": ["Waldstr. 14-21", "13403 Berlin-Reinickendorf", "Deutschland"]}, "categories": [{"id": "52f2ab2ebcbc57f1066b8b46", "name": "Supermarket", "pluralName": "Supermarkets", "shortName": "Supermarket", "icon": {"prefix": "https://ss3.4sqi.net/img/categories_v2/shops/food_grocery_", "suffix": ".png"}, "primary": true}], "photos": {"count": 0, "groups": []}, "venuePage": {"id": "576772087"}}, "referralId": "e-0-4e68ee5114954826ade2faca-8"}, {"reasons": {"count": 0, "items": [{"summary": "This spot is popular", "type": "general", "reasonName": "globalInteractionReason"}]}, "venue": {"id": "4ec62930cc21b428e16db1a3", "name": "EDEKA G\u00f6rse & Meichsner", "location": {"address": "Eichborndamm 77-85", "lat": 52.57588413, "lng": 13.31430147, "labeledLatLngs": [{"label": "display", "lat": 52.57588413, "lng": 13.31430147}], "distance": 642, "postalCode": "13403", "cc": "DE", "neighborhood": "Scharnweberstra\u00dfe", "city": "Berlin", "state": "Berlin", "country": "Deutschland", "formattedAddress": ["Eichborndamm 77-85", "13403 Berlin", "Deutschland"]}, "categories": [{"id": "52f2ab2ebcbc57f1066b8b46", "name": "Supermarket", "pluralName": "Supermarkets", "shortName": "Supermarket", "icon": {"prefix": "https://ss3.4sqi.net/img/categories_v2/shops/food_grocery_", "suffix": ".png"}, "primary": true}], "photos": {"count": 0, "groups": []}, "venuePage": {"id": "556255428"}}, "referralId": "e-0-4ec62930cc21b428e16db1a3-9"}, {"reasons": {"count": 0, "items": [{"summary": "This spot is popular", "type": "general", "reasonName": "globalInteractionReason"}]}, "venue": {"id": "4d57f184afe4b60cfbad4a61", "name": "EDEKA Frede-Bicici", "location": {"address": "Ollenhauer Str. 107", "crossStreet": "Auguste-Viktoria-Allee", "lat": 52.5701213, "lng": 13.32797553, "labeledLatLngs": [{"label": "display", "lat": 52.5701213, "lng": 13.32797553}], "distance": 646, "postalCode": "13403", "cc": "DE", "city": "Berlin", "state": "Berlin", "country": "Deutschland", "formattedAddress": ["Ollenhauer Str. 107 (Auguste-Viktoria-Allee)", "13403 Berlin", "Deutschland"]}, "categories": [{"id": "52f2ab2ebcbc57f1066b8b46", "name": "Supermarket", "pluralName": "Supermarkets", "shortName": "Supermarket", "icon": {"prefix": "https://ss3.4sqi.net/img/categories_v2/shops/food_grocery_", "suffix": ".png"}, "primary": true}], "photos": {"count": 0, "groups": []}, "venuePage": {"id": "549939227"}}, "referralId": "e-0-4d57f184afe4b60cfbad4a61-10"}, {"reasons": {"count": 0, "items": [{"summary": "This spot is popular", "type": "general", "reasonName": "globalInteractionReason"}]}, "venue": {"id": "4c6648908e9120a1e4a7d764", "name": "Deutsche Bank", "location": {"address": "Ollenhauerstr. 3", "lat": 52.564243114823526, "lng": 13.328067379010696, "labeledLatLngs": [{"label": "display", "lat": 52.564243114823526, "lng": 13.328067379010696}], "distance": 968, "postalCode": "13403", "cc": "DE", "city": "Berlin", "state": "Berlin", "country": "Deutschland", "formattedAddress": ["Ollenhauerstr. 3", "13403 Berlin", "Deutschland"]}, "categories": [{"id": "4bf58dd8d48988d10a951735", "name": "Bank", "pluralName": "Banks", "shortName": "Bank", "icon": {"prefix": "https://ss3.4sqi.net/img/categories_v2/shops/financial_", "suffix": ".png"}, "primary": true}], "photos": {"count": 0, "groups": []}}, "referralId": "e-0-4c6648908e9120a1e4a7d764-11"}, {"reasons": {"count": 0, "items": [{"summary": "This spot is popular", "type": "general", "reasonName": "globalInteractionReason"}]}, "venue": {"id": "5153e264e4b0b808ffa61f15", "name": "Kurt-Schumacher-Platz", "location": {"address": "Kurt-Schumacher-Damm", "crossStreet": "Scharnweberstr.", "lat": 52.5634101278793, "lng": 13.326895528316722, "labeledLatLngs": [{"label": "display", "lat": 52.5634101278793, "lng": 13.326895528316722}], "distance": 991, "postalCode": "13405", "cc": "DE", "city": "Berlin", "state": "Berlin", "country": "Deutschland", "formattedAddress": ["Kurt-Schumacher-Damm (Scharnweberstr.)", "13405 Berlin", "Deutschland"]}, "categories": [{"id": "4bf58dd8d48988d164941735", "name": "Plaza", "pluralName": "Plazas", "shortName": "Plaza", "icon": {"prefix": "https://ss3.4sqi.net/img/categories_v2/parks_outdoors/plaza_", "suffix": ".png"}, "primary": true}], "photos": {"count": 0, "groups": []}}, "referralId": "e-0-5153e264e4b0b808ffa61f15-12"}, {"reasons": {"count": 0, "items": [{"summary": "This spot is popular", "type": "general", "reasonName": "globalInteractionReason"}]}, "venue": {"id": "4c66499eaebea59351dc72d0", "name": "Th\u00fcrmann", "location": {"address": "Ollenhauerstr. 1-2", "lat": 52.5640654274493, "lng": 13.328245321670957, "labeledLatLngs": [{"label": "display", "lat": 52.5640654274493, "lng": 13.328245321670957}], "distance": 991, "postalCode": "13403", "cc": "DE", "city": "Berlin", "state": "Berlin", "country": "Deutschland", "formattedAddress": ["Ollenhauerstr. 1-2", "13403 Berlin", "Deutschland"]}, "categories": [{"id": "4bf58dd8d48988d16a941735", "name": "Bakery", "pluralName": "Bakeries", "shortName": "Bakery", "icon": {"prefix": "https://ss3.4sqi.net/img/categories_v2/food/bakery_", "suffix": ".png"}, "primary": true}], "photos": {"count": 0, "groups": []}}, "referralId": "e-0-4c66499eaebea59351dc72d0-13"}, {"reasons": {"count": 0, "items": [{"summary": "This spot is popular", "type": "general", "reasonName": "globalInteractionReason"}]}, "venue": {"id": "500e3f2ce4b0e7b6c740c20a", "name": "H Uranusweg", "location": {"address": "Scharnweberstra\u00dfe", "lat": 52.56665994677173, "lng": 13.317581821766893, "labeledLatLngs": [{"label": "display", "lat": 52.56665994677173, "lng": 13.317581821766893}], "distance": 453, "cc": "DE", "city": "Berlin", "state": "Berlin", "country": "Deutschland", "formattedAddress": ["Scharnweberstra\u00dfe", "Berlin", "Deutschland"]}, "categories": [{"id": "52f2ab2ebcbc57f1066b8b4f", "name": "Bus Stop", "pluralName": "Bus Stops", "shortName": "Bus Stop", "icon": {"prefix": "https://ss3.4sqi.net/img/categories_v2/travel/busstation_", "suffix": ".png"}, "primary": true}], "photos": {"count": 0, "groups": []}}, "referralId": "e-0-500e3f2ce4b0e7b6c740c20a-14"}, {"reasons": {"count": 0, "items": [{"summary": "This spot is popular", "type": "general", "reasonName": "globalInteractionReason"}]}, "venue": {"id": "4b7bc5f4f964a5209e6d2fe3", "name": "Robben & Wientjes", "location": {"address": "Scharnweberstr. 23", "crossStreet": "Kurt-Schumacher-Pl.", "lat": 52.564700491916845, "lng": 13.325841256789314, "labeledLatLngs": [{"label": "display", "lat": 52.564700491916845, "lng": 13.325841256789314}], "distance": 833, "postalCode": "13405", "cc": "DE", "city": "Berlin", "state": "Berlin", "country": "Deutschland", "formattedAddress": ["Scharnweberstr. 23 (Kurt-Schumacher-Pl.)", "13405 Berlin", "Deutschland"]}, "categories": [{"id": "4bf58dd8d48988d1ef941735", "name": "Rental Car Location", "pluralName": "Rental Car Locations", "shortName": "Rental Car", "icon": {"prefix": "https://ss3.4sqi.net/img/categories_v2/shops/airport_rentalcar_", "suffix": ".png"}, "primary": true}], "photos": {"count": 0, "groups": []}}, "referralId": "e-0-4b7bc5f4f964a5209e6d2fe3-15"}, {"reasons": {"count": 0, "items": [{"summary": "This spot is popular", "type": "general", "reasonName": "globalInteractionReason"}]}, "venue": {"id": "4d544ac9a05c37049eaeaa87", "name": "Doreedos", "location": {"address": "Kurt-Schumacher-Damm 3", "lat": 52.56382346083578, "lng": 13.327025563678902, "labeledLatLngs": [{"label": "display", "lat": 52.56382346083578, "lng": 13.327025563678902}], "distance": 959, "postalCode": "13405", "cc": "DE", "city": "Berlin", "state": "Berlin", "country": "Deutschland", "formattedAddress": ["Kurt-Schumacher-Damm 3", "13405 Berlin", "Deutschland"]}, "categories": [{"id": "4bf58dd8d48988d1cc941735", "name": "Steakhouse", "pluralName": "Steakhouses", "shortName": "Steakhouse", "icon": {"prefix": "https://ss3.4sqi.net/img/categories_v2/food/steakhouse_", "suffix": ".png"}, "primary": true}], "photos": {"count": 0, "groups": []}}, "referralId": "e-0-4d544ac9a05c37049eaeaa87-16"}, {"reasons": {"count": 0, "items": [{"summary": "This spot is popular", "type": "general", "reasonName": "globalInteractionReason"}]}, "venue": {"id": "4fc7d47e7b0cd203d1054e6b", "name": "Sports- & Hockey Store", "location": {"address": "Antonienstra\u00dfe 1", "lat": 52.56818619595272, "lng": 13.310816287994385, "labeledLatLngs": [{"label": "display", "lat": 52.56818619595272, "lng": 13.310816287994385}], "distance": 589, "postalCode": "13403", "cc": "DE", "city": "Berlin", "state": "Berlin", "country": "Deutschland", "formattedAddress": ["Antonienstra\u00dfe 1", "13403 Berlin", "Deutschland"]}, "categories": [{"id": "4bf58dd8d48988d1f2941735", "name": "Sporting Goods Shop", "pluralName": "Sporting Goods Shops", "shortName": "Sporting Goods", "icon": {"prefix": "https://ss3.4sqi.net/img/categories_v2/shops/sports_outdoors_", "suffix": ".png"}, "primary": true}], "photos": {"count": 0, "groups": []}}, "referralId": "e-0-4fc7d47e7b0cd203d1054e6b-17"}, {"reasons": {"count": 0, "items": [{"summary": "This spot is popular", "type": "general", "reasonName": "globalInteractionReason"}]}, "venue": {"id": "5603c521498e00dc75db5381", "name": "TOTAL Tankstelle", "location": {"address": "Eichborndamm 91", "lat": 52.57629, "lng": 13.31464, "labeledLatLngs": [{"label": "display", "lat": 52.57629, "lng": 13.31464}], "distance": 673, "postalCode": "13403", "cc": "DE", "city": "Berlin", "state": "Berlin", "country": "Deutschland", "formattedAddress": ["Eichborndamm 91", "13403 Berlin", "Deutschland"]}, "categories": [{"id": "4bf58dd8d48988d113951735", "name": "Gas Station", "pluralName": "Gas Stations", "shortName": "Gas Station", "icon": {"prefix": "https://ss3.4sqi.net/img/categories_v2/shops/gas_", "suffix": ".png"}, "primary": true}], "photos": {"count": 0, "groups": []}, "venuePage": {"id": "450649347"}}, "referralId": "e-0-5603c521498e00dc75db5381-18"}, {"reasons": {"count": 0, "items": [{"summary": "This spot is popular", "type": "general", "reasonName": "globalInteractionReason"}]}, "venue": {"id": "4dc0201481545e1cc7dd2409", "name": "B1 Discount Markt", "location": {"address": "Waldstr.", "lat": 52.57484628054403, "lng": 13.32686150138177, "labeledLatLngs": [{"label": "display", "lat": 52.57484628054403, "lng": 13.32686150138177}], "distance": 731, "cc": "DE", "city": "Berlin", "state": "Berlin", "country": "Deutschland", "formattedAddress": ["Waldstr.", "Berlin", "Deutschland"]}, "categories": [{"id": "4bf58dd8d48988d112951735", "name": "Hardware Store", "pluralName": "Hardware Stores", "shortName": "Hardware", "icon": {"prefix": "https://ss3.4sqi.net/img/categories_v2/shops/hardware_", "suffix": ".png"}, "primary": true}], "photos": {"count": 0, "groups": []}}, "referralId": "e-0-4dc0201481545e1cc7dd2409-19"}, {"reasons": {"count": 0, "items": [{"summary": "This spot is popular", "type": "general", "reasonName": "globalInteractionReason"}]}, "venue": {"id": "4cd701d2b2a4370402118844", "name": "S Eichborndamm", "location": {"address": "Eichborndamm", "lat": 52.577693027319846, "lng": 13.316588401794434, "labeledLatLngs": [{"label": "display", "lat": 52.577693027319846, "lng": 13.316588401794434}], "distance": 788, "postalCode": "13403", "cc": "DE", "city": "Berlin", "state": "Berlin", "country": "Deutschland", "formattedAddress": ["Eichborndamm", "13403 Berlin", "Deutschland"]}, "categories": [{"id": "4bf58dd8d48988d1fc931735", "name": "Light Rail Station", "pluralName": "Light Rail Stations", "shortName": "Light Rail", "icon": {"prefix": "https://ss3.4sqi.net/img/categories_v2/travel/lightrail_", "suffix": ".png"}, "primary": true}], "photos": {"count": 0, "groups": []}}, "referralId": "e-0-4cd701d2b2a4370402118844-20"}, {"reasons": {"count": 0, "items": [{"summary": "This spot is popular", "type": "general", "reasonName": "globalInteractionReason"}]}, "venue": {"id": "4e29a9fcd164bfc24f2f5651", "name": "Netto Marken-Discount", "location": {"address": "Waldstr. 19", "lat": 52.5767234, "lng": 13.3257838, "labeledLatLngs": [{"label": "display", "lat": 52.5767234, "lng": 13.3257838}], "distance": 832, "postalCode": "13403", "cc": "DE", "city": "Berlin", "state": "Berlin", "country": "Deutschland", "formattedAddress": ["Waldstr. 19", "13403 Berlin-Reinickendorf", "Deutschland"]}, "categories": [{"id": "52f2ab2ebcbc57f1066b8b46", "name": "Supermarket", "pluralName": "Supermarkets", "shortName": "Supermarket", "icon": {"prefix": "https://ss3.4sqi.net/img/categories_v2/shops/food_grocery_", "suffix": ".png"}, "primary": true}], "photos": {"count": 0, "groups": []}, "venuePage": {"id": "542029739"}}, "referralId": "e-0-4e29a9fcd164bfc24f2f5651-21"}, {"reasons": {"count": 0, "items": [{"summary": "This spot is popular", "type": "general", "reasonName": "globalInteractionReason"}]}, "venue": {"id": "4dd00b2cd22deadedd79cad0", "name": "Tunnel Flughafen Tegel", "location": {"address": "BAB 111", "lat": 52.56871011215632, "lng": 13.305513898188343, "labeledLatLngs": [{"label": "display", "lat": 52.56871011215632, "lng": 13.305513898188343}], "distance": 904, "postalCode": "13405", "cc": "DE", "city": "Berlin", "state": "Berlin", "country": "Deutschland", "formattedAddress": ["BAB 111", "13405 Berlin", "Deutschland"]}, "categories": [{"id": "52f2ab2ebcbc57f1066b8b4a", "name": "Tunnel", "pluralName": "Tunnels", "shortName": "Tunnel", "icon": {"prefix": "https://ss3.4sqi.net/img/categories_v2/travel/default_", "suffix": ".png"}, "primary": true}], "photos": {"count": 0, "groups": []}}, "referralId": "e-0-4dd00b2cd22deadedd79cad0-22"}, {"reasons": {"count": 0, "items": [{"summary": "This spot is popular", "type": "general", "reasonName": "globalInteractionReason"}]}, "venue": {"id": "518bfdd5498e04ef5f67b951", "name": "Good Morning Berlin City West", "location": {"address": "K\u00f6gelstr. 12-13", "lat": 52.56778334014063, "lng": 13.33083239298178, "labeledLatLngs": [{"label": "display", "lat": 52.56778334014063, "lng": 13.33083239298178}], "distance": 897, "postalCode": "13403", "cc": "DE", "city": "Berlin", "state": "Berlin", "country": "Deutschland", "formattedAddress": ["K\u00f6gelstr. 12-13", "13403 Berlin", "Deutschland"]}, "categories": [{"id": "4bf58dd8d48988d1fa931735", "name": "Hotel", "pluralName": "Hotels", "shortName": "Hotel", "icon": {"prefix": "https://ss3.4sqi.net/img/categories_v2/travel/hotel_", "suffix": ".png"}, "primary": true}], "photos": {"count": 0, "groups": []}, "venuePage": {"id": "176895382"}}, "referralId": "e-0-518bfdd5498e04ef5f67b951-23"}, {"reasons": {"count": 0, "items": [{"summary": "This spot is popular", "type": "general", "reasonName": "globalInteractionReason"}]}, "venue": {"id": "5a0864004420d83e4ca38bad", "name": "Sch\u00e4fer's - Caf\u00e9 am Kutschi", "location": {"lat": 52.564152, "lng": 13.328546, "labeledLatLngs": [{"label": "display", "lat": 52.564152, "lng": 13.328546}], "distance": 997, "cc": "DE", "city": "Berlin", "state": "Berlin", "country": "Deutschland", "formattedAddress": ["Berlin", "Deutschland"]}, "categories": [{"id": "4bf58dd8d48988d16a941735", "name": "Bakery", "pluralName": "Bakeries", "shortName": "Bakery", "icon": {"prefix": "https://ss3.4sqi.net/img/categories_v2/food/bakery_", "suffix": ".png"}, "primary": true}], "photos": {"count": 0, "groups": []}}, "referralId": "e-0-5a0864004420d83e4ca38bad-24"}, {"reasons": {"count": 0, "items": [{"summary": "This spot is popular", "type": "general", "reasonName": "globalInteractionReason"}]}, "venue": {"id": "50938361e4b052b2c7d2e8d0", "name": "Kutschi Eck D\u00f6ner Kebab", "location": {"address": "Kurt-Schumacher-Damm", "crossStreet": "Stra\u00dfe 462", "lat": 52.56333269501136, "lng": 13.326934926537888, "labeledLatLngs": [{"label": "display", "lat": 52.56333269501136, "lng": 13.326934926537888}], "distance": 1000, "cc": "DE", "city": "Berlin", "state": "Berlin", "country": "Deutschland", "formattedAddress": ["Kurt-Schumacher-Damm (Stra\u00dfe 462)", "Berlin", "Deutschland"]}, "categories": [{"id": "5283c7b4e4b094cb91ec88d8", "name": "Doner Restaurant", "pluralName": "Doner Restaurants", "shortName": "Doner", "icon": {"prefix": "https://ss3.4sqi.net/img/categories_v2/food/turkish_", "suffix": ".png"}, "primary": true}], "photos": {"count": 0, "groups": []}}, "referralId": "e-0-50938361e4b052b2c7d2e8d0-25"}]