[{"reasons": {"count": 0, "items": [{"summary": "This spot is popular", "type": "general", "reasonName": "globalInteractionReason"}]}, "venue": {"id": "4b6eaf37f964a52082c62ce3", "name": "Rasas", "location": {"address": "Bayernallee 42", "lat": 52.51209979648858, "lng": 13.264463509284983, "labeledLatLngs": [{"label": "display", "lat": 52.51209979648858, "lng": 13.264463509284983}], "distance": 537, "postalCode": "14052", "cc": "DE", "city": "Berlin", "state": "Berlin", "country": "Deutschland", "formattedAddress": ["Bayernallee 42", "14052 Berlin", "Deutschland"]}, "categories": [{"id": "4bf58dd8d48988d10f941735", "name": "Indian Restaurant", "pluralName": "Indian Restaurants", "shortName": "Indian", "icon": {"prefix": "https://ss3.4sqi.net/img/categories_v2/food/indian_", "suffix": ".png"}, "primary": true}], "photos": {"count": 0, "groups": []}}, "referralId": "e-0-4b6eaf37f964a52082c62ce3-0"}, {"reasons": {"count": 0, "items": [{"summary": "This spot is popular", "type": "general", "reasonName": "globalInteractionReason"}]}, "venue": {"id": "4bb776933db7b7134bfb1f9a", "name": "Piccolo Mondo", "location": {"address": "Reichsstr. 9", "lat": 52.51235548979211, "lng": 13.267806432067728, "labeledLatLngs": [{"label": "display", "lat": 52.51235548979211, "lng": 13.267806432067728}], "distance": 408, "postalCode": "14052", "cc": "DE", "city": "Berlin", "state": "Berlin", "country": "Deutschland", "formattedAddress": ["Reichsstr. 9", "14052 Berlin", "Deutschland"]}, "categories": [{"id": "4bf58dd8d48988d110941735", "name": "Italian Restaurant", "pluralName": "Italian Restaurants", "shortName": "Italian", "icon": {"prefix": "https://ss3.4sqi.net/img/categories_v2/food/italian_", "suffix": ".png"}, "primary": true}], "photos": {"count": 0, "groups": []}}, "referralId": "e-0-4bb776933db7b7134bfb1f9a-1"}, {"reasons": {"count": 0, "items": [{"summary": "This spot is popular", "type": "general", "reasonName": "globalInteractionReason"}]}, "venue": {"id": "4df08df088775c5de1276f24", "name": "BIO COMPANY", "location": {"address": "Reichsstr. 10", "lat": 52.512500872153744, "lng": 13.26748890695235, "labeledLatLngs": [{"label": "display", "lat": 52.512500872153744, "lng": 13.26748890695235}], "distance": 399, "postalCode": "14052", "cc": "DE", "city": "Berlin", "state": "Berlin", "country": "Deutschland", "formattedAddress": ["Reichsstr. 10", "14052 Berlin", "Deutschland"]}, "categories": [{"id": "52f2ab2ebcbc57f1066b8b45", "name": "Organic Grocery", "pluralName": "Organic Groceries", "shortName": "Organic Grocery", "icon": {"prefix": "https://ss3.4sqi.net/img/categories_v2/shops/food_grocery_", "suffix": ".png"}, "primary": true}], "photos": {"count": 0, "groups": []}, "venuePage": {"id": "473947406"}}, "referralId": "e-0-4df08df088775c5de1276f24-2"}, {"reasons": {"count": 0, "items": [{"summary": "This spot is popular", "type": "general", "reasonName": "globalInteractionReason"}]}, "venue": {"id": "4e57eeb818382ada067477f9", "name": "Steakhaus MENDOZA", "location": {"address": "Spandauer Damm 157", "lat": 52.51969061893842, "lng": 13.270528363896988, "labeledLatLngs": [{"label": "display", "lat": 52.51969061893842, "lng": 13.270528363896988}], "distance": 428, "postalCode": "14050", "cc": "DE", "city": "Berlin", "state": "Berlin", "country": "Deutschland", "formattedAddress": ["Spandauer Damm 157", "14050 Berlin", "Deutschland"]}, "categories": [{"id": "4bf58dd8d48988d107941735", "name": "Argentinian Restaurant", "pluralName": "Argentinian Restaurants", "shortName": "Argentinian", "icon": {"prefix": "https://ss3.4sqi.net/img/categories_v2/food/argentinian_", "suffix": ".png"}, "primary": true}], "photos": {"count": 0, "groups": []}}, "referralId": "e-0-4e57eeb818382ada067477f9-3"}, {"reasons": {"count": 0, "items": [{"summary": "This spot is popular", "type": "general", "reasonName": "globalInteractionReason"}]}, "venue": {"id": "4b59fadaf964a5206ba528e3", "name": "Westend Klause", "location": {"address": "Reichstrasse 80 B", "crossStreet": "Olympische Allee", "lat": 52.516494, "lng": 13.260109, "labeledLatLngs": [{"label": "display", "lat": 52.516494, "lng": 13.260109}], "distance": 630, "postalCode": "14052", "cc": "DE", "city": "Berlin", "state": "Berlin", "country": "Deutschland", "formattedAddress": ["Reichstrasse 80 B (Olympische Allee)", "14052 Berlin", "Deutschland"]}, "categories": [{"id": "4bf58dd8d48988d116941735", "name": "Bar", "pluralName": "Bars", "shortName": "Bar", "icon": {"prefix": "https://ss3.4sqi.net/img/categories_v2/nightlife/pub_", "suffix": ".png"}, "primary": true}], "photos": {"count": 0, "groups": []}}, "referralId": "e-0-4b59fadaf964a5206ba528e3-4"}, {"reasons": {"count": 0, "items": [{"summary": "This spot is popular", "type": "general", "reasonName": "globalInteractionReason"}]}, "venue": {"id": "4b851a2af964a520164c31e3", "name": "Wiener Conditorei Caffeehaus am Steubenplatz", "location": {"address": "Reichsstr. 81", "lat": 52.51607075125315, "lng": 13.260251416623968, "labeledLatLngs": [{"label": "display", "lat": 52.51607075125315, "lng": 13.260251416623968}], "distance": 617, "postalCode": "14052", "cc": "DE", "city": "Berlin", "state": "Berlin", "country": "Deutschland", "formattedAddress": ["Reichsstr. 81", "14052 Berlin", "Deutschland"]}, "categories": [{"id": "4bf58dd8d48988d16d941735", "name": "Caf\u00e9", "pluralName": "Caf\u00e9s", "shortName": "Caf\u00e9", "icon": {"prefix": "https://ss3.4sqi.net/img/categories_v2/food/cafe_", "suffix": ".png"}, "primary": true}], "photos": {"count": 0, "groups": []}}, "referralId": "e-0-4b851a2af964a520164c31e3-5"}, {"reasons": {"count": 0, "items": [{"summary": "This spot is popular", "type": "general", "reasonName": "globalInteractionReason"}]}, "venue": {"id": "4c459ad62d3ec9b6c96d30ae", "name": "Mateo-Looi Sushi Restaurant", "location": {"address": "Reichsstra\u00dfe 102", "crossStreet": "Kastanienallee", "lat": 52.5115295631979, "lng": 13.268427952315353, "labeledLatLngs": [{"label": "display", "lat": 52.5115295631979, "lng": 13.268427952315353}], "distance": 491, "postalCode": "14052", "cc": "DE", "city": "Berlin", "state": "Berlin", "country": "Deutschland", "formattedAddress": ["Reichsstra\u00dfe 102 (Kastanienallee)", "14052 Berlin", "Deutschland"]}, "categories": [{"id": "4bf58dd8d48988d145941735", "name": "Chinese Restaurant", "pluralName": "Chinese Restaurants", "shortName": "Chinese", "icon": {"prefix": "https://ss3.4sqi.net/img/categories_v2/food/asian_", "suffix": ".png"}, "primary": true}], "photos": {"count": 0, "groups": []}}, "referralId": "e-0-4c459ad62d3ec9b6c96d30ae-6"}, {"reasons": {"count": 0, "items": [{"summary": "This spot is popular", "type": "general", "reasonName": "globalInteractionReason"}]}, "venue": {"id": "4adcda89f964a520b34921e3", "name": "Die W\u00fchlm\u00e4use", "location": {"address": "Pommernallee 2-4", "crossStreet": "Theodor-Heuss-Platz", "lat": 52.50882953708777, "lng": 13.27073335647583, "labeledLatLngs": [{"label": "display", "lat": 52.50882953708777, "lng": 13.27073335647583}], "distance": 793, "postalCode": "14052", "cc": "DE", "city": "Berlin", "state": "Berlin", "country": "Deutschland", "formattedAddress": ["Pommernallee 2-4 (Theodor-Heuss-Platz)", "14052 Berlin", "Deutschland"]}, "categories": [{"id": "4bf58dd8d48988d18e941735", "name": "Comedy Club", "pluralName": "Comedy Clubs", "shortName": "Comedy Club", "icon": {"prefix": "https://ss3.4sqi.net/img/categories_v2/arts_entertainment/comedyclub_", "suffix": ".png"}, "primary": true}], "photos": {"count": 0, "groups": []}}, "referralId": "e-0-4adcda89f964a520b34921e3-7"}, {"reasons": {"count": 0, "items": [{"summary": "This spot is popular", "type": "general", "reasonName": "globalInteractionReason"}]}, "venue": {"id": "4bcb0c15511f9521cbaab0c7", "name": "Hotel Villa Kastania", "location": {"lat": 52.510310204768956, "lng": 13.26822290270997, "labeledLatLngs": [{"label": "display", "lat": 52.510310204768956, "lng": 13.26822290270997}], "distance": 627, "cc": "DE", "city": "Berlin", "state": "Berlin", "country": "Deutschland", "formattedAddress": ["Berlin", "Deutschland"]}, "categories": [{"id": "4bf58dd8d48988d1fa931735", "name": "Hotel", "pluralName": "Hotels", "shortName": "Hotel", "icon": {"prefix": "https://ss3.4sqi.net/img/categories_v2/travel/hotel_", "suffix": ".png"}, "primary": true}], "photos": {"count": 0, "groups": []}}, "referralId": "e-0-4bcb0c15511f9521cbaab0c7-8"}, {"reasons": {"count": 0, "items": [{"summary": "This spot is popular", "type": "general", "reasonName": "globalInteractionReason"}]}, "venue": {"id": "4be5b31dcf200f474794133c", "name": "Block House", "location": {"address": "Theodor-Heuss-Platz 12", "lat": 52.50939337436111, "lng": 13.27095796347855, "labeledLatLngs": [{"label": "display", "lat": 52.50939337436111, "lng": 13.27095796347855}], "distance": 732, "postalCode": "14052", "cc": "DE", "city": "Berlin", "state": "Berlin", "country": "Deutschland", "formattedAddress": ["Theodor-Heuss-Platz 12", "14052 Berlin", "Deutschland"]}, "categories": [{"id": "4bf58dd8d48988d1cc941735", "name": "Steakhouse", "pluralName": "Steakhouses", "shortName": "Steakhouse", "icon": {"prefix": "https://ss3.4sqi.net/img/categories_v2/food/steakhouse_", "suffix": ".png"}, "primary": true}], "photos": {"count": 0, "groups": []}}, "referralId": "e-0-4be5b31dcf200f474794133c-9"}, {"reasons": {"count": 0, "items": [{"summary": "This spot is popular", "type": "general", "reasonName": "globalInteractionReason"}]}, "venue": {"id": "58cfbd3c9ab6631b5fdb1a92", "name": "REWE CITY", "location": {"address": "Theodor-Heuss-Platz 6", "lat": 52.51017102, "lng": 13.27273302, "labeledLatLngs": [{"label": "display", "lat": 52.51017102, "lng": 13.27273302}], "distance": 677, "postalCode": "14052", "cc": "DE", "city": "Berlin", "state": "Berlin", "country": "Deutschland", "formattedAddress": ["Theodor-Heuss-Platz 6", "14052 Berlin", "Deutschland"]}, "categories": [{"id": "52f2ab2ebcbc57f1066b8b46", "name": "Supermarket", "pluralName": "Supermarkets", "shortName": "Supermarket", "icon": {"prefix": "https://ss3.4sqi.net/img/categories_v2/shops/food_grocery_", "suffix": ".png"}, "primary": true}], "photos": {"count": 0, "groups": []}}, "referralId": "e-0-58cfbd3c9ab6631b5fdb1a92-10"}, {"reasons": {"count": 0, "items": [{"summary": "This spot is popular", "type": "general", "reasonName": "globalInteractionReason"}]}, "venue": {"id": "4c45e283f0bdd13a7597cbcc", "name": "Lindenwirtin", "location": {"lat": 52.51033483725336, "lng": 13.271707068159364, "labeledLatLngs": [{"label": "display", "lat": 52.51033483725336, "lng": 13.271707068159364}], "distance": 640, "cc": "DE", "city": "Berlin", "state": "Berlin", "country": "Deutschland", "formattedAddress": ["Berlin", "Deutschland"]}, "categories": [{"id": "4bf58dd8d48988d10d941735", "name": "German Restaurant", "pluralName": "German Restaurants", "shortName": "German", "icon": {"prefix": "https://ss3.4sqi.net/img/categories_v2/food/german_", "suffix": ".png"}, "primary": true}], "photos": {"count": 0, "groups": []}}, "referralId": "e-0-4c45e283f0bdd13a7597cbcc-11"}, {"reasons": {"count": 0, "items": [{"summary": "This spot is popular", "type": "general", "reasonName": "globalInteractionReason"}]}, "venue": {"id": "4e4eb5981495fc2ca3f49472", "name": "La Victoria", "location": {"address": "Reichsstr. 3", "lat": 52.51057943416563, "lng": 13.270550398480966, "labeledLatLngs": [{"label": "display", "lat": 52.51057943416563, "lng": 13.270550398480966}], "distance": 598, "postalCode": "14052", "cc": "DE", "city": "Berlin", "state": "Berlin", "country": "Deutschland", "formattedAddress": ["Reichsstr. 3", "14052 Berlin", "Deutschland"]}, "categories": [{"id": "4bf58dd8d48988d110941735", "name": "Italian Restaurant", "pluralName": "Italian Restaurants", "shortName": "Italian", "icon": {"prefix": "https://ss3.4sqi.net/img/categories_v2/food/italian_", "suffix": ".png"}, "primary": true}], "photos": {"count": 0, "groups": []}}, "referralId": "e-0-4e4eb5981495fc2ca3f49472-12"}, {"reasons": {"count": 0, "items": [{"summary": "This spot is popular", "type": "general", "reasonName": "globalInteractionReason"}]}, "venue": {"id": "4f7d477ae4b026d7f19d7860", "name": "Rossmann", "location": {"address": "Reichsstra\u00dfe 85", "lat": 52.51527688160554, "lng": 13.262164141438525, "labeledLatLngs": [{"label": "display", "lat": 52.51527688160554, "lng": 13.262164141438525}], "distance": 492, "postalCode": "14052", "cc": "DE", "city": "Berlin", "state": "Berlin", "country": "Deutschland", "formattedAddress": ["Reichsstra\u00dfe 85", "14052 Berlin", "Deutschland"]}, "categories": [{"id": "5745c2e4498e11e7bccabdbd", "name": "Drugstore", "pluralName": "Drugstores", "shortName": "Drugstore", "icon": {"prefix": "https://ss3.4sqi.net/img/categories_v2/shops/pharmacy_", "suffix": ".png"}, "primary": true}], "photos": {"count": 0, "groups": []}}, "referralId": "e-0-4f7d477ae4b026d7f19d7860-13"}, {"reasons": {"count": 0, "items": [{"summary": "This spot is popular", "type": "general", "reasonName": "globalInteractionReason"}]}, "venue": {"id": "4c7bd5d7a8683704987c174d", "name": "Das Bowling Studio", "location": {"address": "Kaiserdamm 80/81", "lat": 52.50972452908758, "lng": 13.277372469135384, "labeledLatLngs": [{"label": "display", "lat": 52.50972452908758, "lng": 13.277372469135384}], "distance": 876, "postalCode": "14057", "cc": "DE", "city": "Berlin", "state": "Berlin", "country": "Deutschland", "formattedAddress": ["Kaiserdamm 80/81", "14057 Berlin", "Deutschland"]}, "categories": [{"id": "4bf58dd8d48988d1e4931735", "name": "Bowling Alley", "pluralName": "Bowling Alleys", "shortName": "Bowling Alley", "icon": {"prefix": "https://ss3.4sqi.net/img/categories_v2/arts_entertainment/bowling_", "suffix": ".png"}, "primary": true}], "photos": {"count": 0, "groups": []}}, "referralId": "e-0-4c7bd5d7a8683704987c174d-14"}, {"reasons": {"count": 0, "items": [{"summary": "This spot is popular", "type": "general", "reasonName": "globalInteractionReason"}]}, "venue": {"id": "512cbde3e4b04a7a2fae27b2", "name": "My Cottage", "location": {"address": "Haeselerstr. 20", "lat": 52.513839, "lng": 13.278434, "labeledLatLngs": [{"label": "display", "lat": 52.513839, "lng": 13.278434}], "distance": 656, "postalCode": "14050", "cc": "DE", "neighborhood": "Neu-Westend", "city": "Berlin", "state": "Berlin", "country": "Deutschland", "formattedAddress": ["Haeselerstr. 20", "14050 Berlin", "Deutschland"]}, "categories": [{"id": "4bf58dd8d48988d16d941735", "name": "Caf\u00e9", "pluralName": "Caf\u00e9s", "shortName": "Caf\u00e9", "icon": {"prefix": "https://ss3.4sqi.net/img/categories_v2/food/cafe_", "suffix": ".png"}, "primary": true}], "photos": {"count": 0, "groups": []}}, "referralId": "e-0-512cbde3e4b04a7a2fae27b2-15"}, {"reasons": {"count": 0, "items": [{"summary": "This spot is popular", "type": "general", "reasonName": "globalInteractionReason"}]}, "venue": {"id": "4f2a9437e4b09f4f377bb622", "name": "Prime Chicken", "location": {"address": "Reichsstr. 1", "lat": 52.51023864746094, "lng": 13.271011352539062, "labeledLatLngs": [{"label": "display", "lat": 52.51023864746094, "lng": 13.271011352539062}], "distance": 640, "postalCode": "14052", "cc": "DE", "city": "Berlin", "state": "Berlin", "country": "Deutschland", "formattedAddress": ["Reichsstr. 1", "14052 Berlin", "Deutschland"]}, "categories": [{"id": "4d4ae6fc7a7b7dea34424761", "name": "Fried Chicken Joint", "pluralName": "Fried Chicken Joints", "shortName": "Fried Chicken", "icon": {"prefix": "https://ss3.4sqi.net/img/categories_v2/food/friedchicken_", "suffix": ".png"}, "primary": true}], "photos": {"count": 0, "groups": []}}, "referralId": "e-0-4f2a9437e4b09f4f377bb622-16"}, {"reasons": {"count": 0, "items": [{"summary": "This spot is popular", "type": "general", "reasonName": "globalInteractionReason"}]}, "venue": {"id": "5028f4b9e4b090b4d6a77638", "name": "Prime Kebap", "location": {"lat": 52.51026227782016, "lng": 13.271246157794886, "labeledLatLngs": [{"label": "display", "lat": 52.51026227782016, "lng": 13.271246157794886}], "distance": 640, "cc": "DE", "city": "Berlin", "state": "Berlin", "country": "Deutschland", "formattedAddress": ["Charlottenburg", "Deutschland"]}, "categories": [{"id": "4bf58dd8d48988d10b941735", "name": "Falafel Restaurant", "pluralName": "Falafel Restaurants", "shortName": "Falafel", "icon": {"prefix": "https://ss3.4sqi.net/img/categories_v2/food/falafel_", "suffix": ".png"}, "primary": true}], "photos": {"count": 0, "groups": []}}, "referralId": "e-0-5028f4b9e4b090b4d6a77638-17"}, {"reasons": {"count": 0, "items": [{"summary": "This spot is popular", "type": "general", "reasonName": "globalInteractionReason"}]}, "venue": {"id": "5a328aa7112c6c3d6485ad45", "name": "EDEKA K\u00f6nigin-Elisabeth-Stra\u00dfe", "location": {"address": "K\u00f6nigin-Elisabeth-Str. 9a", "lat": 52.511474, "lng": 13.2812401, "labeledLatLngs": [{"label": "display", "lat": 52.511474, "lng": 13.2812401}], "distance": 943, "postalCode": "14059", "cc": "DE", "city": "Berlin", "state": "Berlin", "country": "Deutschland", "formattedAddress": ["K\u00f6nigin-Elisabeth-Str. 9a", "14059 Berlin", "Deutschland"]}, "categories": [{"id": "52f2ab2ebcbc57f1066b8b46", "name": "Supermarket", "pluralName": "Supermarkets", "shortName": "Supermarket", "icon": {"prefix": "https://ss3.4sqi.net/img/categories_v2/shops/food_grocery_", "suffix": ".png"}, "primary": true}], "photos": {"count": 0, "groups": []}, "venuePage": {"id": "555446653"}}, "referralId": "e-0-5a328aa7112c6c3d6485ad45-18"}, {"reasons": {"count": 0, "items": [{"summary": "This spot is popular", "type": "general", "reasonName": "globalInteractionReason"}]}, "venue": {"id": "4c2496e9a852c928524ae36c", "name": "Orchidee", "location": {"address": "Reichsstr. 92", "lat": 52.513589832417374, "lng": 13.264944364095593, "labeledLatLngs": [{"label": "display", "lat": 52.513589832417374, "lng": 13.264944364095593}], "distance": 394, "postalCode": "14052", "cc": "DE", "city": "Berlin", "state": "Berlin", "country": "Deutschland", "formattedAddress": ["Reichsstr. 92", "14052 Berlin", "Deutschland"]}, "categories": [{"id": "4bf58dd8d48988d149941735", "name": "Thai Restaurant", "pluralName": "Thai Restaurants", "shortName": "Thai", "icon": {"prefix": "https://ss3.4sqi.net/img/categories_v2/food/thai_", "suffix": ".png"}, "primary": true}], "photos": {"count": 0, "groups": []}}, "referralId": "e-0-4c2496e9a852c928524ae36c-19"}, {"reasons": {"count": 0, "items": [{"summary": "This spot is popular", "type": "general", "reasonName": "globalInteractionReason"}]}, "venue": {"id": "4beff6c3c601a593c51cc3d1", "name": "Sakura", "location": {"address": "Kaiserdamm 32", "lat": 52.50985846519568, "lng": 13.278296093156117, "labeledLatLngs": [{"label": "display", "lat": 52.50985846519568, "lng": 13.278296093156117}], "distance": 905, "postalCode": "14057", "cc": "DE", "city": "Berlin", "state": "Berlin", "country": "Deutschland", "formattedAddress": ["Kaiserdamm 32", "14057 Berlin", "Deutschland"]}, "categories": [{"id": "4bf58dd8d48988d111941735", "name": "Japanese Restaurant", "pluralName": "Japanese Restaurants", "shortName": "Japanese", "icon": {"prefix": "https://ss3.4sqi.net/img/categories_v2/food/japanese_", "suffix": ".png"}, "primary": true}], "photos": {"count": 0, "groups": []}}, "referralId": "e-0-4beff6c3c601a593c51cc3d1-20"}, {"reasons": {"count": 0, "items": [{"summary": "This spot is popular", "type": "general", "reasonName": "globalInteractionReason"}]}, "venue": {"id": "4bb89823cf2fc9b637a49f02", "name": "Osteria I Due", "location": {"address": "Kaiserdamm 40", "lat": 52.50970734729362, "lng": 13.273932552850338, "labeledLatLngs": [{"label": "display", "lat": 52.50970734729362, "lng": 13.273932552850338}], "distance": 756, "postalCode": "14057", "cc": "DE", "city": "Berlin", "state": "Berlin", "country": "Deutschland", "formattedAddress": ["Kaiserdamm 40", "14057 Berlin", "Deutschland"]}, "categories": [{"id": "55a5a1ebe4b013909087cb7f", "name": "Trattoria/Osteria", "pluralName": "Trattorias/Osterias", "shortName": "Trattoria/Osteria", "icon": {"prefix": "https://ss3.4sqi.net/img/categories_v2/food/italian_", "suffix": ".png"}, "primary": true}], "photos": {"count": 0, "groups": []}}, "referralId": "e-0-4bb89823cf2fc9b637a49f02-21"}, {"reasons": {"count": 0, "items": [{"summary": "This spot is popular", "type": "general", "reasonName": "globalInteractionReason"}]}, "venue": {"id": "4c3f60ff3735be9a7e4c15a4", "name": "JOES Restaurant & Wirtshaus", "location": {"address": "Theodor-Heuss-Platz 10", "lat": 52.50992684172558, "lng": 13.271121149369923, "labeledLatLngs": [{"label": "display", "lat": 52.50992684172558, "lng": 13.271121149369923}], "distance": 676, "postalCode": "14052", "cc": "DE", "city": "Berlin", "state": "Berlin", "country": "Deutschland", "formattedAddress": ["Theodor-Heuss-Platz 10", "14052 Berlin", "Deutschland"]}, "categories": [{"id": "4bf58dd8d48988d10d941735", "name": "German Restaurant", "pluralName": "German Restaurants", "shortName": "German", "icon": {"prefix": "https://ss3.4sqi.net/img/categories_v2/food/german_", "suffix": ".png"}, "primary": true}], "photos": {"count": 0, "groups": []}}, "referralId": "e-0-4c3f60ff3735be9a7e4c15a4-22"}, {"reasons": {"count": 0, "items": [{"summary": "This spot is popular", "type": "general", "reasonName": "globalInteractionReason"}]}, "venue": {"id": "4d7ccae6136bf04d3526658d", "name": "Aral", "location": {"address": "Reichsstr. 13-14", "lat": 52.51352022, "lng": 13.26612799, "labeledLatLngs": [{"label": "display", "lat": 52.51352022, "lng": 13.26612799}], "distance": 344, "postalCode": "14052", "cc": "DE", "city": "Berlin", "state": "Berlin", "country": "Deutschland", "formattedAddress": ["Reichsstr. 13-14", "14052 Berlin", "Deutschland"]}, "categories": [{"id": "4bf58dd8d48988d113951735", "name": "Gas Station", "pluralName": "Gas Stations", "shortName": "Gas Station", "icon": {"prefix": "https://ss3.4sqi.net/img/categories_v2/shops/gas_", "suffix": ".png"}, "primary": true}], "photos": {"count": 0, "groups": []}, "venuePage": {"id": "587942768"}}, "referralId": "e-0-4d7ccae6136bf04d3526658d-23"}, {"reasons": {"count": 0, "items": [{"summary": "This spot is popular", "type": "general", "reasonName": "globalInteractionReason"}]}, "venue": {"id": "4c0803adbbc676b073de45d5", "name": "Queens 45bc", "location": {"address": "K\u00f6nigin-elisabeth-str. 45", "lat": 52.514246710502505, "lng": 13.280679500119293, "labeledLatLngs": [{"label": "display", "lat": 52.514246710502505, "lng": 13.280679500119293}], "distance": 788, "postalCode": "14059", "cc": "DE", "city": "Berlin", "state": "Berlin", "country": "Deutschland", "formattedAddress": ["K\u00f6nigin-elisabeth-str. 45", "14059 Berlin", "Deutschland"]}, "categories": [{"id": "4bf58dd8d48988d18e941735", "name": "Comedy Club", "pluralName": "Comedy Clubs", "shortName": "Comedy Club", "icon": {"prefix": "https://ss3.4sqi.net/img/categories_v2/arts_entertainment/comedyclub_", "suffix": ".png"}, "primary": true}], "photos": {"count": 0, "groups": []}}, "referralId": "e-0-4c0803adbbc676b073de45d5-24"}, {"reasons": {"count": 0, "items": [{"summary": "This spot is popular", "type": "general", "reasonName": "globalInteractionReason"}]}, "venue": {"id": "4b23f791f964a520075e24e3", "name": "Lin's Mandarin", "location": {"address": "Spandauer Damm 181", "lat": 52.520722720661894, "lng": 13.265213343696031, "labeledLatLngs": [{"label": "display", "lat": 52.520722720661894, "lng": 13.265213343696031}], "distance": 605, "postalCode": "14050", "cc": "DE", "city": "Berlin", "state": "Berlin", "country": "Deutschland", "formattedAddress": ["Spandauer Damm 181", "14050 Berlin", "Deutschland"]}, "categories": [{"id": "4bf58dd8d48988d145941735", "name": "Chinese Restaurant", "pluralName": "Chinese Restaurants", "shortName": "Chinese", "icon": {"prefix": "https://ss3.4sqi.net/img/categories_v2/food/asian_", "suffix": ".png"}, "primary": true}], "photos": {"count": 0, "groups": []}}, "referralId": "e-0-4b23f791f964a520075e24e3-25"}, {"reasons": {"count": 0, "items": [{"summary": "This spot is popular", "type": "general", "reasonName": "globalInteractionReason"}]}, "venue": {"id": "4ec8f133cc21b428e4c2eb67", "name": "Tutti Gusti", "location": {"address": "Heerstr. 11", "lat": 52.508859768234736, "lng": 13.268342825096253, "labeledLatLngs": [{"label": "display", "lat": 52.508859768234736, "lng": 13.268342825096253}], "distance": 787, "postalCode": "14052", "cc": "DE", "city": "Berlin", "state": "Berlin", "country": "Deutschland", "formattedAddress": ["Heerstr. 11", "14052 Berlin", "Deutschland"]}, "categories": [{"id": "4bf58dd8d48988d110941735", "name": "Italian Restaurant", "pluralName": "Italian Restaurants", "shortName": "Italian", "icon": {"prefix": "https://ss3.4sqi.net/img/categories_v2/food/italian_", "suffix": ".png"}, "primary": true}], "photos": {"count": 0, "groups": []}, "venuePage": {"id": "334693754"}}, "referralId": "e-0-4ec8f133cc21b428e4c2eb67-26"}, {"reasons": {"count": 0, "items": [{"summary": "This spot is popular", "type": "general", "reasonName": "globalInteractionReason"}]}, "venue": {"id": "4db9542a4b22a2fe44ef216c", "name": "Theodor-Heuss-Platz", "location": {"address": "Kaiserdamm", "crossStreet": "Heerstr.", "lat": 52.50950865077948, "lng": 13.272407054901123, "labeledLatLngs": [{"label": "display", "lat": 52.50950865077948, "lng": 13.272407054901123}], "distance": 741, "postalCode": "14052", "cc": "DE", "city": "Berlin", "state": "Berlin", "country": "Deutschland", "formattedAddress": ["Kaiserdamm (Heerstr.)", "14052 Berlin", "Deutschland"]}, "categories": [{"id": "4bf58dd8d48988d164941735", "name": "Plaza", "pluralName": "Plazas", "shortName": "Plaza", "icon": {"prefix": "https://ss3.4sqi.net/img/categories_v2/parks_outdoors/plaza_", "suffix": ".png"}, "primary": true}], "photos": {"count": 0, "groups": []}}, "referralId": "e-0-4db9542a4b22a2fe44ef216c-27"}, {"reasons": {"count": 0, "items": [{"summary": "This spot is popular", "type": "general", "reasonName": "globalInteractionReason"}]}, "venue": {"id": "4dbbad2e1e72b351ca9fd03e", "name": "Queens Park Hotel", "location": {"address": "K\u00f6nigin-Elisabeth-Str.47a", "lat": 52.514315610454524, "lng": 13.27974557876587, "labeledLatLngs": [{"label": "display", "lat": 52.514315610454524, "lng": 13.27974557876587}], "distance": 725, "postalCode": "14059", "cc": "DE", "city": "Berlin", "state": "Berlin", "country": "Deutschland", "formattedAddress": ["K\u00f6nigin-Elisabeth-Str.47a", "14059 Berlin", "Deutschland"]}, "categories": [{"id": "4bf58dd8d48988d1fa931735", "name": "Hotel", "pluralName": "Hotels", "shortName": "Hotel", "icon": {"prefix": "https://ss3.4sqi.net/img/categories_v2/travel/hotel_", "suffix": ".png"}, "primary": true}], "photos": {"count": 0, "groups": []}}, "referralId": "e-0-4dbbad2e1e72b351ca9fd03e-28"}, {"reasons": {"count": 0, "items": [{"summary": "This spot is popular", "type": "general", "reasonName": "globalInteractionReason"}]}, "venue": {"id": "4dbb230b6e815ab0de63c743", "name": "Anfora", "location": {"address": "Spandauer Damm 112", "lat": 52.51857706292357, "lng": 13.280389520614309, "labeledLatLngs": [{"label": "display", "lat": 52.51857706292357, "lng": 13.280389520614309}], "distance": 804, "postalCode": "14059", "cc": "DE", "city": "Berlin", "state": "Berlin", "country": "Deutschland", "formattedAddress": ["Spandauer Damm 112", "14059 Berlin", "Deutschland"]}, "categories": [{"id": "4bf58dd8d48988d1ce941735", "name": "Seafood Restaurant", "pluralName": "Seafood Restaurants", "shortName": "Seafood", "icon": {"prefix": "https://ss3.4sqi.net/img/categories_v2/food/seafood_", "suffix": ".png"}, "primary": true}], "photos": {"count": 0, "groups": []}}, "referralId": "e-0-4dbb230b6e815ab0de63c743-29"}, {"reasons": {"count": 0, "items": [{"summary": "This spot is popular", "type": "general", "reasonName": "globalInteractionReason"}]}, "venue": {"id": "4da95fed6a2303012ef2d4d7", "name": "Cafe Kuhn", "location": {"address": "Reichsstra\u00dfe", "crossStreet": "R\u00fcsternallee", "lat": 52.51555307825961, "lng": 13.262388034011481, "labeledLatLngs": [{"label": "display", "lat": 52.51555307825961, "lng": 13.262388034011481}], "distance": 473, "postalCode": "14050", "cc": "DE", "city": "Berlin", "state": "Berlin", "country": "Deutschland", "formattedAddress": ["Reichsstra\u00dfe (R\u00fcsternallee)", "14050 Berlin", "Deutschland"]}, "categories": [{"id": "4bf58dd8d48988d16d941735", "name": "Caf\u00e9", "pluralName": "Caf\u00e9s", "shortName": "Caf\u00e9", "icon": {"prefix": "https://ss3.4sqi.net/img/categories_v2/food/cafe_", "suffix": ".png"}, "primary": true}], "photos": {"count": 0, "groups": []}}, "referralId": "e-0-4da95fed6a2303012ef2d4d7-30"}, {"reasons": {"count": 0, "items": [{"summary": "This spot is popular", "type": "general", "reasonName": "globalInteractionReason"}]}, "venue": {"id": "4e4f7b76c65bb313ba8670bb", "name": "Access Tankstelle", "location": {"address": "Reichsstr. 86", "lat": 52.514872155045744, "lng": 13.262471676621514, "labeledLatLngs": [{"label": "display", "lat": 52.514872155045744, "lng": 13.262471676621514}], "distance": 480, "postalCode": "14052", "cc": "DE", "city": "Berlin", "state": "Berlin", "country": "Deutschland", "formattedAddress": ["Reichsstr. 86", "14052 Berlin", "Deutschland"]}, "categories": [{"id": "4bf58dd8d48988d113951735", "name": "Gas Station", "pluralName": "Gas Stations", "shortName": "Gas Station", "icon": {"prefix": "https://ss3.4sqi.net/img/categories_v2/shops/gas_", "suffix": ".png"}, "primary": true}], "photos": {"count": 0, "groups": []}}, "referralId": "e-0-4e4f7b76c65bb313ba8670bb-31"}, {"reasons": {"count": 0, "items": [{"summary": "This spot is popular", "type": "general", "reasonName": "globalInteractionReason"}]}, "venue": {"id": "53344d29498e90ebbf4de529", "name": "H Hessenallee", "location": {"address": "Reichsstr.", "crossStreet": "Hessenallee", "lat": 52.51373790510682, "lng": 13.263158074283185, "labeledLatLngs": [{"label": "display", "lat": 52.51373790510682, "lng": 13.263158074283185}], "distance": 484, "postalCode": "14052", "cc": "DE", "city": "Berlin", "state": "Berlin", "country": "Deutschland", "formattedAddress": ["Reichsstr. (Hessenallee)", "14052 Berlin", "Deutschland"]}, "categories": [{"id": "52f2ab2ebcbc57f1066b8b4f", "name": "Bus Stop", "pluralName": "Bus Stops", "shortName": "Bus Stop", "icon": {"prefix": "https://ss3.4sqi.net/img/categories_v2/travel/busstation_", "suffix": ".png"}, "primary": true}], "photos": {"count": 0, "groups": []}}, "referralId": "e-0-53344d29498e90ebbf4de529-32"}, {"reasons": {"count": 0, "items": [{"summary": "This spot is popular", "type": "general", "reasonName": "globalInteractionReason"}]}, "venue": {"id": "4c37147018e72d7f1cd015f5", "name": "Ital. Eis Gloria", "location": {"address": "Steubenplatz 5", "lat": 52.5162587700766, "lng": 13.260991698685274, "labeledLatLngs": [{"label": "display", "lat": 52.5162587700766, "lng": 13.260991698685274}], "distance": 568, "postalCode": "14050", "cc": "DE", "city": "Berlin", "state": "Berlin", "country": "Deutschland", "formattedAddress": ["Steubenplatz 5", "14050 Berlin", "Deutschland"]}, "categories": [{"id": "4bf58dd8d48988d1c9941735", "name": "Ice Cream Shop", "pluralName": "Ice Cream Shops", "shortName": "Ice Cream", "icon": {"prefix": "https://ss3.4sqi.net/img/categories_v2/food/icecream_", "suffix": ".png"}, "primary": true}], "photos": {"count": 0, "groups": []}}, "referralId": "e-0-4c37147018e72d7f1cd015f5-33"}, {"reasons": {"count": 0, "items": [{"summary": "This spot is popular", "type": "general", "reasonName": "globalInteractionReason"}]}, "venue": {"id": "4b4c4891f964a5207bb026e3", "name": "Steubenplatz", "location": {"address": "Steubenpl.", "crossStreet": "Reichsstr.", "lat": 52.51620646150641, "lng": 13.260896236744173, "labeledLatLngs": [{"label": "display", "lat": 52.51620646150641, "lng": 13.260896236744173}], "distance": 574, "cc": "DE", "city": "Berlin", "state": "Berlin", "country": "Deutschland", "formattedAddress": ["Steubenpl. (Reichsstr.)", "Berlin", "Deutschland"]}, "categories": [{"id": "4bf58dd8d48988d164941735", "name": "Plaza", "pluralName": "Plazas", "shortName": "Plaza", "icon": {"prefix": "https://ss3.4sqi.net/img/categories_v2/parks_outdoors/plaza_", "suffix": ".png"}, "primary": true}], "photos": {"count": 0, "groups": []}}, "referralId": "e-0-4b4c4891f964a5207bb026e3-34"}, {"reasons": {"count": 0, "items": [{"summary": "This spot is popular", "type": "general", "reasonName": "globalInteractionReason"}]}, "venue": {"id": "4d2d9699f728b60cd4bd9bfd", "name": "Nahkauf Burkart", "location": {"address": "Steubenplatz 3-5", "crossStreet": "Bolivarallee", "lat": 52.51667387270586, "lng": 13.26080248631938, "labeledLatLngs": [{"label": "display", "lat": 52.51667387270586, "lng": 13.26080248631938}], "distance": 585, "postalCode": "14050", "cc": "DE", "city": "Berlin", "state": "Berlin", "country": "Deutschland", "formattedAddress": ["Steubenplatz 3-5 (Bolivarallee)", "14050 Berlin", "Deutschland"]}, "categories": [{"id": "4bf58dd8d48988d186941735", "name": "Liquor Store", "pluralName": "Liquor Stores", "shortName": "Liquor Store", "icon": {"prefix": "https://ss3.4sqi.net/img/categories_v2/shops/food_liquor_", "suffix": ".png"}, "primary": true}], "photos": {"count": 0, "groups": []}, "venuePage": {"id": "559608104"}}, "referralId": "e-0-4d2d9699f728b60cd4bd9bfd-35"}, {"reasons": {"count": 0, "items": [{"summary": "This spot is popular", "type": "general", "reasonName": "globalInteractionReason"}]}, "venue": {"id": "4bd97df82e6f0f470db60a08", "name": "Butter Lindner", "location": {"address": "Reichsstr. 81", "crossStreet": "Steubenplatz", "lat": 52.51619348836823, "lng": 13.260541009231464, "labeledLatLngs": [{"label": "display", "lat": 52.51619348836823, "lng": 13.260541009231464}], "distance": 598, "postalCode": "14052", "cc": "DE", "city": "Berlin", "state": "Berlin", "country": "Deutschland", "formattedAddress": ["Reichsstr. 81 (Steubenplatz)", "14052 Berlin", "Deutschland"]}, "categories": [{"id": "4bf58dd8d48988d1f5941735", "name": "Gourmet Shop", "pluralName": "Gourmet Shops", "shortName": "Gourmet", "icon": {"prefix": "https://ss3.4sqi.net/img/categories_v2/shops/food_gourmet_", "suffix": ".png"}, "primary": true}], "photos": {"count": 0, "groups": []}}, "referralId": "e-0-4bd97df82e6f0f470db60a08-36"}, {"reasons": {"count": 0, "items": [{"summary": "This spot is popular", "type": "general", "reasonName": "globalInteractionReason"}]}, "venue": {"id": "5352c636498ec58239ca8a78", "name": "Kolonie Birkenw\u00e4ldchen", "location": {"lat": 52.52116785597572, "lng": 13.272318925525957, "labeledLatLngs": [{"label": "display", "lat": 52.52116785597572, "lng": 13.272318925525957}], "distance": 619, "cc": "DE", "city": "Berlin", "state": "Berlin", "country": "Deutschland", "formattedAddress": ["Berlin", "Deutschland"]}, "categories": [{"id": "4bf58dd8d48988d15a941735", "name": "Garden", "pluralName": "Gardens", "shortName": "Garden", "icon": {"prefix": "https://ss3.4sqi.net/img/categories_v2/parks_outdoors/garden_", "suffix": ".png"}, "primary": true}], "photos": {"count": 0, "groups": []}}, "referralId": "e-0-5352c636498ec58239ca8a78-37"}, {"reasons": {"count": 0, "items": [{"summary": "This spot is popular", "type": "general", "reasonName": "globalInteractionReason"}]}, "venue": {"id": "4b4e1b30f964a52063e126e3", "name": "U Neu-Westend", "location": {"address": "Olympische Str.", "crossStreet": "Preu\u00dfenallee", "lat": 52.51619474835671, "lng": 13.259725570678711, "labeledLatLngs": [{"label": "display", "lat": 52.51619474835671, "lng": 13.259725570678711}], "distance": 653, "postalCode": "14052", "cc": "DE", "city": "Berlin", "state": "Berlin", "country": "Deutschland", "formattedAddress": ["Olympische Str. (Preu\u00dfenallee)", "14052 Berlin", "Deutschland"]}, "categories": [{"id": "4bf58dd8d48988d1fd931735", "name": "Metro Station", "pluralName": "Metro Stations", "shortName": "Metro", "icon": {"prefix": "https://ss3.4sqi.net/img/categories_v2/travel/subway_", "suffix": ".png"}, "primary": true}], "photos": {"count": 0, "groups": []}}, "referralId": "e-0-4b4e1b30f964a52063e126e3-38"}, {"reasons": {"count": 0, "items": [{"summary": "This spot is popular", "type": "general", "reasonName": "globalInteractionReason"}]}, "venue": {"id": "4f7d746ce4b02e13141dc643", "name": "Markt Preussenallee", "location": {"lat": 52.51306993169631, "lng": 13.259533820931507, "labeledLatLngs": [{"label": "display", "lat": 52.51306993169631, "lng": 13.259533820931507}], "distance": 736, "cc": "DE", "city": "Berlin", "state": "Berlin", "country": "Deutschland", "formattedAddress": ["Berlin", "Deutschland"]}, "categories": [{"id": "4bf58dd8d48988d1cb941735", "name": "Food Truck", "pluralName": "Food Trucks", "shortName": "Food Truck", "icon": {"prefix": "https://ss3.4sqi.net/img/categories_v2/food/streetfood_", "suffix": ".png"}, "primary": true}], "photos": {"count": 0, "groups": []}}, "referralId": "e-0-4f7d746ce4b02e13141dc643-39"}, {"reasons": {"count": 0, "items": [{"summary": "This spot is popular", "type": "general", "reasonName": "globalInteractionReason"}]}, "venue": {"id": "4e47b9c5c65bd6ffbea2bb6a", "name": "La Manife", "location": {"lat": 52.51836781089851, "lng": 13.279740665754996, "labeledLatLngs": [{"label": "display", "lat": 52.51836781089851, "lng": 13.279740665754996}], "distance": 754, "cc": "DE", "city": "Berlin", "state": "Berlin", "country": "Deutschland", "formattedAddress": ["Berlin", "Deutschland"]}, "categories": [{"id": "4bf58dd8d48988d16d941735", "name": "Caf\u00e9", "pluralName": "Caf\u00e9s", "shortName": "Caf\u00e9", "icon": {"prefix": "https://ss3.4sqi.net/img/categories_v2/food/cafe_", "suffix": ".png"}, "primary": true}], "photos": {"count": 0, "groups": []}}, "referralId": "e-0-4e47b9c5c65bd6ffbea2bb6a-40"}, {"reasons": {"count": 0, "items": [{"summary": "This spot is popular", "type": "general", "reasonName": "globalInteractionReason"}]}, "venue": {"id": "4bc778ef93bdeee1f46b37ae", "name": "Concorde Hotel am Studio", "location": {"address": "Kaiserdamm 80", "lat": 52.50973939521469, "lng": 13.277284005349946, "labeledLatLngs": [{"label": "display", "lat": 52.50973939521469, "lng": 13.277284005349946}], "distance": 871, "postalCode": "14057", "cc": "DE", "city": "Berlin", "state": "Berlin", "country": "Deutschland", "formattedAddress": ["Kaiserdamm 80", "14057 Berlin", "Deutschland"]}, "categories": [{"id": "4bf58dd8d48988d1fa931735", "name": "Hotel", "pluralName": "Hotels", "shortName": "Hotel", "icon": {"prefix": "https://ss3.4sqi.net/img/categories_v2/travel/hotel_", "suffix": ".png"}, "primary": true}], "photos": {"count": 0, "groups": []}}, "referralId": "e-0-4bc778ef93bdeee1f46b37ae-41"}, {"reasons": {"count": 0, "items": [{"summary": "This spot is popular", "type": "general", "reasonName": "globalInteractionReason"}]}, "venue": {"id": "50bb1b3fe4b071fc30872a71", "name": "B\u00e4ckerei Zimmermann", "location": {"address": "Reichsstrasse 32", "lat": 52.51791434529462, "lng": 13.258571651791707, "labeledLatLngs": [{"label": "display", "lat": 52.51791434529462, "lng": 13.258571651791707}], "distance": 764, "postalCode": "14052", "cc": "DE", "city": "Berlin", "state": "Berlin", "country": "Deutschland", "formattedAddress": ["Reichsstrasse 32", "14052 Berlin", "Deutschland"]}, "categories": [{"id": "4bf58dd8d48988d16a941735", "name": "Bakery", "pluralName": "Bakeries", "shortName": "Bakery", "icon": {"prefix": "https://ss3.4sqi.net/img/categories_v2/food/bakery_", "suffix": ".png"}, "primary": true}], "photos": {"count": 0, "groups": []}}, "referralId": "e-0-50bb1b3fe4b071fc30872a71-42"}, {"reasons": {"count": 0, "items": [{"summary": "This spot is popular", "type": "general", "reasonName": "globalInteractionReason"}]}, "venue": {"id": "4bfe98aab68d0f47e06bea57", "name": "ALDI NORD", "location": {"address": "Theodor-Heuss-Platz 7", "lat": 52.50862710693799, "lng": 13.271774053573608, "labeledLatLngs": [{"label": "display", "lat": 52.50862710693799, "lng": 13.271774053573608}], "distance": 826, "postalCode": "14052", "cc": "DE", "city": "Berlin", "state": "Berlin", "country": "Deutschland", "formattedAddress": ["Theodor-Heuss-Platz 7", "14052 Berlin", "Deutschland"]}, "categories": [{"id": "52f2ab2ebcbc57f1066b8b46", "name": "Supermarket", "pluralName": "Supermarkets", "shortName": "Supermarket", "icon": {"prefix": "https://ss3.4sqi.net/img/categories_v2/shops/food_grocery_", "suffix": ".png"}, "primary": true}], "photos": {"count": 0, "groups": []}}, "referralId": "e-0-4bfe98aab68d0f47e06bea57-43"}, {"reasons": {"count": 0, "items": [{"summary": "This spot is popular", "type": "general", "reasonName": "globalInteractionReason"}]}, "venue": {"id": "4bdd86a1645e0f47e7a46b19", "name": "Carpe Diem Bistro", "location": {"address": "Spandauer Damm 102", "lat": 52.51847247414217, "lng": 13.281805522018324, "labeledLatLngs": [{"label": "display", "lat": 52.51847247414217, "lng": 13.281805522018324}], "distance": 890, "postalCode": "14059", "cc": "DE", "city": "Berlin", "state": "Berlin", "country": "Deutschland", "formattedAddress": ["Spandauer Damm 102", "14059 Berlin", "Deutschland"]}, "categories": [{"id": "4bf58dd8d48988d16d941735", "name": "Caf\u00e9", "pluralName": "Caf\u00e9s", "shortName": "Caf\u00e9", "icon": {"prefix": "https://ss3.4sqi.net/img/categories_v2/food/cafe_", "suffix": ".png"}, "primary": true}], "photos": {"count": 0, "groups": []}}, "referralId": "e-0-4bdd86a1645e0f47e7a46b19-44"}, {"reasons": {"count": 0, "items": [{"summary": "This spot is popular", "type": "general", "reasonName": "globalInteractionReason"}]}, "venue": {"id": "5a180df71ffed7595eb4ef16", "name": "Trattoria Splendido", "location": {"lat": 52.510249, "lng": 13.279847, "labeledLatLngs": [{"label": "display", "lat": 52.510249, "lng": 13.279847}], "distance": 949, "cc": "DE", "city": "Berlin", "state": "Berlin", "country": "Deutschland", "formattedAddress": ["Berlin", "Deutschland"]}, "categories": [{"id": "4bf58dd8d48988d1ca941735", "name": "Pizza Place", "pluralName": "Pizza Places", "shortName": "Pizza", "icon": {"prefix": "https://ss3.4sqi.net/img/categories_v2/food/pizza_", "suffix": ".png"}, "primary": true}], "photos": {"count": 0, "groups": []}}, "referralId": "e-0-5a180df71ffed7595eb4ef16-45"}, {"reasons": {"count": 0, "items": [{"summary": "This spot is popular", "type": "general", "reasonName": "globalInteractionReason"}]}, "venue": {"id": "4e4fc5edaeb70f1284a487a3", "name": "AS Spandauer Damm (6)", "location": {"address": "A 100", "crossStreet": "Spandauer Damm", "lat": 52.51854835212679, "lng": 13.283143937587738, "labeledLatLngs": [{"label": "display", "lat": 52.51854835212679, "lng": 13.283143937587738}], "distance": 979, "postalCode": "14059", "cc": "DE", "city": "Berlin", "state": "Berlin", "country": "Deutschland", "formattedAddress": ["A 100 (Spandauer Damm)", "14059 Berlin", "Deutschland"]}, "categories": [{"id": "52f2ab2ebcbc57f1066b8b4c", "name": "Intersection", "pluralName": "Intersections", "shortName": "Intersection", "icon": {"prefix": "https://ss3.4sqi.net/img/categories_v2/travel/default_", "suffix": ".png"}, "primary": true}], "photos": {"count": 0, "groups": []}}, "referralId": "e-0-4e4fc5edaeb70f1284a487a3-46"}, {"reasons": {"count": 0, "items": [{"summary": "This spot is popular", "type": "general", "reasonName": "globalInteractionReason"}]}, "venue": {"id": "56c6f661498e261addbb3417", "name": "Hotel Rotdorn", "location": {"address": "Heerstra\u00dfe 36", "lat": 52.509090735903364, "lng": 13.259961605072021, "labeledLatLngs": [{"label": "display", "lat": 52.509090735903364, "lng": 13.259961605072021}], "distance": 990, "postalCode": "14055", "cc": "DE", "city": "Berlin", "state": "Berlin", "country": "Deutschland", "formattedAddress": ["Heerstra\u00dfe 36", "14055 Berlin", "Deutschland"]}, "categories": [{"id": "4bf58dd8d48988d1f8931735", "name": "Bed & Breakfast", "pluralName": "Bed & Breakfasts", "shortName": "B & B", "icon": {"prefix": "https://ss3.4sqi.net/img/categories_v2/travel/bedandbreakfast_", "suffix": ".png"}, "primary": true}], "photos": {"count": 0, "groups": []}}, "referralId": "e-0-56c6f661498e261addbb3417-47"}, {"reasons": {"count": 0, "items": [{"summary": "This spot is popular", "type": "general", "reasonName": "globalInteractionReason"}]}, "venue": {"id": "536541b5498e2550d302358b", "name": "Arjun", "location": {"address": "Fredericiastr. 27", "crossStreet": "K\u00f6nigin-Elisabeth-Str.", "lat": 52.51120418873453, "lng": 13.281881769438868, "labeledLatLngs": [{"label": "display", "lat": 52.51120418873453, "lng": 13.281881769438868}], "distance": 996, "postalCode": "14059", "cc": "DE", "city": "Berlin", "state": "Berlin", "country": "Deutschland", "formattedAddress": ["Fredericiastr. 27 (K\u00f6nigin-Elisabeth-Str.)", "14059 Berlin", "Deutschland"]}, "categories": [{"id": "4bf58dd8d48988d10f941735", "name": "Indian Restaurant", "pluralName": "Indian Restaurants", "shortName": "Indian", "icon": {"prefix": "https://ss3.4sqi.net/img/categories_v2/food/indian_", "suffix": ".png"}, "primary": true}], "photos": {"count": 0, "groups": []}}, "referralId": "e-0-536541b5498e2550d302358b-48"}]