[{"reasons": {"count": 0, "items": [{"summary": "This spot is popular", "type": "general", "reasonName": "globalInteractionReason"}]}, "venue": {"id": "4b8927d1f964a520cd1f32e3", "name": "R\u00fcdesheimer Platz", "location": {"address": "R\u00fcdesheimer Platz", "crossStreet": "R\u00fcdesheimer Str.", "lat": 52.47315435847986, "lng": 13.315327852934189, "labeledLatLngs": [{"label": "display", "lat": 52.47315435847986, "lng": 13.315327852934189}], "distance": 240, "postalCode": "14197", "cc": "DE", "city": "Berlin", "state": "Berlin", "country": "Deutschland", "formattedAddress": ["R\u00fcdesheimer Platz (R\u00fcdesheimer Str.)", "14197 Berlin-Wilmersdorf", "Deutschland"]}, "categories": [{"id": "4bf58dd8d48988d163941735", "name": "Park", "pluralName": "Parks", "shortName": "Park", "icon": {"prefix": "https://ss3.4sqi.net/img/categories_v2/parks_outdoors/park_", "suffix": ".png"}, "primary": true}], "photos": {"count": 0, "groups": []}}, "referralId": "e-0-4b8927d1f964a520cd1f32e3-0"}, {"reasons": {"count": 0, "items": [{"summary": "This spot is popular", "type": "general", "reasonName": "globalInteractionReason"}]}, "venue": {"id": "555f39ac498e13a590e71cee", "name": "La Vucciria", "location": {"address": "Eberbacher Stra\u00dfe", "crossStreet": "R\u00fcdesheimer Stra\u00dfe", "lat": 52.473234651065404, "lng": 13.314112640316582, "labeledLatLngs": [{"label": "display", "lat": 52.473234651065404, "lng": 13.314112640316582}], "distance": 161, "cc": "DE", "city": "Berlin", "state": "Berlin", "country": "Deutschland", "formattedAddress": ["Eberbacher Stra\u00dfe (R\u00fcdesheimer Stra\u00dfe)", "Berlin", "Deutschland"]}, "categories": [{"id": "4bf58dd8d48988d110941735", "name": "Italian Restaurant", "pluralName": "Italian Restaurants", "shortName": "Italian", "icon": {"prefix": "https://ss3.4sqi.net/img/categories_v2/food/italian_", "suffix": ".png"}, "primary": true}], "photos": {"count": 0, "groups": []}}, "referralId": "e-0-555f39ac498e13a590e71cee-1"}, {"reasons": {"count": 0, "items": [{"summary": "This spot is popular", "type": "general", "reasonName": "globalInteractionReason"}]}, "venue": {"id": "55e177b1498e7d11eed25f18", "name": "Lotte am Platz", "location": {"address": "R\u00fcdesheimer Platz 1", "lat": 52.473191999250005, "lng": 13.316996424945875, "labeledLatLngs": [{"label": "display", "lat": 52.473191999250005, "lng": 13.316996424945875}], "distance": 353, "postalCode": "14197", "cc": "DE", "city": "Berlin", "state": "Berlin", "country": "Deutschland", "formattedAddress": ["R\u00fcdesheimer Platz 1", "14197 Berlin", "Deutschland"]}, "categories": [{"id": "4bf58dd8d48988d16d941735", "name": "Caf\u00e9", "pluralName": "Caf\u00e9s", "shortName": "Caf\u00e9", "icon": {"prefix": "https://ss3.4sqi.net/img/categories_v2/food/cafe_", "suffix": ".png"}, "primary": true}], "photos": {"count": 0, "groups": []}}, "referralId": "e-0-55e177b1498e7d11eed25f18-2"}, {"reasons": {"count": 0, "items": [{"summary": "This spot is popular", "type": "general", "reasonName": "globalInteractionReason"}]}, "venue": {"id": "4d6034c15b276dcbf4b612c6", "name": "Pastis", "location": {"address": "R\u00fcdesheimer Stra\u00dfe 9", "lat": 52.47248347894102, "lng": 13.31447785184562, "labeledLatLngs": [{"label": "display", "lat": 52.47248347894102, "lng": 13.31447785184562}], "distance": 186, "postalCode": "14197", "cc": "DE", "city": "Berlin", "state": "Berlin", "country": "Deutschland", "formattedAddress": ["R\u00fcdesheimer Stra\u00dfe 9", "14197 Berlin", "Deutschland"]}, "categories": [{"id": "4bf58dd8d48988d10c941735", "name": "French Restaurant", "pluralName": "French Restaurants", "shortName": "French", "icon": {"prefix": "https://ss3.4sqi.net/img/categories_v2/food/french_", "suffix": ".png"}, "primary": true}], "photos": {"count": 0, "groups": []}}, "referralId": "e-0-4d6034c15b276dcbf4b612c6-3"}, {"reasons": {"count": 0, "items": [{"summary": "This spot is popular", "type": "general", "reasonName": "globalInteractionReason"}]}, "venue": {"id": "4ecba6d5f5b90c1c3384b4e1", "name": "Prometheus", "location": {"address": "Schlangenbader Stra\u00dfe 17", "lat": 52.47422683610944, "lng": 13.30821802571668, "labeledLatLngs": [{"label": "display", "lat": 52.47422683610944, "lng": 13.30821802571668}], "distance": 286, "postalCode": "14197", "cc": "DE", "city": "Berlin", "state": "Berlin", "country": "Deutschland", "formattedAddress": ["Schlangenbader Stra\u00dfe 17", "14197 Berlin", "Deutschland"]}, "categories": [{"id": "4bf58dd8d48988d10e941735", "name": "Greek Restaurant", "pluralName": "Greek Restaurants", "shortName": "Greek", "icon": {"prefix": "https://ss3.4sqi.net/img/categories_v2/food/greek_", "suffix": ".png"}, "primary": true}], "photos": {"count": 0, "groups": []}}, "referralId": "e-0-4ecba6d5f5b90c1c3384b4e1-4"}, {"reasons": {"count": 0, "items": [{"summary": "This spot is popular", "type": "general", "reasonName": "globalInteractionReason"}]}, "venue": {"id": "4f97d95ee4b0f1b74f088981", "name": "Pizza & Pasta", "location": {"lat": 52.472552, "lng": 13.314599, "labeledLatLngs": [{"label": "display", "lat": 52.472552, "lng": 13.314599}], "distance": 192, "cc": "DE", "city": "Berlin", "state": "Berlin", "country": "Deutschland", "formattedAddress": ["Berlin", "Deutschland"]}, "categories": [{"id": "4bf58dd8d48988d110941735", "name": "Italian Restaurant", "pluralName": "Italian Restaurants", "shortName": "Italian", "icon": {"prefix": "https://ss3.4sqi.net/img/categories_v2/food/italian_", "suffix": ".png"}, "primary": true}], "photos": {"count": 0, "groups": []}}, "referralId": "e-0-4f97d95ee4b0f1b74f088981-5"}, {"reasons": {"count": 0, "items": [{"summary": "This spot is popular", "type": "general", "reasonName": "globalInteractionReason"}]}, "venue": {"id": "4bf6d2c05efe2d7f99d26734", "name": "Rheingauer Weinbrunnen", "location": {"address": "R\u00fcdesheimer Platz 5", "lat": 52.473154, "lng": 13.314758, "labeledLatLngs": [{"label": "display", "lat": 52.473154, "lng": 13.314758}], "distance": 202, "postalCode": "14197", "cc": "DE", "city": "Berlin", "state": "Berlin", "country": "Deutschland", "formattedAddress": ["R\u00fcdesheimer Platz 5", "14197 Berlin", "Deutschland"]}, "categories": [{"id": "4bf58dd8d48988d123941735", "name": "Wine Bar", "pluralName": "Wine Bars", "shortName": "Wine Bar", "icon": {"prefix": "https://ss3.4sqi.net/img/categories_v2/food/winery_", "suffix": ".png"}, "primary": true}], "photos": {"count": 0, "groups": []}}, "referralId": "e-0-4bf6d2c05efe2d7f99d26734-6"}, {"reasons": {"count": 0, "items": [{"summary": "This spot is popular", "type": "general", "reasonName": "globalInteractionReason"}]}, "venue": {"id": "4b93e6d2f964a520935834e3", "name": "Gasthaus Landauer", "location": {"address": "Landauer Str. 8", "lat": 52.4729169011418, "lng": 13.317237031669004, "labeledLatLngs": [{"label": "display", "lat": 52.4729169011418, "lng": 13.317237031669004}], "distance": 367, "postalCode": "14197", "cc": "DE", "city": "Berlin", "state": "Berlin", "country": "Deutschland", "formattedAddress": ["Landauer Str. 8", "14197 Berlin", "Deutschland"]}, "categories": [{"id": "4bf58dd8d48988d10d941735", "name": "German Restaurant", "pluralName": "German Restaurants", "shortName": "German", "icon": {"prefix": "https://ss3.4sqi.net/img/categories_v2/food/german_", "suffix": ".png"}, "primary": true}], "photos": {"count": 0, "groups": []}}, "referralId": "e-0-4b93e6d2f964a520935834e3-7"}, {"reasons": {"count": 0, "items": [{"summary": "This spot is popular", "type": "general", "reasonName": "globalInteractionReason"}]}, "venue": {"id": "5087af18e4b0a95b69f222e8", "name": "Wild Caff\u00e8", "location": {"address": "S\u00fcdwestkorso 63", "lat": 52.473186658330164, "lng": 13.321569279236925, "labeledLatLngs": [{"label": "display", "lat": 52.473186658330164, "lng": 13.321569279236925}], "distance": 662, "postalCode": "12161", "cc": "DE", "city": "Berlin", "state": "Berlin", "country": "Deutschland", "formattedAddress": ["S\u00fcdwestkorso 63", "12161 Berlin", "Deutschland"]}, "categories": [{"id": "4bf58dd8d48988d16d941735", "name": "Caf\u00e9", "pluralName": "Caf\u00e9s", "shortName": "Caf\u00e9", "icon": {"prefix": "https://ss3.4sqi.net/img/categories_v2/food/cafe_", "suffix": ".png"}, "primary": true}], "photos": {"count": 0, "groups": []}}, "referralId": "e-0-5087af18e4b0a95b69f222e8-8"}, {"reasons": {"count": 0, "items": [{"summary": "This spot is popular", "type": "general", "reasonName": "globalInteractionReason"}]}, "venue": {"id": "4f903487e4b04cce8a47a160", "name": "Lucas-Tierwelt.de", "location": {"address": "Forckenbeckstr. 95", "lat": 52.478808923788954, "lng": 13.308287298915925, "labeledLatLngs": [{"label": "display", "lat": 52.478808923788954, "lng": 13.308287298915925}], "distance": 702, "postalCode": "14199", "cc": "DE", "city": "Berlin", "state": "Berlin", "country": "Deutschland", "formattedAddress": ["Forckenbeckstr. 95", "14199 Berlin", "Deutschland"]}, "categories": [{"id": "4bf58dd8d48988d100951735", "name": "Pet Store", "pluralName": "Pet Stores", "shortName": "Pet Store", "icon": {"prefix": "https://ss3.4sqi.net/img/categories_v2/shops/pet_store_", "suffix": ".png"}, "primary": true}], "photos": {"count": 0, "groups": []}}, "referralId": "e-0-4f903487e4b04cce8a47a160-9"}, {"reasons": {"count": 0, "items": [{"summary": "This spot is popular", "type": "general", "reasonName": "globalInteractionReason"}]}, "venue": {"id": "4b11307cf964a520b77823e3", "name": "EDEKA", "location": {"address": "Wiesbadener Str. 53-55", "lat": 52.4734862, "lng": 13.3022803, "labeledLatLngs": [{"label": "display", "lat": 52.4734862, "lng": 13.3022803}], "distance": 649, "postalCode": "14197", "cc": "DE", "city": "Berlin", "state": "Berlin", "country": "Deutschland", "formattedAddress": ["Wiesbadener Str. 53-55", "14197 Berlin", "Deutschland"]}, "categories": [{"id": "52f2ab2ebcbc57f1066b8b46", "name": "Supermarket", "pluralName": "Supermarkets", "shortName": "Supermarket", "icon": {"prefix": "https://ss3.4sqi.net/img/categories_v2/shops/food_grocery_", "suffix": ".png"}, "primary": true}], "photos": {"count": 0, "groups": []}, "venuePage": {"id": "553441292"}}, "referralId": "e-0-4b11307cf964a520b77823e3-10"}, {"reasons": {"count": 0, "items": [{"summary": "This spot is popular", "type": "general", "reasonName": "globalInteractionReason"}]}, "venue": {"id": "4bd3fd17b221c9b66defdad0", "name": "B\u00e4ckerMann", "location": {"address": "S\u00fcdwestkorso 9", "lat": 52.475408332383, "lng": 13.32434918401021, "labeledLatLngs": [{"label": "display", "lat": 52.475408332383, "lng": 13.32434918401021}], "distance": 895, "postalCode": "12161", "cc": "DE", "city": "Berlin", "state": "Berlin", "country": "Deutschland", "formattedAddress": ["S\u00fcdwestkorso 9", "12161 Berlin", "Deutschland"]}, "categories": [{"id": "4bf58dd8d48988d16a941735", "name": "Bakery", "pluralName": "Bakeries", "shortName": "Bakery", "icon": {"prefix": "https://ss3.4sqi.net/img/categories_v2/food/bakery_", "suffix": ".png"}, "primary": true}], "photos": {"count": 0, "groups": []}}, "referralId": "e-0-4bd3fd17b221c9b66defdad0-11"}, {"reasons": {"count": 0, "items": [{"summary": "This spot is popular", "type": "general", "reasonName": "globalInteractionReason"}]}, "venue": {"id": "4b6c7850f964a520b33c2ce3", "name": "Trattoria Vale Un Peccato", "location": {"address": "A\u00dfmannshauser Str. 26", "lat": 52.47809217479529, "lng": 13.312870105720377, "labeledLatLngs": [{"label": "display", "lat": 52.47809217479529, "lng": 13.312870105720377}], "distance": 585, "postalCode": "14197", "cc": "DE", "city": "Berlin", "state": "Berlin", "country": "Deutschland", "formattedAddress": ["A\u00dfmannshauser Str. 26", "14197 Berlin", "Deutschland"]}, "categories": [{"id": "55a5a1ebe4b013909087cb7f", "name": "Trattoria/Osteria", "pluralName": "Trattorias/Osterias", "shortName": "Trattoria/Osteria", "icon": {"prefix": "https://ss3.4sqi.net/img/categories_v2/food/italian_", "suffix": ".png"}, "primary": true}], "photos": {"count": 0, "groups": []}}, "referralId": "e-0-4b6c7850f964a520b33c2ce3-12"}, {"reasons": {"count": 0, "items": [{"summary": "This spot is popular", "type": "general", "reasonName": "globalInteractionReason"}]}, "venue": {"id": "53befb2c498ebb075bdc2c4c", "name": "Foersters Feine Biere", "location": {"address": "Bornstr. 20", "lat": 52.466740520071596, "lng": 13.321958334912601, "labeledLatLngs": [{"label": "display", "lat": 52.466740520071596, "lng": 13.321958334912601}], "distance": 969, "postalCode": "12163", "cc": "DE", "city": "Berlin", "state": "Berlin", "country": "Deutschland", "formattedAddress": ["Bornstr. 20", "12163 Berlin", "Deutschland"]}, "categories": [{"id": "56aa371ce4b08b9a8d57356c", "name": "Beer Bar", "pluralName": "Beer Bars", "shortName": "Beer Bar", "icon": {"prefix": "https://ss3.4sqi.net/img/categories_v2/nightlife/pub_", "suffix": ".png"}, "primary": true}], "photos": {"count": 0, "groups": []}}, "referralId": "e-0-53befb2c498ebb075bdc2c4c-13"}, {"reasons": {"count": 0, "items": [{"summary": "This spot is popular", "type": "general", "reasonName": "globalInteractionReason"}]}, "venue": {"id": "51ec07aa498ec95c5b7b8fa3", "name": "Corso Toscana", "location": {"address": "S\u00fcdweskorso 12", "crossStreet": "Deidesheimer Str.", "lat": 52.47414305346612, "lng": 13.322758967296055, "labeledLatLngs": [{"label": "display", "lat": 52.47414305346612, "lng": 13.322758967296055}], "distance": 755, "postalCode": "12161", "cc": "DE", "city": "Berlin", "state": "Berlin", "country": "Deutschland", "formattedAddress": ["S\u00fcdweskorso 12 (Deidesheimer Str.)", "12161 Berlin", "Deutschland"]}, "categories": [{"id": "4bf58dd8d48988d110941735", "name": "Italian Restaurant", "pluralName": "Italian Restaurants", "shortName": "Italian", "icon": {"prefix": "https://ss3.4sqi.net/img/categories_v2/food/italian_", "suffix": ".png"}, "primary": true}], "photos": {"count": 0, "groups": []}}, "referralId": "e-0-51ec07aa498ec95c5b7b8fa3-14"}, {"reasons": {"count": 0, "items": [{"summary": "This spot is popular", "type": "general", "reasonName": "globalInteractionReason"}]}, "venue": {"id": "50d43f0eb0ed8906dde4afbe", "name": "Blumen Olli", "location": {"address": "S\u00fcdwestkorso 32", "lat": 52.46794586081388, "lng": 13.31045150756836, "labeledLatLngs": [{"label": "display", "lat": 52.46794586081388, "lng": 13.31045150756836}], "distance": 556, "postalCode": "14197", "cc": "DE", "city": "Berlin", "state": "Berlin", "country": "Deutschland", "formattedAddress": ["S\u00fcdwestkorso 32", "14197 Berlin", "Deutschland"]}, "categories": [{"id": "4bf58dd8d48988d11b951735", "name": "Flower Shop", "pluralName": "Flower Shops", "shortName": "Flower Shop", "icon": {"prefix": "https://ss3.4sqi.net/img/categories_v2/shops/flowershop_", "suffix": ".png"}, "primary": true}], "photos": {"count": 0, "groups": []}}, "referralId": "e-0-50d43f0eb0ed8906dde4afbe-15"}, {"reasons": {"count": 0, "items": [{"summary": "This spot is popular", "type": "general", "reasonName": "globalInteractionReason"}]}, "venue": {"id": "4adcda76f964a520c94521e3", "name": "Stra\u00dfenbahn Kneipenkollektiv", "location": {"address": "Laubacher Str. 29", "lat": 52.47721302162901, "lng": 13.320579528808592, "labeledLatLngs": [{"label": "display", "lat": 52.47721302162901, "lng": 13.320579528808592}], "distance": 765, "postalCode": "14197", "cc": "DE", "city": "Berlin", "state": "Berlin", "country": "Deutschland", "formattedAddress": ["Laubacher Str. 29", "14197 Berlin", "Deutschland"]}, "categories": [{"id": "4bf58dd8d48988d11b941735", "name": "Pub", "pluralName": "Pubs", "shortName": "Pub", "icon": {"prefix": "https://ss3.4sqi.net/img/categories_v2/nightlife/pub_", "suffix": ".png"}, "primary": true}], "photos": {"count": 0, "groups": []}}, "referralId": "e-0-4adcda76f964a520c94521e3-16"}, {"reasons": {"count": 0, "items": [{"summary": "This spot is popular", "type": "general", "reasonName": "globalInteractionReason"}]}, "venue": {"id": "4b91347cf964a520eaa933e3", "name": "REWE", "location": {"address": "Schlangenbader Str. 25", "lat": 52.473011831137576, "lng": 13.307444165924949, "labeledLatLngs": [{"label": "display", "lat": 52.473011831137576, "lng": 13.307444165924949}], "distance": 296, "postalCode": "14197", "cc": "DE", "city": "Berlin", "state": "Berlin", "country": "Deutschland", "formattedAddress": ["Schlangenbader Str. 25", "14197 Berlin", "Deutschland"]}, "categories": [{"id": "52f2ab2ebcbc57f1066b8b46", "name": "Supermarket", "pluralName": "Supermarkets", "shortName": "Supermarket", "icon": {"prefix": "https://ss3.4sqi.net/img/categories_v2/shops/food_grocery_", "suffix": ".png"}, "primary": true}], "photos": {"count": 0, "groups": []}, "venuePage": {"id": "579023885"}}, "referralId": "e-0-4b91347cf964a520eaa933e3-17"}, {"reasons": {"count": 0, "items": [{"summary": "This spot is popular", "type": "general", "reasonName": "globalInteractionReason"}]}, "venue": {"id": "4adcda87f964a5202d4921e3", "name": "Ristorante Piazza Michelangelo Trattoria", "location": {"address": "Breitenbachplatz 4", "lat": 52.467864408676995, "lng": 13.309183069457363, "labeledLatLngs": [{"label": "display", "lat": 52.467864408676995, "lng": 13.309183069457363}], "distance": 585, "postalCode": "14195", "cc": "DE", "city": "Berlin", "state": "Berlin", "country": "Deutschland", "formattedAddress": ["Breitenbachplatz 4", "14195 Berlin", "Deutschland"]}, "categories": [{"id": "55a5a1ebe4b013909087cb7f", "name": "Trattoria/Osteria", "pluralName": "Trattorias/Osterias", "shortName": "Trattoria/Osteria", "icon": {"prefix": "https://ss3.4sqi.net/img/categories_v2/food/italian_", "suffix": ".png"}, "primary": true}], "photos": {"count": 0, "groups": []}}, "referralId": "e-0-4adcda87f964a5202d4921e3-18"}, {"reasons": {"count": 0, "items": [{"summary": "This spot is popular", "type": "general", "reasonName": "globalInteractionReason"}]}, "venue": {"id": "5237587511d2f43dc4943f47", "name": "LEDO", "location": {"address": "Forckenbeckstr. 1", "lat": 52.47940310104326, "lng": 13.309858221350758, "labeledLatLngs": [{"label": "display", "lat": 52.47940310104326, "lng": 13.309858221350758}], "distance": 738, "postalCode": "14199", "cc": "DE", "city": "Berlin", "state": "Berlin", "country": "Deutschland", "formattedAddress": ["Forckenbeckstr. 1", "14199 Berlin", "Deutschland"]}, "categories": [{"id": "4bf58dd8d48988d118951735", "name": "Grocery Store", "pluralName": "Grocery Stores", "shortName": "Grocery Store", "icon": {"prefix": "https://ss3.4sqi.net/img/categories_v2/shops/food_grocery_", "suffix": ".png"}, "primary": true}], "photos": {"count": 0, "groups": []}}, "referralId": "e-0-5237587511d2f43dc4943f47-19"}, {"reasons": {"count": 0, "items": [{"summary": "This spot is popular", "type": "general", "reasonName": "globalInteractionReason"}]}, "venue": {"id": "4c72185d376da093c8a1a5c6", "name": "BIO COMPANY", "location": {"address": "R\u00fcdesheimer Str. 3", "lat": 52.473566712212275, "lng": 13.314498037018925, "labeledLatLngs": [{"label": "display", "lat": 52.473566712212275, "lng": 13.314498037018925}], "distance": 197, "postalCode": "14197", "cc": "DE", "city": "Berlin", "state": "Berlin", "country": "Deutschland", "formattedAddress": ["R\u00fcdesheimer Str. 3", "14197 Berlin", "Deutschland"]}, "categories": [{"id": "52f2ab2ebcbc57f1066b8b45", "name": "Organic Grocery", "pluralName": "Organic Groceries", "shortName": "Organic Grocery", "icon": {"prefix": "https://ss3.4sqi.net/img/categories_v2/shops/food_grocery_", "suffix": ".png"}, "primary": true}], "photos": {"count": 0, "groups": []}, "venuePage": {"id": "479450676"}}, "referralId": "e-0-4c72185d376da093c8a1a5c6-20"}, {"reasons": {"count": 0, "items": [{"summary": "This spot is popular", "type": "general", "reasonName": "globalInteractionReason"}]}, "venue": {"id": "4b699c6af964a52094a92be3", "name": "Ristorante Mario \"Der echte Italiener\"", "location": {"address": "S\u00fcdwestkorso 10", "lat": 52.47471900361334, "lng": 13.321189965848761, "labeledLatLngs": [{"label": "display", "lat": 52.47471900361334, "lng": 13.321189965848761}], "distance": 668, "postalCode": "12161", "cc": "DE", "city": "Berlin", "state": "Berlin", "country": "Deutschland", "formattedAddress": ["S\u00fcdwestkorso 10", "12161 Berlin", "Deutschland"]}, "categories": [{"id": "4bf58dd8d48988d110941735", "name": "Italian Restaurant", "pluralName": "Italian Restaurants", "shortName": "Italian", "icon": {"prefix": "https://ss3.4sqi.net/img/categories_v2/food/italian_", "suffix": ".png"}, "primary": true}], "photos": {"count": 0, "groups": []}}, "referralId": "e-0-4b699c6af964a52094a92be3-21"}, {"reasons": {"count": 0, "items": [{"summary": "This spot is popular", "type": "general", "reasonName": "globalInteractionReason"}]}, "venue": {"id": "5759bf60498e136701e9251e", "name": "Yak & Yeti", "location": {"address": "S\u00fcdwestkorso 69a", "lat": 52.475387, "lng": 13.324621, "labeledLatLngs": [{"label": "display", "lat": 52.475387, "lng": 13.324621}], "distance": 912, "postalCode": "12161", "cc": "DE", "city": "Berlin", "state": "Berlin", "country": "Deutschland", "formattedAddress": ["S\u00fcdwestkorso 69a", "12161 Berlin", "Deutschland"]}, "categories": [{"id": "4bf58dd8d48988d10f941735", "name": "Indian Restaurant", "pluralName": "Indian Restaurants", "shortName": "Indian", "icon": {"prefix": "https://ss3.4sqi.net/img/categories_v2/food/indian_", "suffix": ".png"}, "primary": true}], "photos": {"count": 0, "groups": []}}, "referralId": "e-0-5759bf60498e136701e9251e-22"}, {"reasons": {"count": 0, "items": [{"summary": "This spot is popular", "type": "general", "reasonName": "globalInteractionReason"}]}, "venue": {"id": "535a63ce498eb46312ac2570", "name": "Eisfee", "location": {"address": "Forststr. 17", "crossStreet": "Paulsenstr.", "lat": 52.46434825431872, "lng": 13.314114174667885, "labeledLatLngs": [{"label": "display", "lat": 52.46434825431872, "lng": 13.314114174667885}], "distance": 962, "cc": "DE", "city": "Berlin", "state": "Berlin", "country": "Deutschland", "formattedAddress": ["Forststr. 17 (Paulsenstr.)", "Berlin", "Deutschland"]}, "categories": [{"id": "4bf58dd8d48988d1c9941735", "name": "Ice Cream Shop", "pluralName": "Ice Cream Shops", "shortName": "Ice Cream", "icon": {"prefix": "https://ss3.4sqi.net/img/categories_v2/food/icecream_", "suffix": ".png"}, "primary": true}], "photos": {"count": 0, "groups": []}}, "referralId": "e-0-535a63ce498eb46312ac2570-23"}, {"reasons": {"count": 0, "items": [{"summary": "This spot is popular", "type": "general", "reasonName": "globalInteractionReason"}]}, "venue": {"id": "4bd1edb3046076b06dd37271", "name": "Achilles", "location": {"address": "S\u00fcdwestkorso 15", "crossStreet": "Taunusstr.", "lat": 52.473104486115766, "lng": 13.321486205378543, "labeledLatLngs": [{"label": "display", "lat": 52.473104486115766, "lng": 13.321486205378543}], "distance": 656, "postalCode": "12161", "cc": "DE", "city": "Berlin", "state": "Berlin", "country": "Deutschland", "formattedAddress": ["S\u00fcdwestkorso 15 (Taunusstr.)", "12161 Berlin", "Deutschland"]}, "categories": [{"id": "4bf58dd8d48988d10e941735", "name": "Greek Restaurant", "pluralName": "Greek Restaurants", "shortName": "Greek", "icon": {"prefix": "https://ss3.4sqi.net/img/categories_v2/food/greek_", "suffix": ".png"}, "primary": true}], "photos": {"count": 0, "groups": []}}, "referralId": "e-0-4bd1edb3046076b06dd37271-24"}, {"reasons": {"count": 0, "items": [{"summary": "This spot is popular", "type": "general", "reasonName": "globalInteractionReason"}]}, "venue": {"id": "5c5dc3d6898bdc002cd70026", "name": "REWE", "location": {"address": "S\u00fcdwestkorso 36", "lat": 52.46849371292595, "lng": 13.311755399197182, "labeledLatLngs": [{"label": "display", "lat": 52.46849371292595, "lng": 13.311755399197182}], "distance": 487, "postalCode": "14197", "cc": "DE", "city": "Berlin", "state": "Berlin", "country": "Deutschland", "formattedAddress": ["S\u00fcdwestkorso 36", "14197 Berlin", "Deutschland"]}, "categories": [{"id": "52f2ab2ebcbc57f1066b8b46", "name": "Supermarket", "pluralName": "Supermarkets", "shortName": "Supermarket", "icon": {"prefix": "https://ss3.4sqi.net/img/categories_v2/shops/food_grocery_", "suffix": ".png"}, "primary": true}], "photos": {"count": 0, "groups": []}, "venuePage": {"id": "575027075"}}, "referralId": "e-0-5c5dc3d6898bdc002cd70026-25"}, {"reasons": {"count": 0, "items": [{"summary": "This spot is popular", "type": "general", "reasonName": "globalInteractionReason"}]}, "venue": {"id": "4bf7bbb15317a593107ffe7e", "name": "Filoxenia", "location": {"address": "Ma\u00dfmannstra\u00dfe 11", "crossStreet": "kreuznacher str", "lat": 52.46686306590093, "lng": 13.320172468633196, "labeledLatLngs": [{"label": "display", "lat": 52.46686306590093, "lng": 13.320172468633196}], "distance": 877, "postalCode": "12163", "cc": "DE", "city": "Berlin", "state": "Berlin", "country": "Deutschland", "formattedAddress": ["Ma\u00dfmannstra\u00dfe 11 (kreuznacher str)", "12163 Berlin", "Deutschland"]}, "categories": [{"id": "4bf58dd8d48988d10e941735", "name": "Greek Restaurant", "pluralName": "Greek Restaurants", "shortName": "Greek", "icon": {"prefix": "https://ss3.4sqi.net/img/categories_v2/food/greek_", "suffix": ".png"}, "primary": true}], "photos": {"count": 0, "groups": []}}, "referralId": "e-0-4bf7bbb15317a593107ffe7e-26"}, {"reasons": {"count": 0, "items": [{"summary": "This spot is popular", "type": "general", "reasonName": "globalInteractionReason"}]}, "venue": {"id": "4e08362bd1640223a4a1806d", "name": "Aral", "location": {"address": "S\u00fcdwestkorso 36A", "lat": 52.46820627080912, "lng": 13.311103911638407, "labeledLatLngs": [{"label": "display", "lat": 52.46820627080912, "lng": 13.311103911638407}], "distance": 521, "postalCode": "14197", "cc": "DE", "city": "Berlin", "state": "Berlin", "country": "Deutschland", "formattedAddress": ["S\u00fcdwestkorso 36A", "14197 Berlin", "Deutschland"]}, "categories": [{"id": "4bf58dd8d48988d113951735", "name": "Gas Station", "pluralName": "Gas Stations", "shortName": "Gas Station", "icon": {"prefix": "https://ss3.4sqi.net/img/categories_v2/shops/gas_", "suffix": ".png"}, "primary": true}], "photos": {"count": 0, "groups": []}}, "referralId": "e-0-4e08362bd1640223a4a1806d-27"}, {"reasons": {"count": 0, "items": [{"summary": "This spot is popular", "type": "general", "reasonName": "globalInteractionReason"}]}, "venue": {"id": "4ebc2a728231dffdaf6db61a", "name": "Spinnrad", "location": {"address": "Wiesbadener Str. 16", "crossStreet": "S\u00fcdwestkorso", "lat": 52.47173988153918, "lng": 13.319302797317503, "labeledLatLngs": [{"label": "display", "lat": 52.47173988153918, "lng": 13.319302797317503}], "distance": 523, "postalCode": "14197", "cc": "DE", "city": "Berlin", "state": "Berlin", "country": "Deutschland", "formattedAddress": ["Wiesbadener Str. 16 (S\u00fcdwestkorso)", "14197 Berlin", "Deutschland"]}, "categories": [{"id": "4bf58dd8d48988d11b941735", "name": "Pub", "pluralName": "Pubs", "shortName": "Pub", "icon": {"prefix": "https://ss3.4sqi.net/img/categories_v2/nightlife/pub_", "suffix": ".png"}, "primary": true}], "photos": {"count": 0, "groups": []}}, "referralId": "e-0-4ebc2a728231dffdaf6db61a-28"}, {"reasons": {"count": 0, "items": [{"summary": "This spot is popular", "type": "general", "reasonName": "globalInteractionReason"}]}, "venue": {"id": "4b23bf6ef964a520fc5824e3", "name": "ALDI NORD", "location": {"address": "Mecklenburgische Str. 23a-24", "lat": 52.47957801341511, "lng": 13.310664306322076, "labeledLatLngs": [{"label": "display", "lat": 52.47957801341511, "lng": 13.310664306322076}], "distance": 750, "postalCode": "14197", "cc": "DE", "city": "Berlin", "state": "Berlin", "country": "Deutschland", "formattedAddress": ["Mecklenburgische Str. 23a-24", "14197 Berlin", "Deutschland"]}, "categories": [{"id": "52f2ab2ebcbc57f1066b8b46", "name": "Supermarket", "pluralName": "Supermarkets", "shortName": "Supermarket", "icon": {"prefix": "https://ss3.4sqi.net/img/categories_v2/shops/food_grocery_", "suffix": ".png"}, "primary": true}], "photos": {"count": 0, "groups": []}}, "referralId": "e-0-4b23bf6ef964a520fc5824e3-29"}, {"reasons": {"count": 0, "items": [{"summary": "This spot is popular", "type": "general", "reasonName": "globalInteractionReason"}]}, "venue": {"id": "4ce940f8b99754814e2a0145", "name": "Deutsche Bank", "location": {"address": "S\u00fcdwestkorso 17", "lat": 52.47468869272468, "lng": 13.32127832090315, "labeledLatLngs": [{"label": "display", "lat": 52.47468869272468, "lng": 13.32127832090315}], "distance": 672, "postalCode": "12161", "cc": "DE", "city": "Berlin", "state": "Berlin", "country": "Deutschland", "formattedAddress": ["S\u00fcdwestkorso 17", "12161 Berlin", "Deutschland"]}, "categories": [{"id": "4bf58dd8d48988d10a951735", "name": "Bank", "pluralName": "Banks", "shortName": "Bank", "icon": {"prefix": "https://ss3.4sqi.net/img/categories_v2/shops/financial_", "suffix": ".png"}, "primary": true}], "photos": {"count": 0, "groups": []}}, "referralId": "e-0-4ce940f8b99754814e2a0145-30"}, {"reasons": {"count": 0, "items": [{"summary": "This spot is popular", "type": "general", "reasonName": "globalInteractionReason"}]}, "venue": {"id": "4af2ddaef964a520d9e821e3", "name": "Heidelbeere", "location": {"address": "Heidelberger Platz 1", "lat": 52.47908975103695, "lng": 13.310323907580896, "labeledLatLngs": [{"label": "display", "lat": 52.47908975103695, "lng": 13.310323907580896}], "distance": 699, "cc": "DE", "city": "Berlin", "state": "Berlin", "country": "Deutschland", "formattedAddress": ["Heidelberger Platz 1", "Berlin", "Deutschland"]}, "categories": [{"id": "4bf58dd8d48988d11b941735", "name": "Pub", "pluralName": "Pubs", "shortName": "Pub", "icon": {"prefix": "https://ss3.4sqi.net/img/categories_v2/nightlife/pub_", "suffix": ".png"}, "primary": true}], "photos": {"count": 0, "groups": []}}, "referralId": "e-0-4af2ddaef964a520d9e821e3-31"}, {"reasons": {"count": 0, "items": [{"summary": "This spot is popular", "type": "general", "reasonName": "globalInteractionReason"}]}, "venue": {"id": "4e3967d518a8d2fcc62b2391", "name": "Rheinland-Apotheke", "location": {"address": "Spessartstra\u00dfe 13", "lat": 52.474567, "lng": 13.3146225, "labeledLatLngs": [{"label": "display", "lat": 52.474567, "lng": 13.3146225}], "distance": 267, "postalCode": "14197", "cc": "DE", "city": "Berlin", "state": "Berlin", "country": "Deutschland", "formattedAddress": ["Spessartstra\u00dfe 13", "14197 Berlin", "Deutschland"]}, "categories": [{"id": "4bf58dd8d48988d10f951735", "name": "Pharmacy", "pluralName": "Pharmacies", "shortName": "Pharmacy", "icon": {"prefix": "https://ss3.4sqi.net/img/categories_v2/shops/pharmacy_", "suffix": ".png"}, "primary": true}], "photos": {"count": 0, "groups": []}}, "referralId": "e-0-4e3967d518a8d2fcc62b2391-32"}, {"reasons": {"count": 0, "items": [{"summary": "This spot is popular", "type": "general", "reasonName": "globalInteractionReason"}]}, "venue": {"id": "4fc378a7e4b07e3cda37ab88", "name": "Happy Garten", "location": {"address": "Schlangenbader Str. 26", "lat": 52.472453683704884, "lng": 13.3078444703826, "labeledLatLngs": [{"label": "display", "lat": 52.472453683704884, "lng": 13.3078444703826}], "distance": 273, "postalCode": "14197", "cc": "DE", "city": "Berlin", "state": "Berlin", "country": "Deutschland", "formattedAddress": ["Schlangenbader Str. 26", "14197 Berlin", "Deutschland"]}, "categories": [{"id": "4bf58dd8d48988d142941735", "name": "Asian Restaurant", "pluralName": "Asian Restaurants", "shortName": "Asian", "icon": {"prefix": "https://ss3.4sqi.net/img/categories_v2/food/asian_", "suffix": ".png"}, "primary": true}], "photos": {"count": 0, "groups": []}}, "referralId": "e-0-4fc378a7e4b07e3cda37ab88-33"}, {"reasons": {"count": 0, "items": [{"summary": "This spot is popular", "type": "general", "reasonName": "globalInteractionReason"}]}, "venue": {"id": "4e53c354d4c05e0079f5e4af", "name": "Breitenbachplatz", "location": {"address": "S\u00fcdwestkorso", "crossStreet": "Schorlemerallee", "lat": 52.46696544052683, "lng": 13.308541774749756, "labeledLatLngs": [{"label": "display", "lat": 52.46696544052683, "lng": 13.308541774749756}], "distance": 694, "postalCode": "14195", "cc": "DE", "city": "Berlin", "state": "Berlin", "country": "Deutschland", "formattedAddress": ["S\u00fcdwestkorso (Schorlemerallee)", "14195 Berlin", "Deutschland"]}, "categories": [{"id": "4bf58dd8d48988d164941735", "name": "Plaza", "pluralName": "Plazas", "shortName": "Plaza", "icon": {"prefix": "https://ss3.4sqi.net/img/categories_v2/parks_outdoors/plaza_", "suffix": ".png"}, "primary": true}], "photos": {"count": 0, "groups": []}}, "referralId": "e-0-4e53c354d4c05e0079f5e4af-34"}, {"reasons": {"count": 0, "items": [{"summary": "This spot is popular", "type": "general", "reasonName": "globalInteractionReason"}]}, "venue": {"id": "4b140547f964a520e29b23e3", "name": "McDonald's", "location": {"address": "Mecklenburgischestr. 65-68", "lat": 52.47734935846621, "lng": 13.307913367796267, "labeledLatLngs": [{"label": "display", "lat": 52.47734935846621, "lng": 13.307913367796267}], "distance": 563, "postalCode": "14197", "cc": "DE", "city": "Berlin", "state": "Berlin", "country": "Deutschland", "formattedAddress": ["Mecklenburgischestr. 65-68", "14197 Berlin", "Deutschland"]}, "categories": [{"id": "4bf58dd8d48988d16e941735", "name": "Fast Food Restaurant", "pluralName": "Fast Food Restaurants", "shortName": "Fast Food", "icon": {"prefix": "https://ss3.4sqi.net/img/categories_v2/food/fastfood_", "suffix": ".png"}, "primary": true}], "photos": {"count": 0, "groups": []}}, "referralId": "e-0-4b140547f964a520e29b23e3-35"}, {"reasons": {"count": 0, "items": [{"summary": "This spot is popular", "type": "general", "reasonName": "globalInteractionReason"}]}, "venue": {"id": "4adcda7ef964a520d24721e3", "name": "Stadtbad Wilmersdorf I", "location": {"address": "Mecklenburgische Str. 80", "lat": 52.48098077283274, "lng": 13.31439455529988, "labeledLatLngs": [{"label": "display", "lat": 52.48098077283274, "lng": 13.31439455529988}], "distance": 919, "postalCode": "10713", "cc": "DE", "city": "Berlin", "state": "Berlin", "country": "Deutschland", "formattedAddress": ["Mecklenburgische Str. 80", "10713 Berlin", "Deutschland"]}, "categories": [{"id": "4bf58dd8d48988d160941735", "name": "Hot Spring", "pluralName": "Hot Springs", "shortName": "Hot Spring", "icon": {"prefix": "https://ss3.4sqi.net/img/categories_v2/parks_outdoors/hotspring_", "suffix": ".png"}, "primary": true}], "photos": {"count": 0, "groups": []}}, "referralId": "e-0-4adcda7ef964a520d24721e3-36"}, {"reasons": {"count": 0, "items": [{"summary": "This spot is popular", "type": "general", "reasonName": "globalInteractionReason"}]}, "venue": {"id": "507d3e3e498ec32f6e5c6c75", "name": "Heidelberger Platz", "location": {"address": "Heidelberger Platz", "crossStreet": "Mecklenburgische Str.", "lat": 52.48096205136068, "lng": 13.312152292283908, "labeledLatLngs": [{"label": "display", "lat": 52.48096205136068, "lng": 13.312152292283908}], "distance": 900, "postalCode": "14197", "cc": "DE", "city": "Berlin", "state": "Berlin", "country": "Deutschland", "formattedAddress": ["Heidelberger Platz (Mecklenburgische Str.)", "14197 Berlin", "Deutschland"]}, "categories": [{"id": "4bf58dd8d48988d164941735", "name": "Plaza", "pluralName": "Plazas", "shortName": "Plaza", "icon": {"prefix": "https://ss3.4sqi.net/img/categories_v2/parks_outdoors/plaza_", "suffix": ".png"}, "primary": true}], "photos": {"count": 0, "groups": []}}, "referralId": "e-0-507d3e3e498ec32f6e5c6c75-37"}, {"reasons": {"count": 0, "items": [{"summary": "This spot is popular", "type": "general", "reasonName": "globalInteractionReason"}]}, "venue": {"id": "4d0dd7527d28721e0046fb20", "name": "St. Marien Kirche", "location": {"address": "Bergheimer Platz 1", "lat": 52.47014639025142, "lng": 13.319982788729439, "labeledLatLngs": [{"label": "display", "lat": 52.47014639025142, "lng": 13.319982788729439}], "distance": 631, "postalCode": "14197", "cc": "DE", "city": "Berlin", "state": "Berlin", "country": "Deutschland", "formattedAddress": ["Bergheimer Platz 1", "14197 Berlin", "Deutschland"]}, "categories": [{"id": "4bf58dd8d48988d132941735", "name": "Church", "pluralName": "Churches", "shortName": "Church", "icon": {"prefix": "https://ss3.4sqi.net/img/categories_v2/building/religious_church_", "suffix": ".png"}, "primary": true}], "photos": {"count": 0, "groups": []}}, "referralId": "e-0-4d0dd7527d28721e0046fb20-38"}, {"reasons": {"count": 0, "items": [{"summary": "This spot is popular", "type": "general", "reasonName": "globalInteractionReason"}]}, "venue": {"id": "4cb0c145562d224bb6481988", "name": "Santa Caf\u00e9 Restaurant", "location": {"address": "Breitenbachpl. 12", "lat": 52.46691318549069, "lng": 13.307913693887134, "labeledLatLngs": [{"label": "display", "lat": 52.46691318549069, "lng": 13.307913693887134}], "distance": 714, "postalCode": "14195", "cc": "DE", "city": "Berlin", "state": "Berlin", "country": "Deutschland", "formattedAddress": ["Breitenbachpl. 12", "14195 Berlin", "Deutschland"]}, "categories": [{"id": "4bf58dd8d48988d1c1941735", "name": "Mexican Restaurant", "pluralName": "Mexican Restaurants", "shortName": "Mexican", "icon": {"prefix": "https://ss3.4sqi.net/img/categories_v2/food/mexican_", "suffix": ".png"}, "primary": true}], "photos": {"count": 0, "groups": []}}, "referralId": "e-0-4cb0c145562d224bb6481988-39"}, {"reasons": {"count": 0, "items": [{"summary": "This spot is popular", "type": "general", "reasonName": "globalInteractionReason"}]}, "venue": {"id": "4bdbcfc63904a593b9304c9e", "name": "Friedenauer TSC", "location": {"lat": 52.474643835695176, "lng": 13.32126978100919, "labeledLatLngs": [{"label": "display", "lat": 52.474643835695176, "lng": 13.32126978100919}], "distance": 670, "cc": "DE", "city": "Berlin", "state": "Berlin", "country": "Deutschland", "formattedAddress": ["Berlin", "Deutschland"]}, "categories": [{"id": "52e81612bcbc57f1066b7a2e", "name": "Sports Club", "pluralName": "Sports Clubs", "shortName": "Sports Club", "icon": {"prefix": "https://ss3.4sqi.net/img/categories_v2/shops/sports_outdoors_", "suffix": ".png"}, "primary": true}], "photos": {"count": 0, "groups": []}}, "referralId": "e-0-4bdbcfc63904a593b9304c9e-40"}, {"reasons": {"count": 0, "items": [{"summary": "This spot is popular", "type": "general", "reasonName": "globalInteractionReason"}]}, "venue": {"id": "4c7ba1fb794e224bb1bd6b28", "name": "Eiscaf\u00e9 Vienna", "location": {"address": "S\u00fcdwestkorso 9", "lat": 52.47472292753382, "lng": 13.321269696605983, "labeledLatLngs": [{"label": "display", "lat": 52.47472292753382, "lng": 13.321269696605983}], "distance": 673, "postalCode": "12161", "cc": "DE", "city": "Berlin", "state": "Berlin", "country": "Deutschland", "formattedAddress": ["S\u00fcdwestkorso 9", "12161 Berlin-Friedenau", "Deutschland"]}, "categories": [{"id": "4bf58dd8d48988d1c9941735", "name": "Ice Cream Shop", "pluralName": "Ice Cream Shops", "shortName": "Ice Cream", "icon": {"prefix": "https://ss3.4sqi.net/img/categories_v2/food/icecream_", "suffix": ".png"}, "primary": true}], "photos": {"count": 0, "groups": []}}, "referralId": "e-0-4c7ba1fb794e224bb1bd6b28-41"}, {"reasons": {"count": 0, "items": [{"summary": "This spot is popular", "type": "general", "reasonName": "globalInteractionReason"}]}, "venue": {"id": "52fe62ac498e1d7e7b571615", "name": "Restaurant Miteinander", "location": {"address": "Taunusstra\u00dfe 11", "crossStreet": "Taunusstra\u00dfe", "lat": 52.473646, "lng": 13.321695, "labeledLatLngs": [{"label": "display", "lat": 52.473646, "lng": 13.321695}], "distance": 675, "postalCode": "12161", "cc": "DE", "city": "Berlin", "state": "Berlin", "country": "Deutschland", "formattedAddress": ["Taunusstra\u00dfe 11 (Taunusstra\u00dfe)", "12161 Berlin", "Deutschland"]}, "categories": [{"id": "52e81612bcbc57f1066b7a01", "name": "Austrian Restaurant", "pluralName": "Austrian Restaurants", "shortName": "Austrian", "icon": {"prefix": "https://ss3.4sqi.net/img/categories_v2/food/austrian_", "suffix": ".png"}, "primary": true}], "photos": {"count": 0, "groups": []}}, "referralId": "e-0-52fe62ac498e1d7e7b571615-42"}, {"reasons": {"count": 0, "items": [{"summary": "This spot is popular", "type": "general", "reasonName": "globalInteractionReason"}]}, "venue": {"id": "4b1a6b7bf964a52020ea23e3", "name": "U Breitenbachplatz", "location": {"address": "Breitenbachplatz", "lat": 52.46705068058149, "lng": 13.308800533486076, "labeledLatLngs": [{"label": "display", "lat": 52.46705068058149, "lng": 13.308800533486076}], "distance": 679, "postalCode": "14195", "cc": "DE", "city": "Berlin", "state": "Berlin", "country": "Deutschland", "formattedAddress": ["Breitenbachplatz", "14195 Berlin", "Deutschland"]}, "categories": [{"id": "4bf58dd8d48988d1fd931735", "name": "Metro Station", "pluralName": "Metro Stations", "shortName": "Metro", "icon": {"prefix": "https://ss3.4sqi.net/img/categories_v2/travel/subway_", "suffix": ".png"}, "primary": true}], "photos": {"count": 0, "groups": []}}, "referralId": "e-0-4b1a6b7bf964a52020ea23e3-43"}, {"reasons": {"count": 0, "items": [{"summary": "This spot is popular", "type": "general", "reasonName": "globalInteractionReason"}]}, "venue": {"id": "4c94de6d82b56dcbd000d3aa", "name": "Kieser Training", "location": {"address": "Forckenbeckstr. 9-13", "lat": 52.48002824895229, "lng": 13.305574988395296, "labeledLatLngs": [{"label": "display", "lat": 52.48002824895229, "lng": 13.305574988395296}], "distance": 901, "postalCode": "14199", "cc": "DE", "city": "Berlin", "state": "Berlin", "country": "Deutschland", "formattedAddress": ["Forckenbeckstr. 9-13", "14199 Berlin", "Deutschland"]}, "categories": [{"id": "4bf58dd8d48988d176941735", "name": "Gym", "pluralName": "Gyms", "shortName": "Gym", "icon": {"prefix": "https://ss3.4sqi.net/img/categories_v2/building/gym_", "suffix": ".png"}, "primary": true}], "photos": {"count": 0, "groups": []}, "venuePage": {"id": "580276748"}}, "referralId": "e-0-4c94de6d82b56dcbd000d3aa-44"}, {"reasons": {"count": 0, "items": [{"summary": "This spot is popular", "type": "general", "reasonName": "globalInteractionReason"}]}, "venue": {"id": "4e959d357ee661772371891c", "name": "Commerzbank", "location": {"address": "Breitenbachplatz 16", "lat": 52.46682682962176, "lng": 13.307799652806857, "labeledLatLngs": [{"label": "display", "lat": 52.46682682962176, "lng": 13.307799652806857}], "distance": 726, "postalCode": "14195", "cc": "DE", "city": "Berlin", "state": "Berlin", "country": "Deutschland", "formattedAddress": ["Breitenbachplatz 16", "14195 Berlin", "Deutschland"]}, "categories": [{"id": "4bf58dd8d48988d10a951735", "name": "Bank", "pluralName": "Banks", "shortName": "Bank", "icon": {"prefix": "https://ss3.4sqi.net/img/categories_v2/shops/financial_", "suffix": ".png"}, "primary": true}], "photos": {"count": 0, "groups": []}}, "referralId": "e-0-4e959d357ee661772371891c-45"}, {"reasons": {"count": 0, "items": [{"summary": "This spot is popular", "type": "general", "reasonName": "globalInteractionReason"}]}, "venue": {"id": "4b23bf99f964a520ff5824e3", "name": "NETTO", "location": {"address": "Mecklenburgische Str. 27", "crossStreet": "Forckenbeckstr", "lat": 52.4791791, "lng": 13.308348, "labeledLatLngs": [{"label": "display", "lat": 52.4791791, "lng": 13.308348}], "distance": 739, "postalCode": "14197", "cc": "DE", "city": "Berlin", "state": "Berlin", "country": "Deutschland", "formattedAddress": ["Mecklenburgische Str. 27 (Forckenbeckstr)", "14197 Berlin", "Deutschland"]}, "categories": [{"id": "52f2ab2ebcbc57f1066b8b46", "name": "Supermarket", "pluralName": "Supermarkets", "shortName": "Supermarket", "icon": {"prefix": "https://ss3.4sqi.net/img/categories_v2/shops/food_grocery_", "suffix": ".png"}, "primary": true}], "photos": {"count": 0, "groups": []}, "venuePage": {"id": "454782272"}}, "referralId": "e-0-4b23bf99f964a520ff5824e3-46"}, {"reasons": {"count": 0, "items": [{"summary": "This spot is popular", "type": "general", "reasonName": "globalInteractionReason"}]}, "venue": {"id": "4b14d297f964a520cfa623e3", "name": "S+U Heidelberger Platz", "location": {"address": "Mecklenburgische Str. 23", "crossStreet": "A\u00dfmannshauser Str.", "lat": 52.47973533822178, "lng": 13.312253952026367, "labeledLatLngs": [{"label": "display", "lat": 52.47973533822178, "lng": 13.312253952026367}], "distance": 764, "postalCode": "14197", "cc": "DE", "city": "Berlin", "state": "Berlin", "country": "Deutschland", "formattedAddress": ["Mecklenburgische Str. 23 (A\u00dfmannshauser Str.)", "14197 Berlin", "Deutschland"]}, "categories": [{"id": "4bf58dd8d48988d1fc931735", "name": "Light Rail Station", "pluralName": "Light Rail Stations", "shortName": "Light Rail", "icon": {"prefix": "https://ss3.4sqi.net/img/categories_v2/travel/lightrail_", "suffix": ".png"}, "primary": true}], "photos": {"count": 0, "groups": []}}, "referralId": "e-0-4b14d297f964a520cfa623e3-47"}, {"reasons": {"count": 0, "items": [{"summary": "This spot is popular", "type": "general", "reasonName": "globalInteractionReason"}]}, "venue": {"id": "4e19c4e9e4cd49a7e3f5ffee", "name": "Eisfee Steglitz", "location": {"address": "Brentanostr. 5", "lat": 52.466115725280204, "lng": 13.309035301208496, "labeledLatLngs": [{"label": "display", "lat": 52.466115725280204, "lng": 13.309035301208496}], "distance": 775, "postalCode": "12163", "cc": "DE", "city": "Berlin", "state": "Berlin", "country": "Deutschland", "formattedAddress": ["Brentanostr. 5", "12163 Berlin", "Deutschland"]}, "categories": [{"id": "4bf58dd8d48988d1d0941735", "name": "Dessert Shop", "pluralName": "Dessert Shops", "shortName": "Desserts", "icon": {"prefix": "https://ss3.4sqi.net/img/categories_v2/food/dessert_", "suffix": ".png"}, "primary": true}], "photos": {"count": 0, "groups": []}}, "referralId": "e-0-4e19c4e9e4cd49a7e3f5ffee-48"}, {"reasons": {"count": 0, "items": [{"summary": "This spot is popular", "type": "general", "reasonName": "globalInteractionReason"}]}, "venue": {"id": "4f29a051e4b015f8e4db053e", "name": "Il Gattopardo", "location": {"address": "Schorlemerallee 5", "lat": 52.466068045679286, "lng": 13.30683455321377, "labeledLatLngs": [{"label": "display", "lat": 52.466068045679286, "lng": 13.30683455321377}], "distance": 829, "postalCode": "14195", "cc": "DE", "city": "Berlin", "state": "Berlin", "country": "Deutschland", "formattedAddress": ["Schorlemerallee 5", "14195 Berlin", "Deutschland"]}, "categories": [{"id": "4bf58dd8d48988d110941735", "name": "Italian Restaurant", "pluralName": "Italian Restaurants", "shortName": "Italian", "icon": {"prefix": "https://ss3.4sqi.net/img/categories_v2/food/italian_", "suffix": ".png"}, "primary": true}], "photos": {"count": 0, "groups": []}}, "referralId": "e-0-4f29a051e4b015f8e4db053e-49"}, {"reasons": {"count": 0, "items": [{"summary": "This spot is popular", "type": "general", "reasonName": "globalInteractionReason"}]}, "venue": {"id": "4e275ec91850679fa4129a62", "name": "Schillerplatz", "location": {"address": "Wiesbadener Str.", "crossStreet": "Stubenrauchstr.", "lat": 52.47164572940529, "lng": 13.324034214019775, "labeledLatLngs": [{"label": "display", "lat": 52.47164572940529, "lng": 13.324034214019775}], "distance": 840, "postalCode": "12161", "cc": "DE", "city": "Berlin", "state": "Berlin", "country": "Deutschland", "formattedAddress": ["Wiesbadener Str. (Stubenrauchstr.)", "12161 Berlin", "Deutschland"]}, "categories": [{"id": "4bf58dd8d48988d164941735", "name": "Plaza", "pluralName": "Plazas", "shortName": "Plaza", "icon": {"prefix": "https://ss3.4sqi.net/img/categories_v2/parks_outdoors/plaza_", "suffix": ".png"}, "primary": true}], "photos": {"count": 0, "groups": []}}, "referralId": "e-0-4e275ec91850679fa4129a62-50"}, {"reasons": {"count": 0, "items": [{"summary": "This spot is popular", "type": "general", "reasonName": "globalInteractionReason"}]}, "venue": {"id": "5536a42d498efc81eb7c5578", "name": "Mario Tagesbar", "location": {"address": "Breitenbachplatz 17", "lat": 52.46600224103712, "lng": 13.306373436744762, "labeledLatLngs": [{"label": "display", "lat": 52.46600224103712, "lng": 13.306373436744762}], "distance": 849, "postalCode": "14195", "cc": "DE", "city": "Berlin", "state": "Berlin", "country": "Deutschland", "formattedAddress": ["Breitenbachplatz 17", "14195 Berlin", "Deutschland"]}, "categories": [{"id": "4bf58dd8d48988d110941735", "name": "Italian Restaurant", "pluralName": "Italian Restaurants", "shortName": "Italian", "icon": {"prefix": "https://ss3.4sqi.net/img/categories_v2/food/italian_", "suffix": ".png"}, "primary": true}], "photos": {"count": 0, "groups": []}}, "referralId": "e-0-5536a42d498efc81eb7c5578-51"}, {"reasons": {"count": 0, "items": [{"summary": "This spot is popular", "type": "general", "reasonName": "globalInteractionReason"}]}, "venue": {"id": "4ba2776ef964a52084fb37e3", "name": "Il Caminetto", "location": {"address": "Detmolder Str. 50", "crossStreet": "Ecke Blissestr.", "lat": 52.47876275142407, "lng": 13.320827228153263, "labeledLatLngs": [{"label": "display", "lat": 52.47876275142407, "lng": 13.320827228153263}], "distance": 896, "postalCode": "10715", "cc": "DE", "city": "Berlin", "state": "Berlin", "country": "Deutschland", "formattedAddress": ["Detmolder Str. 50 (Ecke Blissestr.)", "10715 Berlin", "Deutschland"]}, "categories": [{"id": "4bf58dd8d48988d110941735", "name": "Italian Restaurant", "pluralName": "Italian Restaurants", "shortName": "Italian", "icon": {"prefix": "https://ss3.4sqi.net/img/categories_v2/food/italian_", "suffix": ".png"}, "primary": true}], "photos": {"count": 0, "groups": []}}, "referralId": "e-0-4ba2776ef964a52084fb37e3-52"}, {"reasons": {"count": 0, "items": [{"summary": "This spot is popular", "type": "general", "reasonName": "globalInteractionReason"}]}, "venue": {"id": "510955abe4b0e6d0ff9b9bef", "name": "Eco-Express Waschsalon", "location": {"address": "Blissestr.", "lat": 52.47940528762077, "lng": 13.320445614939675, "labeledLatLngs": [{"label": "display", "lat": 52.47940528762077, "lng": 13.320445614939675}], "distance": 933, "cc": "DE", "city": "Berlin", "state": "Berlin", "country": "Deutschland", "formattedAddress": ["Blissestr.", "Berlin", "Deutschland"]}, "categories": [{"id": "52f2ab2ebcbc57f1066b8b33", "name": "Laundromat", "pluralName": "Laundromats", "shortName": "Laundromat", "icon": {"prefix": "https://ss3.4sqi.net/img/categories_v2/shops/laundry_", "suffix": ".png"}, "primary": true}], "photos": {"count": 0, "groups": []}}, "referralId": "e-0-510955abe4b0e6d0ff9b9bef-53"}, {"reasons": {"count": 0, "items": [{"summary": "This spot is popular", "type": "general", "reasonName": "globalInteractionReason"}]}, "venue": {"id": "51656909e4b03ca3de013e5b", "name": "Getr\u00e4nke Hoffmann", "location": {"address": "Detmolder Stra\u00dfe 15/16", "lat": 52.47891161720433, "lng": 13.32218410548785, "labeledLatLngs": [{"label": "display", "lat": 52.47891161720433, "lng": 13.32218410548785}], "distance": 972, "postalCode": "10715", "cc": "DE", "city": "Berlin", "state": "Berlin", "country": "Deutschland", "formattedAddress": ["Detmolder Stra\u00dfe 15/16", "10715 Berlin", "Deutschland"]}, "categories": [{"id": "4bf58dd8d48988d186941735", "name": "Liquor Store", "pluralName": "Liquor Stores", "shortName": "Liquor Store", "icon": {"prefix": "https://ss3.4sqi.net/img/categories_v2/shops/food_liquor_", "suffix": ".png"}, "primary": true}], "photos": {"count": 0, "groups": []}}, "referralId": "e-0-51656909e4b03ca3de013e5b-54"}]