[{"reasons": {"count": 0, "items": [{"summary": "This spot is popular", "type": "general", "reasonName": "globalInteractionReason"}]}, "venue": {"id": "4e32f6ac1838df3b5f68611e", "name": "Sabor Latino", "location": {"address": "Badensche Stra\u00dfe 35", "lat": 52.48609421096733, "lng": 13.329900428763835, "labeledLatLngs": [{"label": "display", "lat": 52.48609421096733, "lng": 13.329900428763835}], "distance": 50, "cc": "DE", "city": "Berlin", "state": "Berlin", "country": "Deutschland", "formattedAddress": ["Badensche Stra\u00dfe 35", "Berlin", "Deutschland"]}, "categories": [{"id": "4eb1bfa43b7b52c0e1adc2e8", "name": "Peruvian Restaurant", "pluralName": "Peruvian Restaurants", "shortName": "Peruvian", "icon": {"prefix": "https://ss3.4sqi.net/img/categories_v2/food/peruvian_", "suffix": ".png"}, "primary": true}], "photos": {"count": 0, "groups": []}}, "referralId": "e-0-4e32f6ac1838df3b5f68611e-0"}, {"reasons": {"count": 0, "items": [{"summary": "This spot is popular", "type": "general", "reasonName": "globalInteractionReason"}]}, "venue": {"id": "4bc9cd37fb84c9b6539c1b3e", "name": "Volkspark Wilmersdorf", "location": {"address": "Bundesallee", "crossStreet": "Am Volkspark", "lat": 52.48327679259119, "lng": 13.327703475952148, "labeledLatLngs": [{"label": "display", "lat": 52.48327679259119, "lng": 13.327703475952148}], "distance": 301, "postalCode": "10713", "cc": "DE", "neighborhood": "Bundesplatz", "city": "Berlin", "state": "Berlin", "country": "Deutschland", "formattedAddress": ["Bundesallee (Am Volkspark)", "10713 Berlin", "Deutschland"]}, "categories": [{"id": "4bf58dd8d48988d163941735", "name": "Park", "pluralName": "Parks", "shortName": "Park", "icon": {"prefix": "https://ss3.4sqi.net/img/categories_v2/parks_outdoors/park_", "suffix": ".png"}, "primary": true}], "photos": {"count": 0, "groups": []}}, "referralId": "e-0-4bc9cd37fb84c9b6539c1b3e-1"}, {"reasons": {"count": 0, "items": [{"summary": "This spot is popular", "type": "general", "reasonName": "globalInteractionReason"}]}, "venue": {"id": "4b8287cef964a520f7d630e3", "name": "Tian Fu II", "location": {"address": "Berliner Str. 15", "lat": 52.48713276538342, "lng": 13.329602326226212, "labeledLatLngs": [{"label": "display", "lat": 52.48713276538342, "lng": 13.329602326226212}], "distance": 150, "postalCode": "10715", "cc": "DE", "city": "Berlin", "state": "Berlin", "country": "Deutschland", "formattedAddress": ["Berliner Str. 15", "10715 Berlin", "Deutschland"]}, "categories": [{"id": "4bf58dd8d48988d145941735", "name": "Chinese Restaurant", "pluralName": "Chinese Restaurants", "shortName": "Chinese", "icon": {"prefix": "https://ss3.4sqi.net/img/categories_v2/food/asian_", "suffix": ".png"}, "primary": true}], "photos": {"count": 0, "groups": []}}, "referralId": "e-0-4b8287cef964a520f7d630e3-2"}, {"reasons": {"count": 0, "items": [{"summary": "This spot is popular", "type": "general", "reasonName": "globalInteractionReason"}]}, "venue": {"id": "4b6dc6d2f964a520c58e2ce3", "name": "Badenscher Hof", "location": {"address": "Badensche Str. 29", "lat": 52.48638842419361, "lng": 13.32775270543339, "labeledLatLngs": [{"label": "display", "lat": 52.48638842419361, "lng": 13.32775270543339}], "distance": 126, "postalCode": "10715", "cc": "DE", "city": "Berlin", "state": "Berlin", "country": "Deutschland", "formattedAddress": ["Badensche Str. 29", "10715 Berlin", "Deutschland"]}, "categories": [{"id": "4bf58dd8d48988d1e7931735", "name": "Jazz Club", "pluralName": "Jazz Clubs", "shortName": "Jazz Club", "icon": {"prefix": "https://ss3.4sqi.net/img/categories_v2/arts_entertainment/musicvenue_jazzclub_", "suffix": ".png"}, "primary": true}], "photos": {"count": 0, "groups": []}}, "referralId": "e-0-4b6dc6d2f964a520c58e2ce3-3"}, {"reasons": {"count": 0, "items": [{"summary": "This spot is popular", "type": "general", "reasonName": "globalInteractionReason"}]}, "venue": {"id": "4d315d87eefa8cfa3bab2ab3", "name": "Weichardt Brot", "location": {"address": "Mehlitzstr. 7", "lat": 52.48595180187414, "lng": 13.32616546826688, "labeledLatLngs": [{"label": "display", "lat": 52.48595180187414, "lng": 13.32616546826688}], "distance": 215, "postalCode": "10715", "cc": "DE", "city": "Berlin", "state": "Berlin", "country": "Deutschland", "formattedAddress": ["Mehlitzstr. 7", "10715 Berlin", "Deutschland"]}, "categories": [{"id": "4bf58dd8d48988d16a941735", "name": "Bakery", "pluralName": "Bakeries", "shortName": "Bakery", "icon": {"prefix": "https://ss3.4sqi.net/img/categories_v2/food/bakery_", "suffix": ".png"}, "primary": true}], "photos": {"count": 0, "groups": []}}, "referralId": "e-0-4d315d87eefa8cfa3bab2ab3-4"}, {"reasons": {"count": 0, "items": [{"summary": "This spot is popular", "type": "general", "reasonName": "globalInteractionReason"}]}, "venue": {"id": "586fe4c4cc05d163d8f13975", "name": "ANH BA", "location": {"address": "Nassauische Str. 36", "crossStreet": "Gasteiner Str.", "lat": 52.487191, "lng": 13.326351, "labeledLatLngs": [{"label": "display", "lat": 52.487191, "lng": 13.326351}], "distance": 255, "postalCode": "10717", "cc": "DE", "city": "Berlin", "state": "Berlin", "country": "Deutschland", "formattedAddress": ["Nassauische Str. 36 (Gasteiner Str.)", "10717 Berlin", "Deutschland"]}, "categories": [{"id": "4bf58dd8d48988d14a941735", "name": "Vietnamese Restaurant", "pluralName": "Vietnamese Restaurants", "shortName": "Vietnamese", "icon": {"prefix": "https://ss3.4sqi.net/img/categories_v2/food/vietnamese_", "suffix": ".png"}, "primary": true}], "photos": {"count": 0, "groups": []}}, "referralId": "e-0-586fe4c4cc05d163d8f13975-5"}, {"reasons": {"count": 0, "items": [{"summary": "This spot is popular", "type": "general", "reasonName": "globalInteractionReason"}]}, "venue": {"id": "4bddb02b587b2d7f40ab5409", "name": "A Telha", "location": {"address": "Holsteinische Str. 17", "lat": 52.49052, "lng": 13.325013, "labeledLatLngs": [{"label": "display", "lat": 52.49052, "lng": 13.325013}], "distance": 602, "postalCode": "10717", "cc": "DE", "city": "Berlin", "state": "Berlin", "country": "Deutschland", "formattedAddress": ["Holsteinische Str. 17", "10717 Berlin", "Deutschland"]}, "categories": [{"id": "4bf58dd8d48988d1ce941735", "name": "Seafood Restaurant", "pluralName": "Seafood Restaurants", "shortName": "Seafood", "icon": {"prefix": "https://ss3.4sqi.net/img/categories_v2/food/seafood_", "suffix": ".png"}, "primary": true}], "photos": {"count": 0, "groups": []}}, "referralId": "e-0-4bddb02b587b2d7f40ab5409-6"}, {"reasons": {"count": 0, "items": [{"summary": "This spot is popular", "type": "general", "reasonName": "globalInteractionReason"}]}, "venue": {"id": "58ca4103a8b759134ed01b17", "name": "BIO COMPANY", "location": {"address": "Uhlandstr. 103", "lat": 52.48570423099271, "lng": 13.32251556908651, "labeledLatLngs": [{"label": "display", "lat": 52.48570423099271, "lng": 13.32251556908651}], "distance": 462, "postalCode": "10715", "cc": "DE", "city": "Berlin", "state": "Berlin", "country": "Deutschland", "formattedAddress": ["Uhlandstr. 103", "10715 Berlin", "Deutschland"]}, "categories": [{"id": "52f2ab2ebcbc57f1066b8b45", "name": "Organic Grocery", "pluralName": "Organic Groceries", "shortName": "Organic Grocery", "icon": {"prefix": "https://ss3.4sqi.net/img/categories_v2/shops/food_grocery_", "suffix": ".png"}, "primary": true}], "photos": {"count": 0, "groups": []}}, "referralId": "e-0-58ca4103a8b759134ed01b17-7"}, {"reasons": {"count": 0, "items": [{"summary": "This spot is popular", "type": "general", "reasonName": "globalInteractionReason"}]}, "venue": {"id": "540c3f25498e9f26315019ff", "name": "Taverna Ousia", "location": {"address": "Grunewaldstr. 54", "crossStreet": "Bozener Str.", "lat": 52.488141986203104, "lng": 13.338181689872261, "labeledLatLngs": [{"label": "display", "lat": 52.488141986203104, "lng": 13.338181689872261}], "distance": 653, "postalCode": "10825", "cc": "DE", "city": "Berlin", "state": "Berlin", "country": "Deutschland", "formattedAddress": ["Grunewaldstr. 54 (Bozener Str.)", "10825 Berlin", "Deutschland"]}, "categories": [{"id": "53d6c1b0e4b02351e88a83d2", "name": "Taverna", "pluralName": "Tavernas", "shortName": "Tavernas", "icon": {"prefix": "https://ss3.4sqi.net/img/categories_v2/food/greek_", "suffix": ".png"}, "primary": true}], "photos": {"count": 0, "groups": []}}, "referralId": "e-0-540c3f25498e9f26315019ff-8"}, {"reasons": {"count": 0, "items": [{"summary": "This spot is popular", "type": "general", "reasonName": "globalInteractionReason"}]}, "venue": {"id": "4c613d1854ac0f47ef5db721", "name": "Les Baguettes", "location": {"address": "Berliner Str. 22", "lat": 52.4866644300123, "lng": 13.326319456100464, "labeledLatLngs": [{"label": "display", "lat": 52.4866644300123, "lng": 13.326319456100464}], "distance": 226, "postalCode": "10715", "cc": "DE", "city": "Berlin", "state": "Berlin", "country": "Deutschland", "formattedAddress": ["Berliner Str. 22", "10715 Berlin", "Deutschland"]}, "categories": [{"id": "4bf58dd8d48988d16a941735", "name": "Bakery", "pluralName": "Bakeries", "shortName": "Bakery", "icon": {"prefix": "https://ss3.4sqi.net/img/categories_v2/food/bakery_", "suffix": ".png"}, "primary": true}], "photos": {"count": 0, "groups": []}}, "referralId": "e-0-4c613d1854ac0f47ef5db721-9"}, {"reasons": {"count": 0, "items": [{"summary": "This spot is popular", "type": "general", "reasonName": "globalInteractionReason"}]}, "venue": {"id": "4c57ce9dd12a20a10c9567bd", "name": "Rossmann", "location": {"address": "Berliner Str. 132", "lat": 52.48644727236808, "lng": 13.321676651243681, "labeledLatLngs": [{"label": "display", "lat": 52.48644727236808, "lng": 13.321676651243681}], "distance": 524, "postalCode": "10715", "cc": "DE", "city": "Berlin", "state": "Berlin", "country": "Deutschland", "formattedAddress": ["Berliner Str. 132", "10715 Berlin", "Deutschland"]}, "categories": [{"id": "5745c2e4498e11e7bccabdbd", "name": "Drugstore", "pluralName": "Drugstores", "shortName": "Drugstore", "icon": {"prefix": "https://ss3.4sqi.net/img/categories_v2/shops/pharmacy_", "suffix": ".png"}, "primary": true}], "photos": {"count": 0, "groups": []}}, "referralId": "e-0-4c57ce9dd12a20a10c9567bd-10"}, {"reasons": {"count": 0, "items": [{"summary": "This spot is popular", "type": "general", "reasonName": "globalInteractionReason"}]}, "venue": {"id": "58a04ec901f0772d803c209d", "name": "Bahadur", "location": {"address": "Sigmaringer Str. 36", "lat": 52.48779080041393, "lng": 13.319594974738457, "labeledLatLngs": [{"label": "display", "lat": 52.48779080041393, "lng": 13.319594974738457}], "distance": 696, "postalCode": "10713", "cc": "DE", "city": "Berlin", "state": "Berlin", "country": "Deutschland", "formattedAddress": ["Sigmaringer Str. 36", "10713 Berlin", "Deutschland"]}, "categories": [{"id": "4bf58dd8d48988d10f941735", "name": "Indian Restaurant", "pluralName": "Indian Restaurants", "shortName": "Indian", "icon": {"prefix": "https://ss3.4sqi.net/img/categories_v2/food/indian_", "suffix": ".png"}, "primary": true}], "photos": {"count": 0, "groups": []}}, "referralId": "e-0-58a04ec901f0772d803c209d-11"}, {"reasons": {"count": 0, "items": [{"summary": "This spot is popular", "type": "general", "reasonName": "globalInteractionReason"}]}, "venue": {"id": "4adcda88f964a5206e4921e3", "name": "Bieberbau", "location": {"address": "Durlacher Str. 15", "lat": 52.47964047523588, "lng": 13.333732821055968, "labeledLatLngs": [{"label": "display", "lat": 52.47964047523588, "lng": 13.333732821055968}], "distance": 747, "postalCode": "10715", "cc": "DE", "city": "Berlin", "state": "Berlin", "country": "Deutschland", "formattedAddress": ["Durlacher Str. 15", "10715 Berlin", "Deutschland"]}, "categories": [{"id": "4bf58dd8d48988d10d941735", "name": "German Restaurant", "pluralName": "German Restaurants", "shortName": "German", "icon": {"prefix": "https://ss3.4sqi.net/img/categories_v2/food/german_", "suffix": ".png"}, "primary": true}], "photos": {"count": 0, "groups": []}}, "referralId": "e-0-4adcda88f964a5206e4921e3-12"}, {"reasons": {"count": 0, "items": [{"summary": "This spot is popular", "type": "general", "reasonName": "globalInteractionReason"}]}, "venue": {"id": "5c3f5bb37c891c002d9a7a5e", "name": "Thai-Art", "location": {"address": "Berliner Stra\u00dfe 42A", "lat": 52.486654, "lng": 13.319444, "labeledLatLngs": [{"label": "display", "lat": 52.486654, "lng": 13.319444}], "distance": 677, "postalCode": "10713", "cc": "DE", "city": "Berlin", "state": "Berlin", "country": "Deutschland", "formattedAddress": ["Berliner Stra\u00dfe 42A", "10713 Berlin", "Deutschland"]}, "categories": [{"id": "4bf58dd8d48988d149941735", "name": "Thai Restaurant", "pluralName": "Thai Restaurants", "shortName": "Thai", "icon": {"prefix": "https://ss3.4sqi.net/img/categories_v2/food/thai_", "suffix": ".png"}, "primary": true}], "photos": {"count": 0, "groups": []}}, "referralId": "e-0-5c3f5bb37c891c002d9a7a5e-13"}, {"reasons": {"count": 0, "items": [{"summary": "This spot is popular", "type": "general", "reasonName": "globalInteractionReason"}]}, "venue": {"id": "4bbdc6e6a8cf76b0891eb2fd", "name": "BioBackHaus", "location": {"address": "Nassauische Str. 16a", "lat": 52.49091896268291, "lng": 13.326505487682153, "labeledLatLngs": [{"label": "display", "lat": 52.49091896268291, "lng": 13.326505487682153}], "distance": 601, "postalCode": "10717", "cc": "DE", "city": "Berlin", "state": "Berlin", "country": "Deutschland", "formattedAddress": ["Nassauische Str. 16a", "10717 Berlin", "Deutschland"]}, "categories": [{"id": "4bf58dd8d48988d16a941735", "name": "Bakery", "pluralName": "Bakeries", "shortName": "Bakery", "icon": {"prefix": "https://ss3.4sqi.net/img/categories_v2/food/bakery_", "suffix": ".png"}, "primary": true}], "photos": {"count": 0, "groups": []}}, "referralId": "e-0-4bbdc6e6a8cf76b0891eb2fd-14"}, {"reasons": {"count": 0, "items": [{"summary": "This spot is popular", "type": "general", "reasonName": "globalInteractionReason"}]}, "venue": {"id": "5563623e498efee5415f6a37", "name": "Francesco Forgione", "location": {"address": "Uhlandstr. 104", "lat": 52.48740268473961, "lng": 13.322821855545044, "labeledLatLngs": [{"label": "display", "lat": 52.48740268473961, "lng": 13.322821855545044}], "distance": 476, "postalCode": "10717", "cc": "DE", "neighborhood": "Hohenzollernplatz", "city": "Berlin", "state": "Berlin", "country": "Deutschland", "formattedAddress": ["Uhlandstr. 104", "10717 Berlin", "Deutschland"]}, "categories": [{"id": "4bf58dd8d48988d110941735", "name": "Italian Restaurant", "pluralName": "Italian Restaurants", "shortName": "Italian", "icon": {"prefix": "https://ss3.4sqi.net/img/categories_v2/food/italian_", "suffix": ".png"}, "primary": true}], "photos": {"count": 0, "groups": []}}, "referralId": "e-0-5563623e498efee5415f6a37-15"}, {"reasons": {"count": 0, "items": [{"summary": "This spot is popular", "type": "general", "reasonName": "globalInteractionReason"}]}, "venue": {"id": "4adcda7df964a520894721e3", "name": "Rudolph-Wilde-Park", "location": {"address": "Martin-Luther-Str.", "crossStreet": "Fritz-Elsas-Str.", "lat": 52.48257113808005, "lng": 13.339848518371582, "labeledLatLngs": [{"label": "display", "lat": 52.48257113808005, "lng": 13.339848518371582}], "distance": 797, "postalCode": "10825", "cc": "DE", "city": "Berlin", "state": "Berlin", "country": "Deutschland", "formattedAddress": ["Martin-Luther-Str. (Fritz-Elsas-Str.)", "10825 Berlin", "Deutschland"]}, "categories": [{"id": "4bf58dd8d48988d163941735", "name": "Park", "pluralName": "Parks", "shortName": "Park", "icon": {"prefix": "https://ss3.4sqi.net/img/categories_v2/parks_outdoors/park_", "suffix": ".png"}, "primary": true}], "photos": {"count": 0, "groups": []}}, "referralId": "e-0-4adcda7df964a520894721e3-16"}, {"reasons": {"count": 0, "items": [{"summary": "This spot is popular", "type": "general", "reasonName": "globalInteractionReason"}]}, "venue": {"id": "518bb50d498e52f9aa5864f7", "name": "Mr. Gyros", "location": {"address": "Grunewaldstrasse 54", "crossStreet": "Bambergerstrasse and Grunewaldstrasse", "lat": 52.48835511272416, "lng": 13.337801446613824, "labeledLatLngs": [{"label": "display", "lat": 52.48835511272416, "lng": 13.337801446613824}], "distance": 640, "postalCode": "10825", "cc": "DE", "city": "Berlin", "state": "Berlin", "country": "Deutschland", "formattedAddress": ["Grunewaldstrasse 54 (Bambergerstrasse and Grunewaldstrasse)", "10825 Berlin", "Deutschland"]}, "categories": [{"id": "4bf58dd8d48988d10e941735", "name": "Greek Restaurant", "pluralName": "Greek Restaurants", "shortName": "Greek", "icon": {"prefix": "https://ss3.4sqi.net/img/categories_v2/food/greek_", "suffix": ".png"}, "primary": true}], "photos": {"count": 0, "groups": []}, "venuePage": {"id": "65584635"}}, "referralId": "e-0-518bb50d498e52f9aa5864f7-17"}, {"reasons": {"count": 0, "items": [{"summary": "This spot is popular", "type": "general", "reasonName": "globalInteractionReason"}]}, "venue": {"id": "51549c63e4b0ac96a8613d22", "name": "Samrat", "location": {"address": "G\u00fcntzelstr. 19-20", "lat": 52.49112966356372, "lng": 13.325864431952068, "labeledLatLngs": [{"label": "display", "lat": 52.49112966356372, "lng": 13.325864431952068}], "distance": 638, "postalCode": "10717", "cc": "DE", "city": "Berlin", "state": "Berlin", "country": "Deutschland", "formattedAddress": ["G\u00fcntzelstr. 19-20", "10717 Berlin", "Deutschland"]}, "categories": [{"id": "4bf58dd8d48988d10f941735", "name": "Indian Restaurant", "pluralName": "Indian Restaurants", "shortName": "Indian", "icon": {"prefix": "https://ss3.4sqi.net/img/categories_v2/food/indian_", "suffix": ".png"}, "primary": true}], "photos": {"count": 0, "groups": []}}, "referralId": "e-0-51549c63e4b0ac96a8613d22-18"}, {"reasons": {"count": 0, "items": [{"summary": "This spot is popular", "type": "general", "reasonName": "globalInteractionReason"}]}, "venue": {"id": "4a1c69dff964a5203c7b1fe3", "name": "EDEKA", "location": {"address": "Berliner Str. 24-25", "lat": 52.4867891, "lng": 13.3255348, "labeledLatLngs": [{"label": "display", "lat": 52.4867891, "lng": 13.3255348}], "distance": 280, "postalCode": "10715", "cc": "DE", "city": "Berlin", "state": "Berlin", "country": "Deutschland", "formattedAddress": ["Berliner Str. 24-25", "10715 Berlin", "Deutschland"]}, "categories": [{"id": "52f2ab2ebcbc57f1066b8b46", "name": "Supermarket", "pluralName": "Supermarkets", "shortName": "Supermarket", "icon": {"prefix": "https://ss3.4sqi.net/img/categories_v2/shops/food_grocery_", "suffix": ".png"}, "primary": true}], "photos": {"count": 0, "groups": []}, "venuePage": {"id": "556704673"}}, "referralId": "e-0-4a1c69dff964a5203c7b1fe3-19"}, {"reasons": {"count": 0, "items": [{"summary": "This spot is popular", "type": "general", "reasonName": "globalInteractionReason"}]}, "venue": {"id": "55634df8498ec487d918a30e", "name": "Trattoria Acquolina", "location": {"address": "Hildegardstr. 17a", "lat": 52.481967, "lng": 13.320852, "labeledLatLngs": [{"label": "display", "lat": 52.481967, "lng": 13.320852}], "distance": 715, "postalCode": "10715", "cc": "DE", "city": "Berlin", "state": "Berlin", "country": "Deutschland", "formattedAddress": ["Hildegardstr. 17a", "10715 Berlin", "Deutschland"]}, "categories": [{"id": "55a5a1ebe4b013909087cb7f", "name": "Trattoria/Osteria", "pluralName": "Trattorias/Osterias", "shortName": "Trattoria/Osteria", "icon": {"prefix": "https://ss3.4sqi.net/img/categories_v2/food/italian_", "suffix": ".png"}, "primary": true}], "photos": {"count": 0, "groups": []}}, "referralId": "e-0-55634df8498ec487d918a30e-20"}, {"reasons": {"count": 0, "items": [{"summary": "This spot is popular", "type": "general", "reasonName": "globalInteractionReason"}]}, "venue": {"id": "4adcda8bf964a520ee4921e3", "name": "EVA Lichtspiele", "location": {"address": "Blissestr. 18", "lat": 52.48464151811313, "lng": 13.320160541709342, "labeledLatLngs": [{"label": "display", "lat": 52.48464151811313, "lng": 13.320160541709342}], "distance": 635, "postalCode": "10713", "cc": "DE", "city": "Berlin", "state": "Berlin", "country": "Deutschland", "formattedAddress": ["Blissestr. 18", "10713 Berlin", "Deutschland"]}, "categories": [{"id": "4bf58dd8d48988d17e941735", "name": "Indie Movie Theater", "pluralName": "Indie Movie Theaters", "shortName": "Indie Movies", "icon": {"prefix": "https://ss3.4sqi.net/img/categories_v2/arts_entertainment/movietheater_", "suffix": ".png"}, "primary": true}], "photos": {"count": 0, "groups": []}}, "referralId": "e-0-4adcda8bf964a520ee4921e3-21"}, {"reasons": {"count": 0, "items": [{"summary": "This spot is popular", "type": "general", "reasonName": "globalInteractionReason"}]}, "venue": {"id": "4b609427f964a5208eee29e3", "name": "Witwe Bolte", "location": {"address": "Uhlandstra\u00dfe 133", "lat": 52.4925, "lng": 13.323716, "labeledLatLngs": [{"label": "display", "lat": 52.4925, "lng": 13.323716}], "distance": 838, "postalCode": "10717", "cc": "DE", "city": "Berlin", "state": "Berlin", "country": "Deutschland", "formattedAddress": ["Uhlandstra\u00dfe 133", "10717 Berlin", "Deutschland"]}, "categories": [{"id": "4bf58dd8d48988d10d941735", "name": "German Restaurant", "pluralName": "German Restaurants", "shortName": "German", "icon": {"prefix": "https://ss3.4sqi.net/img/categories_v2/food/german_", "suffix": ".png"}, "primary": true}], "photos": {"count": 0, "groups": []}}, "referralId": "e-0-4b609427f964a5208eee29e3-22"}, {"reasons": {"count": 0, "items": [{"summary": "This spot is popular", "type": "general", "reasonName": "globalInteractionReason"}]}, "venue": {"id": "525aeec711d26b8d7b567085", "name": "Alas mediterraneum", "location": {"address": "Detmolder Str. 59", "crossStreet": "Weimarische Str.", "lat": 52.478562, "lng": 13.324682, "labeledLatLngs": [{"label": "display", "lat": 52.478562, "lng": 13.324682}], "distance": 864, "cc": "DE", "city": "Berlin", "state": "Berlin", "country": "Deutschland", "formattedAddress": ["Detmolder Str. 59 (Weimarische Str.)", "Berlin", "Deutschland"]}, "categories": [{"id": "4bf58dd8d48988d10e941735", "name": "Greek Restaurant", "pluralName": "Greek Restaurants", "shortName": "Greek", "icon": {"prefix": "https://ss3.4sqi.net/img/categories_v2/food/greek_", "suffix": ".png"}, "primary": true}], "photos": {"count": 0, "groups": []}}, "referralId": "e-0-525aeec711d26b8d7b567085-23"}, {"reasons": {"count": 0, "items": [{"summary": "This spot is popular", "type": "general", "reasonName": "globalInteractionReason"}]}, "venue": {"id": "4dc25100ae60966750a7774c", "name": "ADAC Gesch\u00e4ftsstelle", "location": {"address": "Bundesallee 29-30", "lat": 52.49126, "lng": 13.33041, "labeledLatLngs": [{"label": "display", "lat": 52.49126, "lng": 13.33041}], "distance": 612, "postalCode": "10717", "cc": "DE", "city": "Berlin", "state": "Berlin", "country": "Deutschland", "formattedAddress": ["Bundesallee 29-30", "10717 Berlin", "Deutschland"]}, "categories": [{"id": "4bf58dd8d48988d1ff941735", "name": "Miscellaneous Shop", "pluralName": "Miscellaneous Shops", "shortName": "Shop", "icon": {"prefix": "https://ss3.4sqi.net/img/categories_v2/shops/default_", "suffix": ".png"}, "primary": true}], "photos": {"count": 0, "groups": []}}, "referralId": "e-0-4dc25100ae60966750a7774c-24"}, {"reasons": {"count": 0, "items": [{"summary": "This spot is popular", "type": "general", "reasonName": "globalInteractionReason"}]}, "venue": {"id": "4e9e9fff30f8fb6775ffcfb4", "name": "Cafe Geschmacklos", "location": {"address": "Badensche Str. 50", "lat": 52.48567188174349, "lng": 13.337519534861807, "labeledLatLngs": [{"label": "display", "lat": 52.48567188174349, "lng": 13.337519534861807}], "distance": 554, "postalCode": "10825", "cc": "DE", "city": "Berlin", "state": "Berlin", "country": "Deutschland", "formattedAddress": ["Badensche Str. 50", "10825 Berlin", "Deutschland"]}, "categories": [{"id": "4bf58dd8d48988d1e0931735", "name": "Coffee Shop", "pluralName": "Coffee Shops", "shortName": "Coffee Shop", "icon": {"prefix": "https://ss3.4sqi.net/img/categories_v2/food/coffeeshop_", "suffix": ".png"}, "primary": true}], "photos": {"count": 0, "groups": []}}, "referralId": "e-0-4e9e9fff30f8fb6775ffcfb4-25"}, {"reasons": {"count": 0, "items": [{"summary": "This spot is popular", "type": "general", "reasonName": "globalInteractionReason"}]}, "venue": {"id": "4b8162ddf964a520eba230e3", "name": "S\u00fc\u00dfkramdealer", "location": {"address": "Varziner Str. 4", "crossStreet": "Varziner Platz", "lat": 52.4772746297074, "lng": 13.330189298005818, "labeledLatLngs": [{"label": "display", "lat": 52.4772746297074, "lng": 13.330189298005818}], "distance": 950, "postalCode": "12159", "cc": "DE", "city": "Berlin", "state": "Berlin", "country": "Deutschland", "formattedAddress": ["Varziner Str. 4 (Varziner Platz)", "12159 Berlin", "Deutschland"]}, "categories": [{"id": "4bf58dd8d48988d117951735", "name": "Candy Store", "pluralName": "Candy Stores", "shortName": "Candy Store", "icon": {"prefix": "https://ss3.4sqi.net/img/categories_v2/shops/candystore_", "suffix": ".png"}, "primary": true}], "photos": {"count": 0, "groups": []}}, "referralId": "e-0-4b8162ddf964a520eba230e3-26"}, {"reasons": {"count": 0, "items": [{"summary": "This spot is popular", "type": "general", "reasonName": "globalInteractionReason"}]}, "venue": {"id": "4b06ea75f964a520eef222e3", "name": "Robbengatter", "location": {"address": "Grunewaldstr. 55", "lat": 52.488251105577724, "lng": 13.338194074018773, "labeledLatLngs": [{"label": "display", "lat": 52.488251105577724, "lng": 13.338194074018773}], "distance": 659, "postalCode": "10825", "cc": "DE", "city": "Berlin", "state": "Berlin", "country": "Deutschland", "formattedAddress": ["Grunewaldstr. 55", "10825 Berlin", "Deutschland"]}, "categories": [{"id": "4bf58dd8d48988d10d941735", "name": "German Restaurant", "pluralName": "German Restaurants", "shortName": "German", "icon": {"prefix": "https://ss3.4sqi.net/img/categories_v2/food/german_", "suffix": ".png"}, "primary": true}], "photos": {"count": 0, "groups": []}}, "referralId": "e-0-4b06ea75f964a520eef222e3-27"}, {"reasons": {"count": 0, "items": [{"summary": "This spot is popular", "type": "general", "reasonName": "globalInteractionReason"}]}, "venue": {"id": "4bdafe315f34b7138c083679", "name": "Prager Platz", "location": {"address": "Motzstr.", "crossStreet": "Prager Str.", "lat": 52.49324516081073, "lng": 13.33285847026549, "labeledLatLngs": [{"label": "display", "lat": 52.49324516081073, "lng": 13.33285847026549}], "distance": 862, "postalCode": "10779", "cc": "DE", "city": "Berlin", "state": "Berlin", "country": "Deutschland", "formattedAddress": ["Motzstr. (Prager Str.)", "10779 Berlin", "Deutschland"]}, "categories": [{"id": "4bf58dd8d48988d164941735", "name": "Plaza", "pluralName": "Plazas", "shortName": "Plaza", "icon": {"prefix": "https://ss3.4sqi.net/img/categories_v2/parks_outdoors/plaza_", "suffix": ".png"}, "primary": true}], "photos": {"count": 0, "groups": []}}, "referralId": "e-0-4bdafe315f34b7138c083679-28"}, {"reasons": {"count": 0, "items": [{"summary": "This spot is popular", "type": "general", "reasonName": "globalInteractionReason"}]}, "venue": {"id": "4c4c7d8642b4d13a15412c80", "name": "Bistro Katis", "location": {"address": "Blissestr. 33", "crossStreet": "Hildegardstr.", "lat": 52.48191245632279, "lng": 13.3204895384666, "labeledLatLngs": [{"label": "display", "lat": 52.48191245632279, "lng": 13.3204895384666}], "distance": 739, "postalCode": "10713", "cc": "DE", "city": "Berlin", "state": "Berlin", "country": "Deutschland", "formattedAddress": ["Blissestr. 33 (Hildegardstr.)", "10713 Berlin", "Deutschland"]}, "categories": [{"id": "4bf58dd8d48988d16e941735", "name": "Fast Food Restaurant", "pluralName": "Fast Food Restaurants", "shortName": "Fast Food", "icon": {"prefix": "https://ss3.4sqi.net/img/categories_v2/food/fastfood_", "suffix": ".png"}, "primary": true}], "photos": {"count": 0, "groups": []}}, "referralId": "e-0-4c4c7d8642b4d13a15412c80-29"}, {"reasons": {"count": 0, "items": [{"summary": "This spot is popular", "type": "general", "reasonName": "globalInteractionReason"}]}, "venue": {"id": "4b477651f964a520d43226e3", "name": "ELIXIA Vitalclub Berlin Wilmersdorf Prager Passage", "location": {"address": "Prager Platz 1-3", "lat": 52.493421773023506, "lng": 13.332748503161538, "labeledLatLngs": [{"label": "display", "lat": 52.493421773023506, "lng": 13.332748503161538}], "distance": 879, "postalCode": "10779", "cc": "DE", "city": "Berlin", "state": "Berlin", "country": "Deutschland", "formattedAddress": ["Prager Platz 1-3", "10779 Berlin", "Deutschland"]}, "categories": [{"id": "4bf58dd8d48988d176941735", "name": "Gym", "pluralName": "Gyms", "shortName": "Gym", "icon": {"prefix": "https://ss3.4sqi.net/img/categories_v2/building/gym_", "suffix": ".png"}, "primary": true}], "photos": {"count": 0, "groups": []}}, "referralId": "e-0-4b477651f964a520d43226e3-30"}, {"reasons": {"count": 0, "items": [{"summary": "This spot is popular", "type": "general", "reasonName": "globalInteractionReason"}]}, "venue": {"id": "51d6d0ea498efa52ef10970f", "name": "BIO COMPANY", "location": {"address": "Babelsberger Str. 52", "lat": 52.48784999999999, "lng": 13.33551, "labeledLatLngs": [{"label": "display", "lat": 52.48784999999999, "lng": 13.33551}], "distance": 476, "postalCode": "10715", "cc": "DE", "city": "Berlin", "state": "Berlin", "country": "Deutschland", "formattedAddress": ["Babelsberger Str. 52", "10715 Berlin", "Deutschland"]}, "categories": [{"id": "52f2ab2ebcbc57f1066b8b45", "name": "Organic Grocery", "pluralName": "Organic Groceries", "shortName": "Organic Grocery", "icon": {"prefix": "https://ss3.4sqi.net/img/categories_v2/shops/food_grocery_", "suffix": ".png"}, "primary": true}], "photos": {"count": 0, "groups": []}, "venuePage": {"id": "472136746"}}, "referralId": "e-0-51d6d0ea498efa52ef10970f-31"}, {"reasons": {"count": 0, "items": [{"summary": "This spot is popular", "type": "general", "reasonName": "globalInteractionReason"}]}, "venue": {"id": "4d2c51a1849f37047c999941", "name": "Spielvogel", "location": {"address": "Uhlandstr. 137", "lat": 52.49359722077878, "lng": 13.323959112167358, "labeledLatLngs": [{"label": "display", "lat": 52.49359722077878, "lng": 13.323959112167358}], "distance": 942, "postalCode": "10717", "cc": "DE", "city": "Berlin", "state": "Berlin", "country": "Deutschland", "formattedAddress": ["Uhlandstr. 137", "10717 Berlin", "Deutschland"]}, "categories": [{"id": "4bf58dd8d48988d1f3941735", "name": "Toy / Game Store", "pluralName": "Toy / Game Stores", "shortName": "Toys & Games", "icon": {"prefix": "https://ss3.4sqi.net/img/categories_v2/shops/toys_", "suffix": ".png"}, "primary": true}], "photos": {"count": 0, "groups": []}}, "referralId": "e-0-4d2c51a1849f37047c999941-32"}, {"reasons": {"count": 0, "items": [{"summary": "This spot is popular", "type": "general", "reasonName": "globalInteractionReason"}]}, "venue": {"id": "5226ef4211d2409098d50feb", "name": "Happiness-Heart CAFE", "location": {"address": "G\u00fcntzelstr. 22", "crossStreet": "Holsteinische Str.", "lat": 52.49130580181417, "lng": 13.324930078719861, "labeledLatLngs": [{"label": "display", "lat": 52.49130580181417, "lng": 13.324930078719861}], "distance": 682, "postalCode": "10717", "cc": "DE", "city": "Berlin", "state": "Berlin", "country": "Deutschland", "formattedAddress": ["G\u00fcntzelstr. 22 (Holsteinische Str.)", "10717 Berlin", "Deutschland"]}, "categories": [{"id": "4bf58dd8d48988d1e0931735", "name": "Coffee Shop", "pluralName": "Coffee Shops", "shortName": "Coffee Shop", "icon": {"prefix": "https://ss3.4sqi.net/img/categories_v2/food/coffeeshop_", "suffix": ".png"}, "primary": true}], "photos": {"count": 0, "groups": []}}, "referralId": "e-0-5226ef4211d2409098d50feb-33"}, {"reasons": {"count": 0, "items": [{"summary": "This spot is popular", "type": "general", "reasonName": "globalInteractionReason"}]}, "venue": {"id": "4af9895ef964a5202e1222e3", "name": "Brutzelst\u00fcbchen", "location": {"address": "Bayerischer Platz 11-14", "lat": 52.488497995881296, "lng": 13.339706507263283, "labeledLatLngs": [{"label": "display", "lat": 52.488497995881296, "lng": 13.339706507263283}], "distance": 764, "postalCode": "10779", "cc": "DE", "city": "Berlin", "state": "Berlin", "country": "Deutschland", "formattedAddress": ["Bayerischer Platz 11-14", "10779 Berlin", "Deutschland"]}, "categories": [{"id": "56aa371ce4b08b9a8d57358b", "name": "Currywurst Joint", "pluralName": "Currywurst Joints", "shortName": "Currywurst", "icon": {"prefix": "https://ss3.4sqi.net/img/categories_v2/food/bbqalt_", "suffix": ".png"}, "primary": true}], "photos": {"count": 0, "groups": []}}, "referralId": "e-0-4af9895ef964a5202e1222e3-34"}, {"reasons": {"count": 0, "items": [{"summary": "This spot is popular", "type": "general", "reasonName": "globalInteractionReason"}]}, "venue": {"id": "4e934379722e0a4c12521ce9", "name": "Nea Knosso", "location": {"address": "G\u00fcntzelstr. 48", "lat": 52.49125385811634, "lng": 13.327261023157483, "labeledLatLngs": [{"label": "display", "lat": 52.49125385811634, "lng": 13.327261023157483}], "distance": 623, "postalCode": "10717", "cc": "DE", "city": "Berlin", "state": "Berlin", "country": "Deutschland", "formattedAddress": ["G\u00fcntzelstr. 48", "10717 Berlin", "Deutschland"]}, "categories": [{"id": "4bf58dd8d48988d10e941735", "name": "Greek Restaurant", "pluralName": "Greek Restaurants", "shortName": "Greek", "icon": {"prefix": "https://ss3.4sqi.net/img/categories_v2/food/greek_", "suffix": ".png"}, "primary": true}], "photos": {"count": 0, "groups": []}, "venuePage": {"id": "408213065"}}, "referralId": "e-0-4e934379722e0a4c12521ce9-35"}, {"reasons": {"count": 0, "items": [{"summary": "This spot is popular", "type": "general", "reasonName": "globalInteractionReason"}]}, "venue": {"id": "4c66e091e75ac92853cff8da", "name": "Paracas", "location": {"address": "G\u00fcntzelstr. 37a", "lat": 52.491891, "lng": 13.321121, "labeledLatLngs": [{"label": "display", "lat": 52.491891, "lng": 13.321121}], "distance": 878, "postalCode": "10717", "cc": "DE", "city": "Berlin", "state": "Berlin", "country": "Deutschland", "formattedAddress": ["G\u00fcntzelstr. 37a", "10717 Berlin", "Deutschland"]}, "categories": [{"id": "4bf58dd8d48988d1be941735", "name": "Latin American Restaurant", "pluralName": "Latin American Restaurants", "shortName": "Latin American", "icon": {"prefix": "https://ss3.4sqi.net/img/categories_v2/food/latinamerican_", "suffix": ".png"}, "primary": true}], "photos": {"count": 0, "groups": []}}, "referralId": "e-0-4c66e091e75ac92853cff8da-36"}, {"reasons": {"count": 0, "items": [{"summary": "This spot is popular", "type": "general", "reasonName": "globalInteractionReason"}]}, "venue": {"id": "4e3cf9e6a809ba757c03e266", "name": "Back-Art 132", "location": {"address": "Berliner Str. 132 - 134", "lat": 52.486433610055, "lng": 13.321500226419456, "labeledLatLngs": [{"label": "display", "lat": 52.486433610055, "lng": 13.321500226419456}], "distance": 536, "postalCode": "10715", "cc": "DE", "city": "Berlin", "state": "Berlin", "country": "Deutschland", "formattedAddress": ["Berliner Str. 132 - 134", "10715 Berlin", "Deutschland"]}, "categories": [{"id": "4bf58dd8d48988d16a941735", "name": "Bakery", "pluralName": "Bakeries", "shortName": "Bakery", "icon": {"prefix": "https://ss3.4sqi.net/img/categories_v2/food/bakery_", "suffix": ".png"}, "primary": true}], "photos": {"count": 0, "groups": []}}, "referralId": "e-0-4e3cf9e6a809ba757c03e266-37"}, {"reasons": {"count": 0, "items": [{"summary": "This spot is popular", "type": "general", "reasonName": "globalInteractionReason"}]}, "venue": {"id": "4adcda90f964a5206e4b21e3", "name": "Th\u00f6rner f\u00fcrs B\u00fcro GmbH", "location": {"address": "Salzburger Str. 9", "lat": 52.48739684102954, "lng": 13.341941864763616, "labeledLatLngs": [{"label": "display", "lat": 52.48739684102954, "lng": 13.341941864763616}], "distance": 872, "postalCode": "10825", "cc": "DE", "city": "Berlin", "state": "Berlin", "country": "Deutschland", "formattedAddress": ["Salzburger Str. 9", "10825 Berlin", "Deutschland"]}, "categories": [{"id": "4bf58dd8d48988d121951735", "name": "Paper / Office Supplies Store", "pluralName": "Paper / Office Supplies Stores", "shortName": "Office Supplies", "icon": {"prefix": "https://ss3.4sqi.net/img/categories_v2/shops/papergoods_", "suffix": ".png"}, "primary": true}], "photos": {"count": 0, "groups": []}}, "referralId": "e-0-4adcda90f964a5206e4b21e3-38"}, {"reasons": {"count": 0, "items": [{"summary": "This spot is popular", "type": "general", "reasonName": "globalInteractionReason"}]}, "venue": {"id": "4f6f64dbe4b0a235d86f724c", "name": "Bundesplatz Kino", "location": {"address": "Bundesplatz 14", "lat": 52.479399665917725, "lng": 13.326707839766605, "labeledLatLngs": [{"label": "display", "lat": 52.479399665917725, "lng": 13.326707839766605}], "distance": 733, "postalCode": "10715", "cc": "DE", "city": "Berlin", "state": "Berlin", "country": "Deutschland", "formattedAddress": ["Bundesplatz 14", "10715 Berlin", "Deutschland"]}, "categories": [{"id": "4bf58dd8d48988d17e941735", "name": "Indie Movie Theater", "pluralName": "Indie Movie Theaters", "shortName": "Indie Movies", "icon": {"prefix": "https://ss3.4sqi.net/img/categories_v2/arts_entertainment/movietheater_", "suffix": ".png"}, "primary": true}], "photos": {"count": 0, "groups": []}}, "referralId": "e-0-4f6f64dbe4b0a235d86f724c-39"}, {"reasons": {"count": 0, "items": [{"summary": "This spot is popular", "type": "general", "reasonName": "globalInteractionReason"}]}, "venue": {"id": "4d9a03ab61a3a1cd227cf142", "name": "Yoshioka", "location": {"address": "Brandenburgische Str. 77", "lat": 52.487989721940565, "lng": 13.317926134259867, "labeledLatLngs": [{"label": "display", "lat": 52.487989721940565, "lng": 13.317926134259867}], "distance": 811, "postalCode": "10713", "cc": "DE", "city": "Berlin", "state": "Berlin", "country": "Deutschland", "formattedAddress": ["Brandenburgische Str. 77", "10713 Berlin", "Deutschland"]}, "categories": [{"id": "4bf58dd8d48988d111941735", "name": "Japanese Restaurant", "pluralName": "Japanese Restaurants", "shortName": "Japanese", "icon": {"prefix": "https://ss3.4sqi.net/img/categories_v2/food/japanese_", "suffix": ".png"}, "primary": true}], "photos": {"count": 0, "groups": []}}, "referralId": "e-0-4d9a03ab61a3a1cd227cf142-40"}, {"reasons": {"count": 0, "items": [{"summary": "This spot is popular", "type": "general", "reasonName": "globalInteractionReason"}]}, "venue": {"id": "505359fae4b0c21073aa8f7a", "name": "Lon-Men", "location": {"address": "Bamberger Str. 30", "lat": 52.48852778857852, "lng": 13.336919596286652, "labeledLatLngs": [{"label": "display", "lat": 52.48852778857852, "lng": 13.336919596286652}], "distance": 597, "postalCode": "10779", "cc": "DE", "city": "Berlin", "state": "Berlin", "country": "Deutschland", "formattedAddress": ["Bamberger Str. 30", "10779 Berlin", "Deutschland"]}, "categories": [{"id": "4bf58dd8d48988d145941735", "name": "Chinese Restaurant", "pluralName": "Chinese Restaurants", "shortName": "Chinese", "icon": {"prefix": "https://ss3.4sqi.net/img/categories_v2/food/asian_", "suffix": ".png"}, "primary": true}], "photos": {"count": 0, "groups": []}}, "referralId": "e-0-505359fae4b0c21073aa8f7a-41"}, {"reasons": {"count": 0, "items": [{"summary": "This spot is popular", "type": "general", "reasonName": "globalInteractionReason"}]}, "venue": {"id": "4f5376d6e4b0ddd8f82a1aa8", "name": "Athena Grill", "location": {"address": "Bundesplatz 2", "lat": 52.47942698700306, "lng": 13.32669623482556, "labeledLatLngs": [{"label": "display", "lat": 52.47942698700306, "lng": 13.32669623482556}], "distance": 731, "postalCode": "10715", "cc": "DE", "city": "Berlin", "state": "Berlin", "country": "Deutschland", "formattedAddress": ["Bundesplatz 2", "10715 Berlin", "Deutschland"]}, "categories": [{"id": "4bf58dd8d48988d10e941735", "name": "Greek Restaurant", "pluralName": "Greek Restaurants", "shortName": "Greek", "icon": {"prefix": "https://ss3.4sqi.net/img/categories_v2/food/greek_", "suffix": ".png"}, "primary": true}], "photos": {"count": 0, "groups": []}}, "referralId": "e-0-4f5376d6e4b0ddd8f82a1aa8-42"}, {"reasons": {"count": 0, "items": [{"summary": "This spot is popular", "type": "general", "reasonName": "globalInteractionReason"}]}, "venue": {"id": "4ba333f6f964a520ca2f38e3", "name": "EDEKA Stadie", "location": {"address": "Prager Platz 1-3", "lat": 52.4935018386996, "lng": 13.332596559993105, "labeledLatLngs": [{"label": "display", "lat": 52.4935018386996, "lng": 13.332596559993105}], "distance": 885, "postalCode": "10779", "cc": "DE", "city": "Berlin", "state": "Berlin", "country": "Deutschland", "formattedAddress": ["Prager Platz 1-3", "10779 Berlin", "Deutschland"]}, "categories": [{"id": "52f2ab2ebcbc57f1066b8b46", "name": "Supermarket", "pluralName": "Supermarkets", "shortName": "Supermarket", "icon": {"prefix": "https://ss3.4sqi.net/img/categories_v2/shops/food_grocery_", "suffix": ".png"}, "primary": true}], "photos": {"count": 0, "groups": []}, "venuePage": {"id": "554438923"}}, "referralId": "e-0-4ba333f6f964a520ca2f38e3-43"}, {"reasons": {"count": 0, "items": [{"summary": "This spot is popular", "type": "general", "reasonName": "globalInteractionReason"}]}, "venue": {"id": "549078d4498e8b52351ff93a", "name": "Bobsek Burger", "location": {"address": "Berliner Str. 30-31", "lat": 52.486797012275915, "lng": 13.323886164039473, "labeledLatLngs": [{"label": "display", "lat": 52.486797012275915, "lng": 13.323886164039473}], "distance": 386, "postalCode": "10717", "cc": "DE", "city": "Berlin", "state": "Berlin", "country": "Deutschland", "formattedAddress": ["Berliner Str. 30-31", "10717 Berlin", "Deutschland"]}, "categories": [{"id": "4bf58dd8d48988d16c941735", "name": "Burger Joint", "pluralName": "Burger Joints", "shortName": "Burgers", "icon": {"prefix": "https://ss3.4sqi.net/img/categories_v2/food/burger_", "suffix": ".png"}, "primary": true}], "photos": {"count": 0, "groups": []}}, "referralId": "e-0-549078d4498e8b52351ff93a-44"}, {"reasons": {"count": 0, "items": [{"summary": "This spot is popular", "type": "general", "reasonName": "globalInteractionReason"}]}, "venue": {"id": "4db1891d6e81a2637eed52fd", "name": "Les 3 veuves de Wilmersdorf", "location": {"address": "Fechnerstr. 30", "lat": 52.489290357815726, "lng": 13.319579852846745, "labeledLatLngs": [{"label": "display", "lat": 52.489290357815726, "lng": 13.319579852846745}], "distance": 767, "postalCode": "10717", "cc": "DE", "city": "Berlin", "state": "Berlin", "country": "Deutschland", "formattedAddress": ["Fechnerstr. 30", "10717 Berlin", "Deutschland"]}, "categories": [{"id": "4bf58dd8d48988d10c941735", "name": "French Restaurant", "pluralName": "French Restaurants", "shortName": "French", "icon": {"prefix": "https://ss3.4sqi.net/img/categories_v2/food/french_", "suffix": ".png"}, "primary": true}], "photos": {"count": 0, "groups": []}}, "referralId": "e-0-4db1891d6e81a2637eed52fd-45"}, {"reasons": {"count": 0, "items": [{"summary": "This spot is popular", "type": "general", "reasonName": "globalInteractionReason"}]}, "venue": {"id": "4d7f9eac2ff9b60c4080c147", "name": "\"Vis \u00e0 Vis\" Caf\u00e8 Bar Lounge", "location": {"address": "Meraner Stra\u00dfe 20 b", "crossStreet": "Badenschestra\u00dfe", "lat": 52.485782298884715, "lng": 13.338377473327904, "labeledLatLngs": [{"label": "display", "lat": 52.485782298884715, "lng": 13.338377473327904}], "distance": 612, "postalCode": "10825", "cc": "DE", "city": "Berlin", "state": "Berlin", "country": "Deutschland", "formattedAddress": ["Meraner Stra\u00dfe 20 b (Badenschestra\u00dfe)", "10825 Berlin", "Deutschland"]}, "categories": [{"id": "4bf58dd8d48988d16d941735", "name": "Caf\u00e9", "pluralName": "Caf\u00e9s", "shortName": "Caf\u00e9", "icon": {"prefix": "https://ss3.4sqi.net/img/categories_v2/food/cafe_", "suffix": ".png"}, "primary": true}], "photos": {"count": 0, "groups": []}, "venuePage": {"id": "67017792"}}, "referralId": "e-0-4d7f9eac2ff9b60c4080c147-46"}, {"reasons": {"count": 0, "items": [{"summary": "This spot is popular", "type": "general", "reasonName": "globalInteractionReason"}]}, "venue": {"id": "4bf26b399319a593e8e8ca51", "name": "Bella Italia", "location": {"lat": 52.48834968863348, "lng": 13.33958124979292, "labeledLatLngs": [{"label": "display", "lat": 52.48834968863348, "lng": 13.33958124979292}], "distance": 750, "cc": "DE", "city": "Berlin", "state": "Berlin", "country": "Deutschland", "formattedAddress": ["Berlin", "Deutschland"]}, "categories": [{"id": "4bf58dd8d48988d110941735", "name": "Italian Restaurant", "pluralName": "Italian Restaurants", "shortName": "Italian", "icon": {"prefix": "https://ss3.4sqi.net/img/categories_v2/food/italian_", "suffix": ".png"}, "primary": true}], "photos": {"count": 0, "groups": []}}, "referralId": "e-0-4bf26b399319a593e8e8ca51-47"}, {"reasons": {"count": 0, "items": [{"summary": "This spot is popular", "type": "general", "reasonName": "globalInteractionReason"}]}, "venue": {"id": "4e95a7d5e5fa7b6a9f2e635c", "name": "Caf\u00e8 Engelchen", "location": {"address": "Prager Platz 1-3", "lat": 52.49342523963437, "lng": 13.333295894872716, "labeledLatLngs": [{"label": "display", "lat": 52.49342523963437, "lng": 13.333295894872716}], "distance": 890, "postalCode": "10779", "cc": "DE", "city": "Berlin", "state": "Berlin", "country": "Deutschland", "formattedAddress": ["Prager Platz 1-3", "10779 Berlin", "Deutschland"]}, "categories": [{"id": "4bf58dd8d48988d16d941735", "name": "Caf\u00e9", "pluralName": "Caf\u00e9s", "shortName": "Caf\u00e9", "icon": {"prefix": "https://ss3.4sqi.net/img/categories_v2/food/cafe_", "suffix": ".png"}, "primary": true}], "photos": {"count": 0, "groups": []}}, "referralId": "e-0-4e95a7d5e5fa7b6a9f2e635c-48"}, {"reasons": {"count": 0, "items": [{"summary": "This spot is popular", "type": "general", "reasonName": "globalInteractionReason"}]}, "venue": {"id": "4d7a0000ceaa224bce640271", "name": "AssaTir", "location": {"address": "Uhlandstr. 83", "lat": 52.48943090490464, "lng": 13.32280384030698, "labeledLatLngs": [{"label": "display", "lat": 52.48943090490464, "lng": 13.32280384030698}], "distance": 600, "postalCode": "10717", "cc": "DE", "city": "Berlin", "state": "Berlin", "country": "Deutschland", "formattedAddress": ["Uhlandstr. 83", "10717 Berlin", "Deutschland"]}, "categories": [{"id": "4bf58dd8d48988d10b941735", "name": "Falafel Restaurant", "pluralName": "Falafel Restaurants", "shortName": "Falafel", "icon": {"prefix": "https://ss3.4sqi.net/img/categories_v2/food/falafel_", "suffix": ".png"}, "primary": true}], "photos": {"count": 0, "groups": []}}, "referralId": "e-0-4d7a0000ceaa224bce640271-49"}, {"reasons": {"count": 0, "items": [{"summary": "This spot is popular", "type": "general", "reasonName": "globalInteractionReason"}]}, "venue": {"id": "4df0ffd4e4cdfec0ed302c18", "name": "Goldener Stern", "location": {"address": "Bayerischer Platz 4", "lat": 52.489082319831034, "lng": 13.339389644920589, "labeledLatLngs": [{"label": "display", "lat": 52.489082319831034, "lng": 13.339389644920589}], "distance": 773, "postalCode": "10779", "cc": "DE", "city": "Berlin", "state": "Berlin", "country": "Deutschland", "formattedAddress": ["Bayerischer Platz 4", "10779 Berlin", "Deutschland"]}, "categories": [{"id": "4bf58dd8d48988d10d941735", "name": "German Restaurant", "pluralName": "German Restaurants", "shortName": "German", "icon": {"prefix": "https://ss3.4sqi.net/img/categories_v2/food/german_", "suffix": ".png"}, "primary": true}], "photos": {"count": 0, "groups": []}}, "referralId": "e-0-4df0ffd4e4cdfec0ed302c18-50"}, {"reasons": {"count": 0, "items": [{"summary": "This spot is popular", "type": "general", "reasonName": "globalInteractionReason"}]}, "venue": {"id": "56c61087498e971bc42454e5", "name": "Caf\u00e9 Lavie", "location": {"address": "Wartburgstr. 25", "lat": 52.486127900975056, "lng": 13.338629627719024, "labeledLatLngs": [{"label": "display", "lat": 52.486127900975056, "lng": 13.338629627719024}], "distance": 630, "postalCode": "10825", "cc": "DE", "city": "Berlin", "state": "Berlin", "country": "Deutschland", "formattedAddress": ["Wartburgstr. 25", "10825 Berlin", "Deutschland"]}, "categories": [{"id": "4bf58dd8d48988d1e0931735", "name": "Coffee Shop", "pluralName": "Coffee Shops", "shortName": "Coffee Shop", "icon": {"prefix": "https://ss3.4sqi.net/img/categories_v2/food/coffeeshop_", "suffix": ".png"}, "primary": true}], "photos": {"count": 0, "groups": []}}, "referralId": "e-0-56c61087498e971bc42454e5-51"}, {"reasons": {"count": 0, "items": [{"summary": "This spot is popular", "type": "general", "reasonName": "globalInteractionReason"}]}, "venue": {"id": "52694cf711d20a81bd1c1560", "name": "Vino y Mar", "location": {"address": "Gasteiner Str. 11", "lat": 52.487628, "lng": 13.321613, "labeledLatLngs": [{"label": "display", "lat": 52.487628, "lng": 13.321613}], "distance": 562, "postalCode": "10717", "cc": "DE", "city": "Berlin", "state": "Berlin", "country": "Deutschland", "formattedAddress": ["Gasteiner Str. 11", "10717 Berlin", "Deutschland"]}, "categories": [{"id": "4bf58dd8d48988d1db931735", "name": "Tapas Restaurant", "pluralName": "Tapas Restaurants", "shortName": "Tapas", "icon": {"prefix": "https://ss3.4sqi.net/img/categories_v2/food/tapas_", "suffix": ".png"}, "primary": true}], "photos": {"count": 0, "groups": []}}, "referralId": "e-0-52694cf711d20a81bd1c1560-52"}, {"reasons": {"count": 0, "items": [{"summary": "This spot is popular", "type": "general", "reasonName": "globalInteractionReason"}]}, "venue": {"id": "4e058d551f6e21103380e440", "name": "Konditorei Czerr", "location": {"address": "Grunewaldstra\u00dfe 57", "crossStreet": "Bayerischer Platz", "lat": 52.48848, "lng": 13.341226, "labeledLatLngs": [{"label": "display", "lat": 52.48848, "lng": 13.341226}], "distance": 859, "postalCode": "10825", "cc": "DE", "neighborhood": "Bayerisches Viertel, Berlin", "city": "Berlin", "state": "Berlin", "country": "Deutschland", "formattedAddress": ["Grunewaldstra\u00dfe 57 (Bayerischer Platz)", "10825 Berlin", "Deutschland"]}, "categories": [{"id": "4bf58dd8d48988d16a941735", "name": "Bakery", "pluralName": "Bakeries", "shortName": "Bakery", "icon": {"prefix": "https://ss3.4sqi.net/img/categories_v2/food/bakery_", "suffix": ".png"}, "primary": true}], "photos": {"count": 0, "groups": []}}, "referralId": "e-0-4e058d551f6e21103380e440-53"}, {"reasons": {"count": 0, "items": [{"summary": "This spot is popular", "type": "general", "reasonName": "globalInteractionReason"}]}, "venue": {"id": "4e3c2888d164b529119b2b14", "name": "Egger's", "location": {"address": "Bundesallee 33", "lat": 52.48701459266969, "lng": 13.33066751291655, "labeledLatLngs": [{"label": "display", "lat": 52.48701459266969, "lng": 13.33066751291655}], "distance": 162, "cc": "DE", "neighborhood": "Wilhelmsaue", "city": "Berlin", "state": "Berlin", "country": "Deutschland", "formattedAddress": ["Bundesallee 33", "Berlin", "Deutschland"]}, "categories": [{"id": "4bf58dd8d48988d107941735", "name": "Argentinian Restaurant", "pluralName": "Argentinian Restaurants", "shortName": "Argentinian", "icon": {"prefix": "https://ss3.4sqi.net/img/categories_v2/food/argentinian_", "suffix": ".png"}, "primary": true}], "photos": {"count": 0, "groups": []}}, "referralId": "e-0-4e3c2888d164b529119b2b14-54"}, {"reasons": {"count": 0, "items": [{"summary": "This spot is popular", "type": "general", "reasonName": "globalInteractionReason"}]}, "venue": {"id": "4b867e1bf964a5206f8c31e3", "name": "Ishin", "location": {"address": "Bundesallee 203", "lat": 52.49426521957291, "lng": 13.331079943983942, "labeledLatLngs": [{"label": "display", "lat": 52.49426521957291, "lng": 13.331079943983942}], "distance": 950, "postalCode": "10717", "cc": "DE", "city": "Berlin", "state": "Berlin", "country": "Deutschland", "formattedAddress": ["Bundesallee 203", "10717 Berlin", "Deutschland"]}, "categories": [{"id": "4bf58dd8d48988d111941735", "name": "Japanese Restaurant", "pluralName": "Japanese Restaurants", "shortName": "Japanese", "icon": {"prefix": "https://ss3.4sqi.net/img/categories_v2/food/japanese_", "suffix": ".png"}, "primary": true}], "photos": {"count": 0, "groups": []}}, "referralId": "e-0-4b867e1bf964a5206f8c31e3-55"}, {"reasons": {"count": 0, "items": [{"summary": "This spot is popular", "type": "general", "reasonName": "globalInteractionReason"}]}, "venue": {"id": "4b7adc45f964a520ad412fe3", "name": "Sushi Miyabi", "location": {"address": "Uhlandstr. 104-105", "lat": 52.48713535160029, "lng": 13.322618868340347, "labeledLatLngs": [{"label": "display", "lat": 52.48713535160029, "lng": 13.322618868340347}], "distance": 479, "postalCode": "10717", "cc": "DE", "city": "Berlin", "state": "Berlin", "country": "Deutschland", "formattedAddress": ["Uhlandstr. 104-105", "10717 Berlin", "Deutschland"]}, "categories": [{"id": "4bf58dd8d48988d1d2941735", "name": "Sushi Restaurant", "pluralName": "Sushi Restaurants", "shortName": "Sushi", "icon": {"prefix": "https://ss3.4sqi.net/img/categories_v2/food/sushi_", "suffix": ".png"}, "primary": true}], "photos": {"count": 0, "groups": []}}, "referralId": "e-0-4b7adc45f964a520ad412fe3-56"}, {"reasons": {"count": 0, "items": [{"summary": "This spot is popular", "type": "general", "reasonName": "globalInteractionReason"}]}, "venue": {"id": "4adcda78f964a520404621e3", "name": "Rickenbackers Music Inn", "location": {"address": "Bundesallee 194 b", "lat": 52.49194070698897, "lng": 13.330961261278352, "labeledLatLngs": [{"label": "display", "lat": 52.49194070698897, "lng": 13.330961261278352}], "distance": 692, "postalCode": "10717", "cc": "DE", "city": "Berlin", "state": "Berlin", "country": "Deutschland", "formattedAddress": ["Bundesallee 194 b", "10717 Berlin", "Deutschland"]}, "categories": [{"id": "4bf58dd8d48988d116941735", "name": "Bar", "pluralName": "Bars", "shortName": "Bar", "icon": {"prefix": "https://ss3.4sqi.net/img/categories_v2/nightlife/pub_", "suffix": ".png"}, "primary": true}], "photos": {"count": 0, "groups": []}}, "referralId": "e-0-4adcda78f964a520404621e3-57"}, {"reasons": {"count": 0, "items": [{"summary": "This spot is popular", "type": "general", "reasonName": "globalInteractionReason"}]}, "venue": {"id": "51407012e4b062f6259011b8", "name": "West Burger", "location": {"address": "Uhlandstr. 104", "lat": 52.48686340440469, "lng": 13.322549768532516, "labeledLatLngs": [{"label": "display", "lat": 52.48686340440469, "lng": 13.322549768532516}], "distance": 475, "postalCode": "10717", "cc": "DE", "city": "Berlin", "state": "Berlin", "country": "Deutschland", "formattedAddress": ["Uhlandstr. 104", "10717 Berlin", "Deutschland"]}, "categories": [{"id": "4bf58dd8d48988d16c941735", "name": "Burger Joint", "pluralName": "Burger Joints", "shortName": "Burgers", "icon": {"prefix": "https://ss3.4sqi.net/img/categories_v2/food/burger_", "suffix": ".png"}, "primary": true}], "photos": {"count": 0, "groups": []}}, "referralId": "e-0-51407012e4b062f6259011b8-58"}, {"reasons": {"count": 0, "items": [{"summary": "This spot is popular", "type": "general", "reasonName": "globalInteractionReason"}]}, "venue": {"id": "4e3bd5c91850d7b505e58171", "name": "Die gute Stube", "location": {"address": "Pfalzburger Str. 24", "lat": 52.493399408770166, "lng": 13.32171142532367, "labeledLatLngs": [{"label": "display", "lat": 52.493399408770166, "lng": 13.32171142532367}], "distance": 991, "postalCode": "10719", "cc": "DE", "neighborhood": "Hohenzollernplatz", "city": "Berlin", "state": "Berlin", "country": "Deutschland", "formattedAddress": ["Pfalzburger Str. 24", "10719 Berlin", "Deutschland"]}, "categories": [{"id": "4bf58dd8d48988d10d941735", "name": "German Restaurant", "pluralName": "German Restaurants", "shortName": "German", "icon": {"prefix": "https://ss3.4sqi.net/img/categories_v2/food/german_", "suffix": ".png"}, "primary": true}], "photos": {"count": 0, "groups": []}}, "referralId": "e-0-4e3bd5c91850d7b505e58171-59"}, {"reasons": {"count": 0, "items": [{"summary": "This spot is popular", "type": "general", "reasonName": "globalInteractionReason"}]}, "venue": {"id": "4fb915b1e4b093431c6ca759", "name": "Ph\u00f212 - Traditionelle Vietnamesische K\u00fcche", "location": {"address": "Bayerischer Platz 12", "lat": 52.48917990142612, "lng": 13.340529434644163, "labeledLatLngs": [{"label": "display", "lat": 52.48917990142612, "lng": 13.340529434644163}], "distance": 846, "postalCode": "10779", "cc": "DE", "city": "Berlin", "state": "Berlin", "country": "Deutschland", "formattedAddress": ["Bayerischer Platz 12", "10779 Berlin", "Deutschland"]}, "categories": [{"id": "4bf58dd8d48988d14a941735", "name": "Vietnamese Restaurant", "pluralName": "Vietnamese Restaurants", "shortName": "Vietnamese", "icon": {"prefix": "https://ss3.4sqi.net/img/categories_v2/food/vietnamese_", "suffix": ".png"}, "primary": true}], "photos": {"count": 0, "groups": []}}, "referralId": "e-0-4fb915b1e4b093431c6ca759-60"}, {"reasons": {"count": 0, "items": [{"summary": "This spot is popular", "type": "general", "reasonName": "globalInteractionReason"}]}, "venue": {"id": "4e721312d1647c08d3f72326", "name": "Erdkorn", "location": {"address": "Bundesallee 201 - 203", "lat": 52.49359896268624, "lng": 13.331308364868164, "labeledLatLngs": [{"label": "display", "lat": 52.49359896268624, "lng": 13.331308364868164}], "distance": 878, "postalCode": "10717", "cc": "DE", "city": "Berlin", "state": "Berlin", "country": "Deutschland", "formattedAddress": ["Bundesallee 201 - 203", "10717 Berlin", "Deutschland"]}, "categories": [{"id": "52f2ab2ebcbc57f1066b8b45", "name": "Organic Grocery", "pluralName": "Organic Groceries", "shortName": "Organic Grocery", "icon": {"prefix": "https://ss3.4sqi.net/img/categories_v2/shops/food_grocery_", "suffix": ".png"}, "primary": true}], "photos": {"count": 0, "groups": []}}, "referralId": "e-0-4e721312d1647c08d3f72326-61"}, {"reasons": {"count": 0, "items": [{"summary": "This spot is popular", "type": "general", "reasonName": "globalInteractionReason"}]}, "venue": {"id": "4b0ed143f964a520835b23e3", "name": "ALCATRAZ", "location": {"address": "Bundesplatz 6", "lat": 52.47880500824666, "lng": 13.327907911246514, "labeledLatLngs": [{"label": "display", "lat": 52.47880500824666, "lng": 13.327907911246514}], "distance": 784, "postalCode": "10715", "cc": "DE", "city": "Berlin", "state": "Berlin", "country": "Deutschland", "formattedAddress": ["Bundesplatz 6", "10715 Berlin", "Deutschland"]}, "categories": [{"id": "4bf58dd8d48988d1c1941735", "name": "Mexican Restaurant", "pluralName": "Mexican Restaurants", "shortName": "Mexican", "icon": {"prefix": "https://ss3.4sqi.net/img/categories_v2/food/mexican_", "suffix": ".png"}, "primary": true}], "photos": {"count": 0, "groups": []}}, "referralId": "e-0-4b0ed143f964a520835b23e3-62"}, {"reasons": {"count": 0, "items": [{"summary": "This spot is popular", "type": "general", "reasonName": "globalInteractionReason"}]}, "venue": {"id": "4c29e7dc9fb5d13a62c79b57", "name": "Berliner Hof", "location": {"address": "Hildegardstrasse 14", "lat": 52.481947, "lng": 13.322407, "labeledLatLngs": [{"label": "display", "lat": 52.481947, "lng": 13.322407}], "distance": 635, "postalCode": "10715", "cc": "DE", "city": "Berlin", "state": "Berlin", "country": "Deutschland", "formattedAddress": ["Hildegardstrasse 14", "10715 Berlin", "Deutschland"]}, "categories": [{"id": "4bf58dd8d48988d10d941735", "name": "German Restaurant", "pluralName": "German Restaurants", "shortName": "German", "icon": {"prefix": "https://ss3.4sqi.net/img/categories_v2/food/german_", "suffix": ".png"}, "primary": true}], "photos": {"count": 0, "groups": []}}, "referralId": "e-0-4c29e7dc9fb5d13a62c79b57-63"}, {"reasons": {"count": 0, "items": [{"summary": "This spot is popular", "type": "general", "reasonName": "globalInteractionReason"}]}, "venue": {"id": "4c3c793c7c1ee21ebf928c71", "name": "McFIT", "location": {"address": "Berliner Stra\u00dfe 148", "lat": 52.486647, "lng": 13.32839, "labeledLatLngs": [{"label": "display", "lat": 52.486647, "lng": 13.32839}], "distance": 114, "postalCode": "10715", "cc": "DE", "city": "Berlin", "state": "Berlin", "country": "Deutschland", "formattedAddress": ["Berliner Stra\u00dfe 148", "10715 Berlin", "Deutschland"]}, "categories": [{"id": "4bf58dd8d48988d175941735", "name": "Gym / Fitness Center", "pluralName": "Gyms or Fitness Centers", "shortName": "Gym / Fitness", "icon": {"prefix": "https://ss3.4sqi.net/img/categories_v2/building/gym_", "suffix": ".png"}, "primary": true}], "photos": {"count": 0, "groups": []}}, "referralId": "e-0-4c3c793c7c1ee21ebf928c71-64"}, {"reasons": {"count": 0, "items": [{"summary": "This spot is popular", "type": "general", "reasonName": "globalInteractionReason"}]}, "venue": {"id": "4e9d6933754ae3862f1d1467", "name": "Aral", "location": {"address": "Blissestr. 21", "lat": 52.48427111, "lng": 13.32072707, "labeledLatLngs": [{"label": "display", "lat": 52.48427111, "lng": 13.32072707}], "distance": 608, "postalCode": "10713", "cc": "DE", "city": "Berlin", "state": "Berlin", "country": "Deutschland", "formattedAddress": ["Blissestr. 21", "10713 Berlin", "Deutschland"]}, "categories": [{"id": "4bf58dd8d48988d113951735", "name": "Gas Station", "pluralName": "Gas Stations", "shortName": "Gas Station", "icon": {"prefix": "https://ss3.4sqi.net/img/categories_v2/shops/gas_", "suffix": ".png"}, "primary": true}], "photos": {"count": 0, "groups": []}, "venuePage": {"id": "588447911"}}, "referralId": "e-0-4e9d6933754ae3862f1d1467-65"}, {"reasons": {"count": 0, "items": [{"summary": "This spot is popular", "type": "general", "reasonName": "globalInteractionReason"}]}, "venue": {"id": "4e121761aeb74afe60c31328", "name": "San Marino", "location": {"address": "Prager Platz 1-3", "lat": 52.493336335836474, "lng": 13.332914922290948, "labeledLatLngs": [{"label": "display", "lat": 52.493336335836474, "lng": 13.332914922290948}], "distance": 873, "postalCode": "10779", "cc": "DE", "city": "Berlin", "state": "Berlin", "country": "Deutschland", "formattedAddress": ["Prager Platz 1-3", "10779 Berlin", "Deutschland"]}, "categories": [{"id": "4bf58dd8d48988d110941735", "name": "Italian Restaurant", "pluralName": "Italian Restaurants", "shortName": "Italian", "icon": {"prefix": "https://ss3.4sqi.net/img/categories_v2/food/italian_", "suffix": ".png"}, "primary": true}], "photos": {"count": 0, "groups": []}}, "referralId": "e-0-4e121761aeb74afe60c31328-66"}, {"reasons": {"count": 0, "items": [{"summary": "This spot is popular", "type": "general", "reasonName": "globalInteractionReason"}]}, "venue": {"id": "4fd72d35e4b0ac0b1e89e0ec", "name": "Caf\u00e9 am Volkspark", "location": {"address": "Livl\u00e4ndische Stra\u00dfe 2", "crossStreet": "Am Volkspark", "lat": 52.482662612451534, "lng": 13.325965404510498, "labeledLatLngs": [{"label": "display", "lat": 52.482662612451534, "lng": 13.325965404510498}], "distance": 417, "postalCode": "10715", "cc": "DE", "city": "Berlin", "state": "Berlin", "country": "Deutschland", "formattedAddress": ["Livl\u00e4ndische Stra\u00dfe 2 (Am Volkspark)", "10715 Berlin", "Deutschland"]}, "categories": [{"id": "4bf58dd8d48988d16d941735", "name": "Caf\u00e9", "pluralName": "Caf\u00e9s", "shortName": "Caf\u00e9", "icon": {"prefix": "https://ss3.4sqi.net/img/categories_v2/food/cafe_", "suffix": ".png"}, "primary": true}], "photos": {"count": 0, "groups": []}}, "referralId": "e-0-4fd72d35e4b0ac0b1e89e0ec-67"}, {"reasons": {"count": 0, "items": [{"summary": "This spot is popular", "type": "general", "reasonName": "globalInteractionReason"}]}, "venue": {"id": "4ba4ef9bf964a5204fc538e3", "name": "Monheim", "location": {"address": "Blissestr. 12", "lat": 52.48514046140478, "lng": 13.320466553424968, "labeledLatLngs": [{"label": "display", "lat": 52.48514046140478, "lng": 13.320466553424968}], "distance": 605, "postalCode": "10713", "cc": "DE", "city": "Berlin", "state": "Berlin", "country": "Deutschland", "formattedAddress": ["Blissestr. 12", "10713 Berlin", "Deutschland"]}, "categories": [{"id": "4bf58dd8d48988d1c9941735", "name": "Ice Cream Shop", "pluralName": "Ice Cream Shops", "shortName": "Ice Cream", "icon": {"prefix": "https://ss3.4sqi.net/img/categories_v2/food/icecream_", "suffix": ".png"}, "primary": true}], "photos": {"count": 0, "groups": []}}, "referralId": "e-0-4ba4ef9bf964a5204fc538e3-68"}, {"reasons": {"count": 0, "items": [{"summary": "This spot is popular", "type": "general", "reasonName": "globalInteractionReason"}]}, "venue": {"id": "4dcaaa78887769ff3d53e6f5", "name": "eurogida", "location": {"address": "Bundesallee 180", "lat": 52.48753092656756, "lng": 13.331560029113849, "labeledLatLngs": [{"label": "display", "lat": 52.48753092656756, "lng": 13.331560029113849}], "distance": 244, "postalCode": "10717", "cc": "DE", "city": "Berlin", "state": "Berlin", "country": "Deutschland", "formattedAddress": ["Bundesallee 180", "10717 Berlin", "Deutschland"]}, "categories": [{"id": "4bf58dd8d48988d118951735", "name": "Grocery Store", "pluralName": "Grocery Stores", "shortName": "Grocery Store", "icon": {"prefix": "https://ss3.4sqi.net/img/categories_v2/shops/food_grocery_", "suffix": ".png"}, "primary": true}], "photos": {"count": 0, "groups": []}}, "referralId": "e-0-4dcaaa78887769ff3d53e6f5-69"}, {"reasons": {"count": 0, "items": [{"summary": "This spot is popular", "type": "general", "reasonName": "globalInteractionReason"}]}, "venue": {"id": "5019165ee4b01dcdca9825b0", "name": "Tasty Cuisine", "location": {"address": "Prager Platz 4", "lat": 52.49314119906394, "lng": 13.333072023651935, "labeledLatLngs": [{"label": "display", "lat": 52.49314119906394, "lng": 13.333072023651935}], "distance": 856, "postalCode": "10779", "cc": "DE", "city": "Berlin", "state": "Berlin", "country": "Deutschland", "formattedAddress": ["Prager Platz 4", "10779 Berlin", "Deutschland"]}, "categories": [{"id": "4bf58dd8d48988d14a941735", "name": "Vietnamese Restaurant", "pluralName": "Vietnamese Restaurants", "shortName": "Vietnamese", "icon": {"prefix": "https://ss3.4sqi.net/img/categories_v2/food/vietnamese_", "suffix": ".png"}, "primary": true}], "photos": {"count": 0, "groups": []}}, "referralId": "e-0-5019165ee4b01dcdca9825b0-70"}, {"reasons": {"count": 0, "items": [{"summary": "This spot is popular", "type": "general", "reasonName": "globalInteractionReason"}]}, "venue": {"id": "4efcbe8c02d5a2b50f234c83", "name": "Sagar", "location": {"address": "Prinzregentenstr. 53", "lat": 52.47893977858645, "lng": 13.332821130752563, "labeledLatLngs": [{"label": "display", "lat": 52.47893977858645, "lng": 13.332821130752563}], "distance": 798, "postalCode": "10715", "cc": "DE", "city": "Berlin", "state": "Berlin", "country": "Deutschland", "formattedAddress": ["Prinzregentenstr. 53", "10715 Berlin", "Deutschland"]}, "categories": [{"id": "4bf58dd8d48988d10f941735", "name": "Indian Restaurant", "pluralName": "Indian Restaurants", "shortName": "Indian", "icon": {"prefix": "https://ss3.4sqi.net/img/categories_v2/food/indian_", "suffix": ".png"}, "primary": true}], "photos": {"count": 0, "groups": []}}, "referralId": "e-0-4efcbe8c02d5a2b50f234c83-71"}, {"reasons": {"count": 0, "items": [{"summary": "This spot is popular", "type": "general", "reasonName": "globalInteractionReason"}]}, "venue": {"id": "4e317fd4ae6085c3ad1b4fe7", "name": "Lidl", "location": {"address": "Berliner Str. 26/27", "lat": 52.48676769999999, "lng": 13.3249204, "labeledLatLngs": [{"label": "display", "lat": 52.48676769999999, "lng": 13.3249204}], "distance": 318, "postalCode": "10715", "cc": "DE", "city": "Berlin", "state": "Berlin", "country": "Deutschland", "formattedAddress": ["Berliner Str. 26/27", "10715 Berlin", "Deutschland"]}, "categories": [{"id": "52f2ab2ebcbc57f1066b8b46", "name": "Supermarket", "pluralName": "Supermarkets", "shortName": "Supermarket", "icon": {"prefix": "https://ss3.4sqi.net/img/categories_v2/shops/food_grocery_", "suffix": ".png"}, "primary": true}], "photos": {"count": 0, "groups": []}, "venuePage": {"id": "577268411"}}, "referralId": "e-0-4e317fd4ae6085c3ad1b4fe7-72"}, {"reasons": {"count": 0, "items": [{"summary": "This spot is popular", "type": "general", "reasonName": "globalInteractionReason"}]}, "venue": {"id": "516c237ee4b056efa6de5558", "name": "Istanbul Grill", "location": {"address": "Brandenburgische Str. 1", "lat": 52.486741701588656, "lng": 13.320035683184551, "labeledLatLngs": [{"label": "display", "lat": 52.486741701588656, "lng": 13.320035683184551}], "distance": 639, "postalCode": "10713", "cc": "DE", "city": "Berlin", "state": "Berlin", "country": "Deutschland", "formattedAddress": ["Brandenburgische Str. 1", "10713 Berlin", "Deutschland"]}, "categories": [{"id": "5283c7b4e4b094cb91ec88d8", "name": "Doner Restaurant", "pluralName": "Doner Restaurants", "shortName": "Doner", "icon": {"prefix": "https://ss3.4sqi.net/img/categories_v2/food/turkish_", "suffix": ".png"}, "primary": true}], "photos": {"count": 0, "groups": []}}, "referralId": "e-0-516c237ee4b056efa6de5558-73"}, {"reasons": {"count": 0, "items": [{"summary": "This spot is popular", "type": "general", "reasonName": "globalInteractionReason"}]}, "venue": {"id": "4b60a1faf964a52067f129e3", "name": "Tulum", "location": {"address": "Am Volkspark 85", "lat": 52.4830587748448, "lng": 13.320454716849786, "labeledLatLngs": [{"label": "display", "lat": 52.4830587748448, "lng": 13.320454716849786}], "distance": 674, "postalCode": "10715", "cc": "DE", "city": "Berlin", "state": "Berlin", "country": "Deutschland", "formattedAddress": ["Am Volkspark 85", "10715 Berlin", "Deutschland"]}, "categories": [{"id": "4bf58dd8d48988d1c1941735", "name": "Mexican Restaurant", "pluralName": "Mexican Restaurants", "shortName": "Mexican", "icon": {"prefix": "https://ss3.4sqi.net/img/categories_v2/food/mexican_", "suffix": ".png"}, "primary": true}], "photos": {"count": 0, "groups": []}}, "referralId": "e-0-4b60a1faf964a52067f129e3-74"}, {"reasons": {"count": 0, "items": [{"summary": "This spot is popular", "type": "general", "reasonName": "globalInteractionReason"}]}, "venue": {"id": "4bf405d498ac0f47257963a8", "name": "La Mia Toscana", "location": {"address": "Mecklenburgische Str. 85", "lat": 52.48208670761737, "lng": 13.31670713079665, "labeledLatLngs": [{"label": "display", "lat": 52.48208670761737, "lng": 13.31670713079665}], "distance": 950, "postalCode": "10713", "cc": "DE", "city": "Berlin", "state": "Berlin", "country": "Deutschland", "formattedAddress": ["Mecklenburgische Str. 85", "10713 Berlin", "Deutschland"]}, "categories": [{"id": "4bf58dd8d48988d110941735", "name": "Italian Restaurant", "pluralName": "Italian Restaurants", "shortName": "Italian", "icon": {"prefix": "https://ss3.4sqi.net/img/categories_v2/food/italian_", "suffix": ".png"}, "primary": true}], "photos": {"count": 0, "groups": []}}, "referralId": "e-0-4bf405d498ac0f47257963a8-75"}, {"reasons": {"count": 0, "items": [{"summary": "This spot is popular", "type": "general", "reasonName": "globalInteractionReason"}]}, "venue": {"id": "4c4992136594be9ac9ef3f25", "name": "Meyerbeer Coffee", "location": {"address": "Prager Platz 3", "lat": 52.4932233557136, "lng": 13.332913278714306, "labeledLatLngs": [{"label": "display", "lat": 52.4932233557136, "lng": 13.332913278714306}], "distance": 861, "postalCode": "10779", "cc": "DE", "city": "Berlin", "state": "Berlin", "country": "Deutschland", "formattedAddress": ["Prager Platz 3", "10779 Berlin", "Deutschland"]}, "categories": [{"id": "4bf58dd8d48988d16d941735", "name": "Caf\u00e9", "pluralName": "Caf\u00e9s", "shortName": "Caf\u00e9", "icon": {"prefix": "https://ss3.4sqi.net/img/categories_v2/food/cafe_", "suffix": ".png"}, "primary": true}], "photos": {"count": 0, "groups": []}}, "referralId": "e-0-4c4992136594be9ac9ef3f25-76"}, {"reasons": {"count": 0, "items": [{"summary": "This spot is popular", "type": "general", "reasonName": "globalInteractionReason"}]}, "venue": {"id": "5106c04de4b0cbc88a195922", "name": "La Corniche", "location": {"address": "Bundesplatz 9", "crossStreet": "Detmolder Str.", "lat": 52.47809519542884, "lng": 13.32817554473877, "labeledLatLngs": [{"label": "display", "lat": 52.47809519542884, "lng": 13.32817554473877}], "distance": 860, "postalCode": "10715", "cc": "DE", "city": "Berlin", "state": "Berlin", "country": "Deutschland", "formattedAddress": ["Bundesplatz 9 (Detmolder Str.)", "10715 Berlin", "Deutschland"]}, "categories": [{"id": "4bf58dd8d48988d115941735", "name": "Middle Eastern Restaurant", "pluralName": "Middle Eastern Restaurants", "shortName": "Middle Eastern", "icon": {"prefix": "https://ss3.4sqi.net/img/categories_v2/food/middleeastern_", "suffix": ".png"}, "primary": true}], "photos": {"count": 0, "groups": []}}, "referralId": "e-0-5106c04de4b0cbc88a195922-77"}, {"reasons": {"count": 0, "items": [{"summary": "This spot is popular", "type": "general", "reasonName": "globalInteractionReason"}]}, "venue": {"id": "4d7a0c0bb39b2c0f76e8ea90", "name": "Tegernseer T\u00f6nnchen", "location": {"address": "Berliner Str. 118", "lat": 52.486439541927645, "lng": 13.31753238293806, "labeledLatLngs": [{"label": "display", "lat": 52.486439541927645, "lng": 13.31753238293806}], "distance": 803, "cc": "DE", "city": "Berlin", "state": "Berlin", "country": "Deutschland", "formattedAddress": ["Berliner Str. 118", "Berlin", "Deutschland"]}, "categories": [{"id": "56aa371ce4b08b9a8d573572", "name": "Bavarian Restaurant", "pluralName": "Bavarian Restaurants", "shortName": "Bavarian", "icon": {"prefix": "https://ss3.4sqi.net/img/categories_v2/food/german_", "suffix": ".png"}, "primary": true}], "photos": {"count": 0, "groups": []}}, "referralId": "e-0-4d7a0c0bb39b2c0f76e8ea90-78"}, {"reasons": {"count": 0, "items": [{"summary": "This spot is popular", "type": "general", "reasonName": "globalInteractionReason"}]}, "venue": {"id": "4e95fd366c2553e4af293789", "name": "TWO Hotel Berlin by Axel", "location": {"address": "Bundesallee 31a", "lat": 52.4903450452743, "lng": 13.33055636987377, "labeledLatLngs": [{"label": "display", "lat": 52.4903450452743, "lng": 13.33055636987377}], "distance": 513, "postalCode": "10717", "cc": "DE", "neighborhood": "Charlottenburg-Wilmersdorf, Berl\u00edn", "city": "Berlin", "state": "Berlin", "country": "Deutschland", "formattedAddress": ["Bundesallee 31a", "10717 Berlin", "Deutschland"]}, "categories": [{"id": "4bf58dd8d48988d1fa931735", "name": "Hotel", "pluralName": "Hotels", "shortName": "Hotel", "icon": {"prefix": "https://ss3.4sqi.net/img/categories_v2/travel/hotel_", "suffix": ".png"}, "primary": true}], "photos": {"count": 0, "groups": []}}, "referralId": "e-0-4e95fd366c2553e4af293789-79"}, {"reasons": {"count": 0, "items": [{"summary": "This spot is popular", "type": "general", "reasonName": "globalInteractionReason"}]}, "venue": {"id": "4cae032c2303a143f45eebf0", "name": "Rabab", "location": {"address": "Blissestr. 44", "lat": 52.48109057820265, "lng": 13.320329658713403, "labeledLatLngs": [{"label": "display", "lat": 52.48109057820265, "lng": 13.320329658713403}], "distance": 804, "postalCode": "10713", "cc": "DE", "city": "Berlin", "state": "Berlin", "country": "Deutschland", "formattedAddress": ["Blissestr. 44", "10713 Berlin", "Deutschland"]}, "categories": [{"id": "4bf58dd8d48988d119941735", "name": "Hookah Bar", "pluralName": "Hookah Bars", "shortName": "Hookah Bar", "icon": {"prefix": "https://ss3.4sqi.net/img/categories_v2/nightlife/hookahbar_", "suffix": ".png"}, "primary": true}], "photos": {"count": 0, "groups": []}}, "referralId": "e-0-4cae032c2303a143f45eebf0-80"}, {"reasons": {"count": 0, "items": [{"summary": "This spot is popular", "type": "general", "reasonName": "globalInteractionReason"}]}, "venue": {"id": "4ffbfc7ee4b0582ddd1963fa", "name": "Bayerischer Platz", "location": {"address": "Grunewaldstr.", "crossStreet": "Landshuter Str.", "lat": 52.48907841165307, "lng": 13.339784145355225, "labeledLatLngs": [{"label": "display", "lat": 52.48907841165307, "lng": 13.339784145355225}], "distance": 796, "postalCode": "10779", "cc": "DE", "city": "Berlin", "state": "Berlin", "country": "Deutschland", "formattedAddress": ["Grunewaldstr. (Landshuter Str.)", "10779 Berlin", "Deutschland"]}, "categories": [{"id": "4bf58dd8d48988d164941735", "name": "Plaza", "pluralName": "Plazas", "shortName": "Plaza", "icon": {"prefix": "https://ss3.4sqi.net/img/categories_v2/parks_outdoors/plaza_", "suffix": ".png"}, "primary": true}], "photos": {"count": 0, "groups": []}}, "referralId": "e-0-4ffbfc7ee4b0582ddd1963fa-81"}, {"reasons": {"count": 0, "items": [{"summary": "This spot is popular", "type": "general", "reasonName": "globalInteractionReason"}]}, "venue": {"id": "5299db9311d289d0f76f715c", "name": "nahkauf", "location": {"address": "Badensche Str. 56", "lat": 52.48549123595835, "lng": 13.340773847727927, "labeledLatLngs": [{"label": "display", "lat": 52.48549123595835, "lng": 13.340773847727927}], "distance": 775, "postalCode": "10825", "cc": "DE", "neighborhood": "Bayerisches Viertel, Berlin", "city": "Berlin", "state": "Berlin", "country": "Deutschland", "formattedAddress": ["Badensche Str. 56", "10825 Berlin", "Deutschland"]}, "categories": [{"id": "52f2ab2ebcbc57f1066b8b46", "name": "Supermarket", "pluralName": "Supermarkets", "shortName": "Supermarket", "icon": {"prefix": "https://ss3.4sqi.net/img/categories_v2/shops/food_grocery_", "suffix": ".png"}, "primary": true}], "photos": {"count": 0, "groups": []}}, "referralId": "e-0-5299db9311d289d0f76f715c-82"}, {"reasons": {"count": 0, "items": [{"summary": "This spot is popular", "type": "general", "reasonName": "globalInteractionReason"}]}, "venue": {"id": "51b1b6fa498e38fa1c8773ab", "name": "Pho Bay", "location": {"address": "Berliner Str. 32", "lat": 52.48650761242479, "lng": 13.32309816502988, "labeledLatLngs": [{"label": "display", "lat": 52.48650761242479, "lng": 13.32309816502988}], "distance": 430, "postalCode": "10715", "cc": "DE", "city": "Berlin", "state": "Berlin", "country": "Deutschland", "formattedAddress": ["Berliner Str. 32", "10715 Berlin", "Deutschland"]}, "categories": [{"id": "4bf58dd8d48988d14a941735", "name": "Vietnamese Restaurant", "pluralName": "Vietnamese Restaurants", "shortName": "Vietnamese", "icon": {"prefix": "https://ss3.4sqi.net/img/categories_v2/food/vietnamese_", "suffix": ".png"}, "primary": true}], "photos": {"count": 0, "groups": []}}, "referralId": "e-0-51b1b6fa498e38fa1c8773ab-83"}, {"reasons": {"count": 0, "items": [{"summary": "This spot is popular", "type": "general", "reasonName": "globalInteractionReason"}]}, "venue": {"id": "4edab2dde300851bf9ed6de5", "name": "Hyperion Hotel Berlin", "location": {"address": "Prager Str. 12", "lat": 52.49386559664291, "lng": 13.333103542327876, "labeledLatLngs": [{"label": "display", "lat": 52.49386559664291, "lng": 13.333103542327876}], "distance": 933, "postalCode": "10779", "cc": "DE", "city": "Berlin", "state": "Berlin", "country": "Deutschland", "formattedAddress": ["Prager Str. 12", "10779 Berlin", "Deutschland"]}, "categories": [{"id": "4bf58dd8d48988d1fa931735", "name": "Hotel", "pluralName": "Hotels", "shortName": "Hotel", "icon": {"prefix": "https://ss3.4sqi.net/img/categories_v2/travel/hotel_", "suffix": ".png"}, "primary": true}], "photos": {"count": 0, "groups": []}}, "referralId": "e-0-4edab2dde300851bf9ed6de5-84"}, {"reasons": {"count": 0, "items": [{"summary": "This spot is popular", "type": "general", "reasonName": "globalInteractionReason"}]}, "venue": {"id": "4c7e56c3d461a143beb27ff5", "name": "Ristorante ROMA", "location": {"address": "Bundesplatz 8", "crossStreet": "Detmolder Str.", "lat": 52.4794384447368, "lng": 13.326693405354693, "labeledLatLngs": [{"label": "display", "lat": 52.4794384447368, "lng": 13.326693405354693}], "distance": 729, "postalCode": "10715", "cc": "DE", "city": "Berlin", "state": "Berlin", "country": "Deutschland", "formattedAddress": ["Bundesplatz 8 (Detmolder Str.)", "10715 Berlin", "Deutschland"]}, "categories": [{"id": "4bf58dd8d48988d110941735", "name": "Italian Restaurant", "pluralName": "Italian Restaurants", "shortName": "Italian", "icon": {"prefix": "https://ss3.4sqi.net/img/categories_v2/food/italian_", "suffix": ".png"}, "primary": true}], "photos": {"count": 0, "groups": []}}, "referralId": "e-0-4c7e56c3d461a143beb27ff5-85"}, {"reasons": {"count": 0, "items": [{"summary": "This spot is popular", "type": "general", "reasonName": "globalInteractionReason"}]}, "venue": {"id": "4e30422f22717d705868ce43", "name": "EDEKA Schoeppenthau", "location": {"address": "Grunewaldstra\u00dfe 48", "lat": 52.48859073, "lng": 13.33865633, "labeledLatLngs": [{"label": "display", "lat": 52.48859073, "lng": 13.33865633}], "distance": 704, "postalCode": "10825", "cc": "DE", "city": "Berlin", "state": "Berlin", "country": "Deutschland", "formattedAddress": ["Grunewaldstra\u00dfe 48", "10825 Berlin", "Deutschland"]}, "categories": [{"id": "52f2ab2ebcbc57f1066b8b46", "name": "Supermarket", "pluralName": "Supermarkets", "shortName": "Supermarket", "icon": {"prefix": "https://ss3.4sqi.net/img/categories_v2/shops/food_grocery_", "suffix": ".png"}, "primary": true}], "photos": {"count": 0, "groups": []}}, "referralId": "e-0-4e30422f22717d705868ce43-86"}, {"reasons": {"count": 0, "items": [{"summary": "This spot is popular", "type": "general", "reasonName": "globalInteractionReason"}]}, "venue": {"id": "4caef836c5e6a1cd62b6c8f6", "name": "Thoben's Backwaren", "location": {"address": "Berliner Str. 30-31", "lat": 52.486632426429786, "lng": 13.323771254471179, "labeledLatLngs": [{"label": "display", "lat": 52.486632426429786, "lng": 13.323771254471179}], "distance": 388, "postalCode": "10715", "cc": "DE", "city": "Berlin", "state": "Berlin", "country": "Deutschland", "formattedAddress": ["Berliner Str. 30-31", "10715 Berlin", "Deutschland"]}, "categories": [{"id": "4bf58dd8d48988d16a941735", "name": "Bakery", "pluralName": "Bakeries", "shortName": "Bakery", "icon": {"prefix": "https://ss3.4sqi.net/img/categories_v2/food/bakery_", "suffix": ".png"}, "primary": true}], "photos": {"count": 0, "groups": []}}, "referralId": "e-0-4caef836c5e6a1cd62b6c8f6-87"}, {"reasons": {"count": 0, "items": [{"summary": "This spot is popular", "type": "general", "reasonName": "globalInteractionReason"}]}, "venue": {"id": "4f72b661e4b010795cef943e", "name": "Prager Passage", "location": {"address": "Prager Platz 1-3", "lat": 52.49342279434599, "lng": 13.332739349894071, "labeledLatLngs": [{"label": "display", "lat": 52.49342279434599, "lng": 13.332739349894071}], "distance": 879, "postalCode": "10777", "cc": "DE", "city": "Berlin", "state": "Berlin", "country": "Deutschland", "formattedAddress": ["Prager Platz 1-3", "10777 Berlin", "Deutschland"]}, "categories": [{"id": "4bf58dd8d48988d1fd941735", "name": "Shopping Mall", "pluralName": "Shopping Malls", "shortName": "Mall", "icon": {"prefix": "https://ss3.4sqi.net/img/categories_v2/shops/mall_", "suffix": ".png"}, "primary": true}], "photos": {"count": 0, "groups": []}}, "referralId": "e-0-4f72b661e4b010795cef943e-88"}, {"reasons": {"count": 0, "items": [{"summary": "This spot is popular", "type": "general", "reasonName": "globalInteractionReason"}]}, "venue": {"id": "4d3fe41c1bd2a143d43ded7c", "name": "Bundesplatz", "location": {"address": "Bundesplatz", "crossStreet": "Bundesallee", "lat": 52.478939771906035, "lng": 13.328498461241907, "labeledLatLngs": [{"label": "display", "lat": 52.478939771906035, "lng": 13.328498461241907}], "distance": 765, "postalCode": "10715", "cc": "DE", "city": "Berlin", "state": "Berlin", "country": "Deutschland", "formattedAddress": ["Bundesplatz (Bundesallee)", "10715 Berlin", "Deutschland"]}, "categories": [{"id": "4bf58dd8d48988d164941735", "name": "Plaza", "pluralName": "Plazas", "shortName": "Plaza", "icon": {"prefix": "https://ss3.4sqi.net/img/categories_v2/parks_outdoors/plaza_", "suffix": ".png"}, "primary": true}], "photos": {"count": 0, "groups": []}}, "referralId": "e-0-4d3fe41c1bd2a143d43ded7c-89"}, {"reasons": {"count": 0, "items": [{"summary": "This spot is popular", "type": "general", "reasonName": "globalInteractionReason"}]}, "venue": {"id": "513b501b83020f75fc165e51", "name": "dm-drogerie markt", "location": {"address": "Prager Platz 1-3", "lat": 52.493613560455216, "lng": 13.33292232638928, "labeledLatLngs": [{"label": "display", "lat": 52.493613560455216, "lng": 13.33292232638928}], "distance": 903, "postalCode": "10779", "cc": "DE", "city": "Berlin", "state": "Berlin", "country": "Deutschland", "formattedAddress": ["Prager Platz 1-3", "10779 Berlin", "Deutschland"]}, "categories": [{"id": "5745c2e4498e11e7bccabdbd", "name": "Drugstore", "pluralName": "Drugstores", "shortName": "Drugstore", "icon": {"prefix": "https://ss3.4sqi.net/img/categories_v2/shops/pharmacy_", "suffix": ".png"}, "primary": true}], "photos": {"count": 0, "groups": []}, "venuePage": {"id": "455537957"}}, "referralId": "e-0-513b501b83020f75fc165e51-90"}, {"reasons": {"count": 0, "items": [{"summary": "This spot is popular", "type": "general", "reasonName": "globalInteractionReason"}]}, "venue": {"id": "526544eb498ea0233ca82153", "name": "ALDI NORD", "location": {"address": "Wexstr. 16-18", "lat": 52.479047468571885, "lng": 13.334711188748118, "labeledLatLngs": [{"label": "display", "lat": 52.479047468571885, "lng": 13.334711188748118}], "distance": 834, "postalCode": "10715", "cc": "DE", "city": "Berlin", "state": "Berlin", "country": "Deutschland", "formattedAddress": ["Wexstr. 16-18", "10715 Berlin", "Deutschland"]}, "categories": [{"id": "52f2ab2ebcbc57f1066b8b46", "name": "Supermarket", "pluralName": "Supermarkets", "shortName": "Supermarket", "icon": {"prefix": "https://ss3.4sqi.net/img/categories_v2/shops/food_grocery_", "suffix": ".png"}, "primary": true}], "photos": {"count": 0, "groups": []}}, "referralId": "e-0-526544eb498ea0233ca82153-91"}, {"reasons": {"count": 0, "items": [{"summary": "This spot is popular", "type": "general", "reasonName": "globalInteractionReason"}]}, "venue": {"id": "5279219c11d2cc5ace40b6ca", "name": "Max & Moritz", "location": {"address": "Uhlandstr. 104", "lat": 52.48670680811843, "lng": 13.322523863397299, "labeledLatLngs": [{"label": "display", "lat": 52.48670680811843, "lng": 13.322523863397299}], "distance": 473, "postalCode": "10713", "cc": "DE", "city": "Berlin", "state": "Berlin", "country": "Deutschland", "formattedAddress": ["Uhlandstr. 104", "10713 Berlin", "Deutschland"]}, "categories": [{"id": "5283c7b4e4b094cb91ec88d8", "name": "Doner Restaurant", "pluralName": "Doner Restaurants", "shortName": "Doner", "icon": {"prefix": "https://ss3.4sqi.net/img/categories_v2/food/turkish_", "suffix": ".png"}, "primary": true}], "photos": {"count": 0, "groups": []}}, "referralId": "e-0-5279219c11d2cc5ace40b6ca-92"}, {"reasons": {"count": 0, "items": [{"summary": "This spot is popular", "type": "general", "reasonName": "globalInteractionReason"}]}, "venue": {"id": "58239483b4f9620f88441b17", "name": "Firlefanz", "location": {"address": "Durlacher Stra\u00dfe", "lat": 52.480358, "lng": 13.332125, "labeledLatLngs": [{"label": "display", "lat": 52.480358, "lng": 13.332125}], "distance": 633, "postalCode": "10715", "cc": "DE", "city": "Berlin", "state": "Berlin", "country": "Deutschland", "formattedAddress": ["Durlacher Stra\u00dfe", "10715 Berlin", "Deutschland"]}, "categories": [{"id": "4bf58dd8d48988d105951735", "name": "Kids Store", "pluralName": "Kids Stores", "shortName": "Kids Store", "icon": {"prefix": "https://ss3.4sqi.net/img/categories_v2/shops/apparel_kids_", "suffix": ".png"}, "primary": true}], "photos": {"count": 0, "groups": []}}, "referralId": "e-0-58239483b4f9620f88441b17-93"}, {"reasons": {"count": 0, "items": [{"summary": "This spot is popular", "type": "general", "reasonName": "globalInteractionReason"}]}, "venue": {"id": "4c5e7e2bd25320a15900c97a", "name": "Boulderworx", "location": {"address": "Berliner Str. 46", "lat": 52.48688055342877, "lng": 13.318214828154577, "labeledLatLngs": [{"label": "display", "lat": 52.48688055342877, "lng": 13.318214828154577}], "distance": 763, "postalCode": "10713", "cc": "DE", "city": "Berlin", "state": "Berlin", "country": "Deutschland", "formattedAddress": ["Berliner Str. 46", "10713 Berlin", "Deutschland"]}, "categories": [{"id": "503289d391d4c4b30a586d6a", "name": "Climbing Gym", "pluralName": "Climbing Gyms", "shortName": "Climbing Gym", "icon": {"prefix": "https://ss3.4sqi.net/img/categories_v2/building/gym_", "suffix": ".png"}, "primary": true}], "photos": {"count": 0, "groups": []}}, "referralId": "e-0-4c5e7e2bd25320a15900c97a-94"}, {"reasons": {"count": 0, "items": [{"summary": "This spot is popular", "type": "general", "reasonName": "globalInteractionReason"}]}, "venue": {"id": "4c39c5bf3849c92884c3c1b1", "name": "Parkcaf\u00e9 Pusteblume", "location": {"address": "Durlacher Str. 2", "lat": 52.48031704883435, "lng": 13.33662400967685, "labeledLatLngs": [{"label": "display", "lat": 52.48031704883435, "lng": 13.33662400967685}], "distance": 784, "postalCode": "10715", "cc": "DE", "city": "Berlin", "state": "Berlin", "country": "Deutschland", "formattedAddress": ["Durlacher Str. 2", "10715 Berlin", "Deutschland"]}, "categories": [{"id": "4bf58dd8d48988d16d941735", "name": "Caf\u00e9", "pluralName": "Caf\u00e9s", "shortName": "Caf\u00e9", "icon": {"prefix": "https://ss3.4sqi.net/img/categories_v2/food/cafe_", "suffix": ".png"}, "primary": true}], "photos": {"count": 0, "groups": []}}, "referralId": "e-0-4c39c5bf3849c92884c3c1b1-95"}, {"reasons": {"count": 0, "items": [{"summary": "This spot is popular", "type": "general", "reasonName": "globalInteractionReason"}]}, "venue": {"id": "521db41011d25b4773ac14e2", "name": "EDEKA Burau", "location": {"address": "Mainzer Str. 13", "lat": 52.47972004, "lng": 13.32678252, "labeledLatLngs": [{"label": "display", "lat": 52.47972004, "lng": 13.32678252}], "distance": 698, "postalCode": "10715", "cc": "DE", "city": "Berlin", "state": "Berlin", "country": "Deutschland", "formattedAddress": ["Mainzer Str. 13", "10715 Berlin", "Deutschland"]}, "categories": [{"id": "52f2ab2ebcbc57f1066b8b46", "name": "Supermarket", "pluralName": "Supermarkets", "shortName": "Supermarket", "icon": {"prefix": "https://ss3.4sqi.net/img/categories_v2/shops/food_grocery_", "suffix": ".png"}, "primary": true}], "photos": {"count": 0, "groups": []}, "venuePage": {"id": "552688499"}}, "referralId": "e-0-521db41011d25b4773ac14e2-96"}, {"reasons": {"count": 0, "items": [{"summary": "This spot is popular", "type": "general", "reasonName": "globalInteractionReason"}]}, "venue": {"id": "4c914e8ab641236aac6c8079", "name": "Coma", "location": {"lat": 52.479427285436415, "lng": 13.32674391430617, "labeledLatLngs": [{"label": "display", "lat": 52.479427285436415, "lng": 13.32674391430617}], "distance": 730, "cc": "DE", "city": "Berlin", "state": "Berlin", "country": "Deutschland", "formattedAddress": ["Berlin", "Deutschland"]}, "categories": [{"id": "4bf58dd8d48988d116941735", "name": "Bar", "pluralName": "Bars", "shortName": "Bar", "icon": {"prefix": "https://ss3.4sqi.net/img/categories_v2/nightlife/pub_", "suffix": ".png"}, "primary": true}], "photos": {"count": 0, "groups": []}}, "referralId": "e-0-4c914e8ab641236aac6c8079-97"}, {"reasons": {"count": 0, "items": [{"summary": "This spot is popular", "type": "general", "reasonName": "globalInteractionReason"}]}, "venue": {"id": "51609609e4b06cc90c05e40a", "name": "Uhland-Eck", "location": {"address": "Berliner Str. 33", "lat": 52.486541592643604, "lng": 13.322584305934102, "labeledLatLngs": [{"label": "display", "lat": 52.486541592643604, "lng": 13.322584305934102}], "distance": 465, "postalCode": "10715", "cc": "DE", "city": "Berlin", "state": "Berlin", "country": "Deutschland", "formattedAddress": ["Berliner Str. 33", "10715 Berlin", "Deutschland"]}, "categories": [{"id": "4bf58dd8d48988d116941735", "name": "Bar", "pluralName": "Bars", "shortName": "Bar", "icon": {"prefix": "https://ss3.4sqi.net/img/categories_v2/nightlife/pub_", "suffix": ".png"}, "primary": true}], "photos": {"count": 0, "groups": []}}, "referralId": "e-0-51609609e4b06cc90c05e40a-98"}, {"reasons": {"count": 0, "items": [{"summary": "This spot is popular", "type": "general", "reasonName": "globalInteractionReason"}]}, "venue": {"id": "4e257ee6d4c0d18a28a669aa", "name": "Lakritz! Schwarzes Gold", "location": {"address": "Uhlandstr. 98", "lat": 52.486166572825674, "lng": 13.322474803938547, "labeledLatLngs": [{"label": "display", "lat": 52.486166572825674, "lng": 13.322474803938547}], "distance": 467, "postalCode": "10715", "cc": "DE", "city": "Berlin", "state": "Berlin", "country": "Deutschland", "formattedAddress": ["Uhlandstr. 98", "10715 Berlin", "Deutschland"]}, "categories": [{"id": "4bf58dd8d48988d117951735", "name": "Candy Store", "pluralName": "Candy Stores", "shortName": "Candy Store", "icon": {"prefix": "https://ss3.4sqi.net/img/categories_v2/shops/candystore_", "suffix": ".png"}, "primary": true}], "photos": {"count": 0, "groups": []}}, "referralId": "e-0-4e257ee6d4c0d18a28a669aa-99"}]