[{"reasons": {"count": 0, "items": [{"summary": "This spot is popular", "type": "general", "reasonName": "globalInteractionReason"}]}, "venue": {"id": "4c0a988c340720a1f2b38693", "name": "Der Kretaner", "location": {"address": "Riemeisterstr. 129", "lat": 52.44999443028993, "lng": 13.254900774710524, "labeledLatLngs": [{"label": "display", "lat": 52.44999443028993, "lng": 13.254900774710524}], "distance": 224, "postalCode": "14169", "cc": "DE", "city": "Berlin", "state": "Berlin", "country": "Deutschland", "formattedAddress": ["Riemeisterstr. 129", "14169 Berlin", "Deutschland"]}, "categories": [{"id": "4bf58dd8d48988d10e941735", "name": "Greek Restaurant", "pluralName": "Greek Restaurants", "shortName": "Greek", "icon": {"prefix": "https://ss3.4sqi.net/img/categories_v2/food/greek_", "suffix": ".png"}, "primary": true}], "photos": {"count": 0, "groups": []}}, "referralId": "e-0-4c0a988c340720a1f2b38693-0"}, {"reasons": {"count": 0, "items": [{"summary": "This spot is popular", "type": "general", "reasonName": "globalInteractionReason"}]}, "venue": {"id": "58e4c44902b60e7b6250f215", "name": "Cafe Breadleys", "location": {"lat": 52.449477, "lng": 13.269016, "labeledLatLngs": [{"label": "display", "lat": 52.449477, "lng": 13.269016}], "distance": 874, "postalCode": "14195", "cc": "DE", "city": "Berlin", "state": "Berlin", "country": "Deutschland", "formattedAddress": ["14195 Berlin", "Deutschland"]}, "categories": [{"id": "4bf58dd8d48988d16d941735", "name": "Caf\u00e9", "pluralName": "Caf\u00e9s", "shortName": "Caf\u00e9", "icon": {"prefix": "https://ss3.4sqi.net/img/categories_v2/food/cafe_", "suffix": ".png"}, "primary": true}], "photos": {"count": 0, "groups": []}}, "referralId": "e-0-58e4c44902b60e7b6250f215-1"}, {"reasons": {"count": 0, "items": [{"summary": "This spot is popular", "type": "general", "reasonName": "globalInteractionReason"}]}, "venue": {"id": "526f7bb811d2f778d33b8900", "name": "Wiener Conditorei", "location": {"address": "Clayallee 175", "lat": 52.451653753747195, "lng": 13.270504259340091, "labeledLatLngs": [{"label": "display", "lat": 52.451653753747195, "lng": 13.270504259340091}], "distance": 939, "postalCode": "14195", "cc": "DE", "city": "Berlin", "state": "Berlin", "country": "Deutschland", "formattedAddress": ["Clayallee 175", "14195 Berlin", "Deutschland"]}, "categories": [{"id": "4bf58dd8d48988d16d941735", "name": "Caf\u00e9", "pluralName": "Caf\u00e9s", "shortName": "Caf\u00e9", "icon": {"prefix": "https://ss3.4sqi.net/img/categories_v2/food/cafe_", "suffix": ".png"}, "primary": true}], "photos": {"count": 0, "groups": []}}, "referralId": "e-0-526f7bb811d2f778d33b8900-2"}, {"reasons": {"count": 0, "items": [{"summary": "This spot is popular", "type": "general", "reasonName": "globalInteractionReason"}]}, "venue": {"id": "524c51e111d27ce846f3d3b4", "name": "EDEKA", "location": {"address": "Clayallee 171-177", "lat": 52.45224548, "lng": 13.27063318, "labeledLatLngs": [{"label": "display", "lat": 52.45224548, "lng": 13.27063318}], "distance": 950, "postalCode": "14195", "cc": "DE", "neighborhood": "Dahlem", "city": "Berlin", "state": "Berlin", "country": "Deutschland", "formattedAddress": ["Clayallee 171-177", "14195 Berlin", "Deutschland"]}, "categories": [{"id": "52f2ab2ebcbc57f1066b8b46", "name": "Supermarket", "pluralName": "Supermarkets", "shortName": "Supermarket", "icon": {"prefix": "https://ss3.4sqi.net/img/categories_v2/shops/food_grocery_", "suffix": ".png"}, "primary": true}], "photos": {"count": 0, "groups": []}, "venuePage": {"id": "555692077"}}, "referralId": "e-0-524c51e111d27ce846f3d3b4-3"}, {"reasons": {"count": 0, "items": [{"summary": "This spot is popular", "type": "general", "reasonName": "globalInteractionReason"}]}, "venue": {"id": "4d790977e9756a31e266f82e", "name": "Schwimmhalle H\u00fcttenweg", "location": {"address": "H\u00fcttenweg 41", "lat": 52.453842347518126, "lng": 13.268119147140068, "labeledLatLngs": [{"label": "display", "lat": 52.453842347518126, "lng": 13.268119147140068}], "distance": 813, "postalCode": "14195", "cc": "DE", "city": "Berlin", "state": "Berlin", "country": "Deutschland", "formattedAddress": ["H\u00fcttenweg 41", "14195 Berlin", "Deutschland"]}, "categories": [{"id": "4bf58dd8d48988d15e941735", "name": "Pool", "pluralName": "Pools", "shortName": "Pool", "icon": {"prefix": "https://ss3.4sqi.net/img/categories_v2/parks_outdoors/pool_", "suffix": ".png"}, "primary": true}], "photos": {"count": 0, "groups": []}}, "referralId": "e-0-4d790977e9756a31e266f82e-4"}, {"reasons": {"count": 0, "items": [{"summary": "This spot is popular", "type": "general", "reasonName": "globalInteractionReason"}]}, "venue": {"id": "4c51bdf8991c20a125df5288", "name": "Restaurant Waldhaus Zehlendorf", "location": {"address": "Onkel-Tom-Str. 50", "lat": 52.443976, "lng": 13.253843, "labeledLatLngs": [{"label": "display", "lat": 52.443976, "lng": 13.253843}], "distance": 881, "postalCode": "14169", "cc": "DE", "city": "Berlin", "state": "Berlin", "country": "Deutschland", "formattedAddress": ["Onkel-Tom-Str. 50", "14169 Berlin", "Deutschland"]}, "categories": [{"id": "4bf58dd8d48988d10d941735", "name": "German Restaurant", "pluralName": "German Restaurants", "shortName": "German", "icon": {"prefix": "https://ss3.4sqi.net/img/categories_v2/food/german_", "suffix": ".png"}, "primary": true}], "photos": {"count": 0, "groups": []}}, "referralId": "e-0-4c51bdf8991c20a125df5288-5"}, {"reasons": {"count": 0, "items": [{"summary": "This spot is popular", "type": "general", "reasonName": "globalInteractionReason"}]}, "venue": {"id": "5232f3c711d2542f3f195aa4", "name": "Hard Candy Fitness", "location": {"address": "Clayallee 171 - 177", "crossStreet": "Truman Plaza", "lat": 52.4519999653621, "lng": 13.270137272361733, "labeledLatLngs": [{"label": "display", "lat": 52.4519999653621, "lng": 13.270137272361733}], "distance": 915, "postalCode": "14195", "cc": "DE", "city": "Berlin", "state": "Berlin", "country": "Deutschland", "formattedAddress": ["Clayallee 171 - 177 (Truman Plaza)", "14195 Berlin", "Deutschland"]}, "categories": [{"id": "4bf58dd8d48988d175941735", "name": "Gym / Fitness Center", "pluralName": "Gyms or Fitness Centers", "shortName": "Gym / Fitness", "icon": {"prefix": "https://ss3.4sqi.net/img/categories_v2/building/gym_", "suffix": ".png"}, "primary": true}], "photos": {"count": 0, "groups": []}}, "referralId": "e-0-5232f3c711d2542f3f195aa4-6"}, {"reasons": {"count": 0, "items": [{"summary": "This spot is popular", "type": "general", "reasonName": "globalInteractionReason"}]}, "venue": {"id": "4cb5aeae64998cfa1f810fa2", "name": "Rodelh\u00fctte", "location": {"address": "Onkel-Tom-Str. 167", "lat": 52.45562066996149, "lng": 13.250784708188448, "labeledLatLngs": [{"label": "display", "lat": 52.45562066996149, "lng": 13.250784708188448}], "distance": 589, "postalCode": "14169", "cc": "DE", "city": "Zehlendorf", "state": "Berlin", "country": "Deutschland", "formattedAddress": ["Onkel-Tom-Str. 167", "14169 Berlin", "Deutschland"]}, "categories": [{"id": "4bf58dd8d48988d10d941735", "name": "German Restaurant", "pluralName": "German Restaurants", "shortName": "German", "icon": {"prefix": "https://ss3.4sqi.net/img/categories_v2/food/german_", "suffix": ".png"}, "primary": true}], "photos": {"count": 0, "groups": []}}, "referralId": "e-0-4cb5aeae64998cfa1f810fa2-7"}, {"reasons": {"count": 0, "items": [{"summary": "This spot is popular", "type": "general", "reasonName": "globalInteractionReason"}]}, "venue": {"id": "4d941f0703e12d43df4b1aef", "name": "Ernst-Reuter-Sportfeld", "location": {"address": "Onkel-Tom-Str. 40", "crossStreet": "Siebenendenweg", "lat": 52.44388788658432, "lng": 13.252039645740297, "labeledLatLngs": [{"label": "display", "lat": 52.44388788658432, "lng": 13.252039645740297}], "distance": 925, "postalCode": "14169", "cc": "DE", "city": "Berlin", "state": "Berlin", "country": "Deutschland", "formattedAddress": ["Onkel-Tom-Str. 40 (Siebenendenweg)", "14169 Berlin", "Deutschland"]}, "categories": [{"id": "4cce455aebf7b749d5e191f5", "name": "Soccer Field", "pluralName": "Soccer Fields", "shortName": "Soccer Field", "icon": {"prefix": "https://ss3.4sqi.net/img/categories_v2/arts_entertainment/stadium_soccer_", "suffix": ".png"}, "primary": true}], "photos": {"count": 0, "groups": []}}, "referralId": "e-0-4d941f0703e12d43df4b1aef-8"}, {"reasons": {"count": 0, "items": [{"summary": "This spot is popular", "type": "general", "reasonName": "globalInteractionReason"}]}, "venue": {"id": "4c891cfdbbec6dcb007ad958", "name": "Lidl", "location": {"address": "H\u00fcttenweg 50", "lat": 52.45769677546457, "lng": 13.263739764624916, "labeledLatLngs": [{"label": "display", "lat": 52.45769677546457, "lng": 13.263739764624916}], "distance": 821, "postalCode": "14195", "cc": "DE", "city": "Berlin", "state": "Berlin", "country": "Deutschland", "formattedAddress": ["H\u00fcttenweg 50", "14195 Berlin-Steglitz-Zehlendorf", "Deutschland"]}, "categories": [{"id": "52f2ab2ebcbc57f1066b8b46", "name": "Supermarket", "pluralName": "Supermarkets", "shortName": "Supermarket", "icon": {"prefix": "https://ss3.4sqi.net/img/categories_v2/shops/food_grocery_", "suffix": ".png"}, "primary": true}], "photos": {"count": 0, "groups": []}, "venuePage": {"id": "575019945"}}, "referralId": "e-0-4c891cfdbbec6dcb007ad958-9"}, {"reasons": {"count": 0, "items": [{"summary": "This spot is popular", "type": "general", "reasonName": "globalInteractionReason"}]}, "venue": {"id": "4b4de818f964a520bdda26e3", "name": "U Onkel Toms H\u00fctte", "location": {"address": "Onkel-Tom-Str.", "crossStreet": "Argentinische Allee", "lat": 52.44999536055242, "lng": 13.253405086717178, "labeledLatLngs": [{"label": "display", "lat": 52.44999536055242, "lng": 13.253405086717178}], "distance": 291, "postalCode": "14169", "cc": "DE", "city": "Berlin", "state": "Berlin", "country": "Deutschland", "formattedAddress": ["Onkel-Tom-Str. (Argentinische Allee)", "14169 Berlin", "Deutschland"]}, "categories": [{"id": "4bf58dd8d48988d1fd931735", "name": "Metro Station", "pluralName": "Metro Stations", "shortName": "Metro", "icon": {"prefix": "https://ss3.4sqi.net/img/categories_v2/travel/subway_", "suffix": ".png"}, "primary": true}], "photos": {"count": 0, "groups": []}}, "referralId": "e-0-4b4de818f964a520bdda26e3-10"}, {"reasons": {"count": 0, "items": [{"summary": "This spot is popular", "type": "general", "reasonName": "globalInteractionReason"}]}, "venue": {"id": "4d6fe6e33a6cf04daa876679", "name": "Asia Imbiss", "location": {"address": "Ladenstr. 36", "lat": 52.45009170054011, "lng": 13.253020338247346, "labeledLatLngs": [{"label": "display", "lat": 52.45009170054011, "lng": 13.253020338247346}], "distance": 305, "postalCode": "14169", "cc": "DE", "city": "Berlin", "state": "Berlin", "country": "Deutschland", "formattedAddress": ["Ladenstr. 36", "14169 Berlin", "Deutschland"]}, "categories": [{"id": "4bf58dd8d48988d142941735", "name": "Asian Restaurant", "pluralName": "Asian Restaurants", "shortName": "Asian", "icon": {"prefix": "https://ss3.4sqi.net/img/categories_v2/food/asian_", "suffix": ".png"}, "primary": true}], "photos": {"count": 0, "groups": []}}, "referralId": "e-0-4d6fe6e33a6cf04daa876679-11"}, {"reasons": {"count": 0, "items": [{"summary": "This spot is popular", "type": "general", "reasonName": "globalInteractionReason"}]}, "venue": {"id": "4d6f87be7e16a35d381395f9", "name": "H Onkel-Tom-Stra\u00dfe", "location": {"address": "Argentinische Allee", "crossStreet": "Onkel-Tom-Str.", "lat": 52.450280911718544, "lng": 13.251586477935726, "labeledLatLngs": [{"label": "display", "lat": 52.450280911718544, "lng": 13.251586477935726}], "distance": 378, "postalCode": "14169", "cc": "DE", "city": "Berlin", "state": "Berlin", "country": "Deutschland", "formattedAddress": ["Argentinische Allee (Onkel-Tom-Str.)", "14169 Berlin", "Deutschland"]}, "categories": [{"id": "52f2ab2ebcbc57f1066b8b4f", "name": "Bus Stop", "pluralName": "Bus Stops", "shortName": "Bus Stop", "icon": {"prefix": "https://ss3.4sqi.net/img/categories_v2/travel/busstation_", "suffix": ".png"}, "primary": true}], "photos": {"count": 0, "groups": []}}, "referralId": "e-0-4d6f87be7e16a35d381395f9-12"}, {"reasons": {"count": 0, "items": [{"summary": "This spot is popular", "type": "general", "reasonName": "globalInteractionReason"}]}, "venue": {"id": "4d6cfadacb7a8cfae3f25779", "name": "nahkauf", "location": {"address": "Onkel-Tom-Str. 99", "lat": 52.44954389, "lng": 13.25205889, "labeledLatLngs": [{"label": "display", "lat": 52.44954389, "lng": 13.25205889}], "distance": 394, "postalCode": "14169", "cc": "DE", "city": "Berlin", "state": "Berlin", "country": "Deutschland", "formattedAddress": ["Onkel-Tom-Str. 99", "14169 Berlin", "Deutschland"]}, "categories": [{"id": "52f2ab2ebcbc57f1066b8b46", "name": "Supermarket", "pluralName": "Supermarkets", "shortName": "Supermarket", "icon": {"prefix": "https://ss3.4sqi.net/img/categories_v2/shops/food_grocery_", "suffix": ".png"}, "primary": true}], "photos": {"count": 0, "groups": []}}, "referralId": "e-0-4d6cfadacb7a8cfae3f25779-13"}, {"reasons": {"count": 0, "items": [{"summary": "This spot is popular", "type": "general", "reasonName": "globalInteractionReason"}]}, "venue": {"id": "4e7f2bd29adfa4c4ab2259cb", "name": "Fischtalpark", "location": {"address": "Onkel-Tom-Str.", "crossStreet": "Sophie-Charlotte-Str.", "lat": 52.44682931583239, "lng": 13.260025978088377, "labeledLatLngs": [{"label": "display", "lat": 52.44682931583239, "lng": 13.260025978088377}], "distance": 589, "postalCode": "14169", "cc": "DE", "city": "Berlin", "state": "Berlin", "country": "Deutschland", "formattedAddress": ["Onkel-Tom-Str. (Sophie-Charlotte-Str.)", "14169 Berlin", "Deutschland"]}, "categories": [{"id": "4bf58dd8d48988d163941735", "name": "Park", "pluralName": "Parks", "shortName": "Park", "icon": {"prefix": "https://ss3.4sqi.net/img/categories_v2/parks_outdoors/park_", "suffix": ".png"}, "primary": true}], "photos": {"count": 0, "groups": []}}, "referralId": "e-0-4e7f2bd29adfa4c4ab2259cb-14"}, {"reasons": {"count": 0, "items": [{"summary": "This spot is popular", "type": "general", "reasonName": "globalInteractionReason"}]}, "venue": {"id": "4e4a6fd962e13240b6fd71c1", "name": "Tennis-Verband Berlin-Brandenburg e.V. (TVBB)", "location": {"address": "H\u00fcttenweg 45", "lat": 52.454564507443024, "lng": 13.267171382904053, "labeledLatLngs": [{"label": "display", "lat": 52.454564507443024, "lng": 13.267171382904053}], "distance": 781, "postalCode": "14195", "cc": "DE", "city": "Berlin", "state": "Berlin", "country": "Deutschland", "formattedAddress": ["H\u00fcttenweg 45", "14195 Berlin", "Deutschland"]}, "categories": [{"id": "4e39a956bd410d7aed40cbc3", "name": "Tennis Court", "pluralName": "Tennis Courts", "shortName": "Tennis Court", "icon": {"prefix": "https://ss3.4sqi.net/img/categories_v2/arts_entertainment/stadium_tennis_", "suffix": ".png"}, "primary": true}], "photos": {"count": 0, "groups": []}}, "referralId": "e-0-4e4a6fd962e13240b6fd71c1-15"}, {"reasons": {"count": 0, "items": [{"summary": "This spot is popular", "type": "general", "reasonName": "globalInteractionReason"}]}, "venue": {"id": "50f82504e4b083eac335c1d2", "name": "Cole Sports-Center", "location": {"lat": 52.45427681609775, "lng": 13.268071995336392, "labeledLatLngs": [{"label": "display", "lat": 52.45427681609775, "lng": 13.268071995336392}], "distance": 825, "cc": "DE", "city": "Berlin", "state": "Berlin", "country": "Deutschland", "formattedAddress": ["Berlin", "Deutschland"]}, "categories": [{"id": "4f452cd44b9081a197eba860", "name": "Hockey Field", "pluralName": "Hockey Fields", "shortName": "Hockey Field", "icon": {"prefix": "https://ss3.4sqi.net/img/categories_v2/arts_entertainment/stadium_hockey_", "suffix": ".png"}, "primary": true}], "photos": {"count": 0, "groups": []}}, "referralId": "e-0-50f82504e4b083eac335c1d2-16"}, {"reasons": {"count": 0, "items": [{"summary": "This spot is popular", "type": "general", "reasonName": "globalInteractionReason"}]}, "venue": {"id": "4bc9ad39511f9521e806aec7", "name": "Berliner Hockey Club", "location": {"address": "Wilskistra\u00dfe 70", "lat": 52.44631094996556, "lng": 13.248104139004871, "labeledLatLngs": [{"label": "display", "lat": 52.44631094996556, "lng": 13.248104139004871}], "distance": 835, "postalCode": "14163", "cc": "DE", "city": "Berlin", "state": "Berlin", "country": "Deutschland", "formattedAddress": ["Wilskistra\u00dfe 70", "14163 Berlin", "Deutschland"]}, "categories": [{"id": "4f452cd44b9081a197eba860", "name": "Hockey Field", "pluralName": "Hockey Fields", "shortName": "Hockey Field", "icon": {"prefix": "https://ss3.4sqi.net/img/categories_v2/arts_entertainment/stadium_hockey_", "suffix": ".png"}, "primary": true}], "photos": {"count": 0, "groups": []}}, "referralId": "e-0-4bc9ad39511f9521e806aec7-17"}, {"reasons": {"count": 0, "items": [{"summary": "This spot is popular", "type": "general", "reasonName": "globalInteractionReason"}]}, "venue": {"id": "4b9f54eaf964a520031d37e3", "name": "U Oskar-Helene-Heim", "location": {"address": "Clayallee", "crossStreet": "Argentinische Allee", "lat": 52.450321240752466, "lng": 13.269335592798788, "labeledLatLngs": [{"label": "display", "lat": 52.450321240752466, "lng": 13.269335592798788}], "distance": 874, "postalCode": "14195", "cc": "DE", "city": "Berlin", "state": "Berlin", "country": "Deutschland", "formattedAddress": ["Clayallee (Argentinische Allee)", "14195 Berlin", "Deutschland"]}, "categories": [{"id": "4bf58dd8d48988d1fd931735", "name": "Metro Station", "pluralName": "Metro Stations", "shortName": "Metro", "icon": {"prefix": "https://ss3.4sqi.net/img/categories_v2/travel/subway_", "suffix": ".png"}, "primary": true}], "photos": {"count": 0, "groups": []}}, "referralId": "e-0-4b9f54eaf964a520031d37e3-18"}, {"reasons": {"count": 0, "items": [{"summary": "This spot is popular", "type": "general", "reasonName": "globalInteractionReason"}]}, "venue": {"id": "4ed201c16c2510ace2e40325", "name": "Hertha 03 Zehlendorf", "location": {"address": "Onkel-Tom-Stra\u00dfe", "lat": 52.4440185677079, "lng": 13.253190738042155, "labeledLatLngs": [{"label": "display", "lat": 52.4440185677079, "lng": 13.253190738042155}], "distance": 887, "cc": "DE", "city": "Berlin", "state": "Berlin", "country": "Deutschland", "formattedAddress": ["Onkel-Tom-Stra\u00dfe", "Berlin", "Deutschland"]}, "categories": [{"id": "4cce455aebf7b749d5e191f5", "name": "Soccer Field", "pluralName": "Soccer Fields", "shortName": "Soccer Field", "icon": {"prefix": "https://ss3.4sqi.net/img/categories_v2/arts_entertainment/stadium_soccer_", "suffix": ".png"}, "primary": true}], "photos": {"count": 0, "groups": []}}, "referralId": "e-0-4ed201c16c2510ace2e40325-19"}, {"reasons": {"count": 0, "items": [{"summary": "This spot is popular", "type": "general", "reasonName": "globalInteractionReason"}]}, "venue": {"id": "527df2d0498e8d518cfb2063", "name": "Denns Biomarkt", "location": {"lat": 52.4513809040891, "lng": 13.270123003100508, "labeledLatLngs": [{"label": "display", "lat": 52.4513809040891, "lng": 13.270123003100508}], "distance": 914, "cc": "DE", "city": "Berlin", "state": "Berlin", "country": "Deutschland", "formattedAddress": ["Berlin", "Deutschland"]}, "categories": [{"id": "4bf58dd8d48988d1f9941735", "name": "Food & Drink Shop", "pluralName": "Food & Drink Shops", "shortName": "Food & Drink", "icon": {"prefix": "https://ss3.4sqi.net/img/categories_v2/shops/foodanddrink_", "suffix": ".png"}, "primary": true}], "photos": {"count": 0, "groups": []}}, "referralId": "e-0-527df2d0498e8d518cfb2063-20"}, {"reasons": {"count": 0, "items": [{"summary": "This spot is popular", "type": "general", "reasonName": "globalInteractionReason"}]}, "venue": {"id": "56bf4045cd100614a72f4493", "name": "Butter Lindner", "location": {"address": "Clayallee 173", "lat": 52.451599, "lng": 13.270197, "labeledLatLngs": [{"label": "display", "lat": 52.451599, "lng": 13.270197}], "distance": 918, "postalCode": "14195", "cc": "DE", "city": "Berlin", "state": "Berlin", "country": "Deutschland", "formattedAddress": ["Clayallee 173", "14195 Berlin", "Deutschland"]}, "categories": [{"id": "50be8ee891d4fa8dcc7199a7", "name": "Market", "pluralName": "Markets", "shortName": "Market", "icon": {"prefix": "https://ss3.4sqi.net/img/categories_v2/shops/market_", "suffix": ".png"}, "primary": true}], "photos": {"count": 0, "groups": []}}, "referralId": "e-0-56bf4045cd100614a72f4493-21"}, {"reasons": {"count": 0, "items": [{"summary": "This spot is popular", "type": "general", "reasonName": "globalInteractionReason"}]}, "venue": {"id": "4d7a1dc918db6ea81ab55c53", "name": "H U Oskar-Helene-Heim", "location": {"address": "Clayallee", "crossStreet": "Argentinische Allee", "lat": 52.45022055502581, "lng": 13.270197846417677, "labeledLatLngs": [{"label": "display", "lat": 52.45022055502581, "lng": 13.270197846417677}], "distance": 933, "postalCode": "14195", "cc": "DE", "city": "Berlin", "state": "Berlin", "country": "Deutschland", "formattedAddress": ["Clayallee (Argentinische Allee)", "14195 Berlin", "Deutschland"]}, "categories": [{"id": "52f2ab2ebcbc57f1066b8b4f", "name": "Bus Stop", "pluralName": "Bus Stops", "shortName": "Bus Stop", "icon": {"prefix": "https://ss3.4sqi.net/img/categories_v2/travel/busstation_", "suffix": ".png"}, "primary": true}], "photos": {"count": 0, "groups": []}}, "referralId": "e-0-4d7a1dc918db6ea81ab55c53-22"}, {"reasons": {"count": 0, "items": [{"summary": "This spot is popular", "type": "general", "reasonName": "globalInteractionReason"}]}, "venue": {"id": "5845434503cf25529fafe3cc", "name": "Clays", "location": {"lat": 52.45188384114474, "lng": 13.270479368050225, "labeledLatLngs": [{"label": "display", "lat": 52.45188384114474, "lng": 13.270479368050225}], "distance": 938, "cc": "DE", "neighborhood": "Dahlem", "country": "Deutschland", "formattedAddress": ["Deutschland"]}, "categories": [{"id": "4bf58dd8d48988d105941735", "name": "Gym Pool", "pluralName": "Gym Pools", "shortName": "Pool", "icon": {"prefix": "https://ss3.4sqi.net/img/categories_v2/parks_outdoors/pool_", "suffix": ".png"}, "primary": true}], "photos": {"count": 0, "groups": []}}, "referralId": "e-0-5845434503cf25529fafe3cc-23"}, {"reasons": {"count": 0, "items": [{"summary": "This spot is popular", "type": "general", "reasonName": "globalInteractionReason"}]}, "venue": {"id": "4c4174f7af052d7ff66a7d79", "name": "Clubgastst\u00e4tte Z88", "location": {"address": "Sven-Hedin-Stra\u00dfe 85", "lat": 52.44418144225922, "lng": 13.249983787536236, "labeledLatLngs": [{"label": "display", "lat": 52.44418144225922, "lng": 13.249983787536236}], "distance": 952, "cc": "DE", "city": "Berlin", "state": "Berlin", "country": "Deutschland", "formattedAddress": ["Sven-Hedin-Stra\u00dfe 85", "Berlin", "Deutschland"]}, "categories": [{"id": "4bf58dd8d48988d10d941735", "name": "German Restaurant", "pluralName": "German Restaurants", "shortName": "German", "icon": {"prefix": "https://ss3.4sqi.net/img/categories_v2/food/german_", "suffix": ".png"}, "primary": true}], "photos": {"count": 0, "groups": []}}, "referralId": "e-0-4c4174f7af052d7ff66a7d79-24"}]